[
  {
    "name":"速8酒店(武汉黄鹤楼阅马场店)",
    "longitude":114.309624,
    "latitude":30.539658
  },
  {
    "name":"武汉凤凰如家公寓",
    "longitude":114.424355,
    "latitude":30.438293
  },
  {
    "name":"清江饭店",
    "longitude":114.299019,
    "latitude":30.549681
  },
  {
    "name":"武汉晨发公寓",
    "longitude":114.318993,
    "latitude":30.353483
  },
  {
    "name":"温馨公寓(武汉落雁路店)",
    "longitude":114.425621,
    "latitude":30.581396
  },
  {
    "name":"紫阳湖宾馆",
    "longitude":114.302505,
    "latitude":30.533764
  },
  {
    "name":"东方建国大酒店",
    "longitude":114.258591,
    "latitude":30.615992
  },
  {
    "name":"格林豪泰酒店(湖北省武汉市武昌火车站东广场)",
    "longitude":114.323219,
    "latitude":30.531385
  },
  {
    "name":"东湖大厦",
    "longitude":114.336227,
    "latitude":30.551804
  },
  {
    "name":"添雅·1911·酒店",
    "longitude":114.262779,
    "latitude":30.613987
  },
  {
    "name":"楚天粤海国际大酒店",
    "longitude":114.364037,
    "latitude":30.564615
  },
  {
    "name":"武汉江锋客栈",
    "longitude":114.251999,
    "latitude":30.612495
  },
  {
    "name":"武汉天都旅社",
    "longitude":114.055061,
    "latitude":30.623325
  },
  {
    "name":"循礼门饭店",
    "longitude":114.284195,
    "latitude":30.586016
  },
  {
    "name":"武汉东鑫大酒店",
    "longitude":114.212189,
    "latitude":30.561052
  },
  {
    "name":"九龙大酒店(雄楚店)",
    "longitude":114.344261,
    "latitude":30.510124
  },
  {
    "name":"世纪家园酒店",
    "longitude":114.213104,
    "latitude":30.560806
  },
  {
    "name":"水神客舍",
    "longitude":114.383057,
    "latitude":30.51712
  },
  {
    "name":"世纪花园大酒店",
    "longitude":114.249878,
    "latitude":30.584242
  },
  {
    "name":"安华酒店",
    "longitude":114.316444,
    "latitude":30.533146
  },
  {
    "name":"武汉湖滨花园酒店",
    "longitude":114.384232,
    "latitude":30.517494
  },
  {
    "name":"雪莲宾馆",
    "longitude":114.290878,
    "latitude":30.624216
  },
  {
    "name":"天一商务酒店",
    "longitude":114.350098,
    "latitude":30.606939
  },
  {
    "name":"武汉万达瑞华酒店",
    "longitude":114.347488,
    "latitude":30.552477
  },
  {
    "name":"扬子江天美乐饭店(武展店)",
    "longitude":114.278061,
    "latitude":30.574888
  },
  {
    "name":"武汉光明万丽酒店",
    "longitude":114.356293,
    "latitude":30.579424
  },
  {
    "name":"东风宾馆",
    "longitude":114.345528,
    "latitude":30.528412
  },
  {
    "name":"卓悦假日酒店",
    "longitude":114.368462,
    "latitude":30.51523
  },
  {
    "name":"新大地酒店",
    "longitude":114.324715,
    "latitude":30.536886
  },
  {
    "name":"舒心招待所",
    "longitude":114.188797,
    "latitude":30.611223
  },
  {
    "name":"珞珈山宾馆",
    "longitude":114.374146,
    "latitude":30.531485
  },
  {
    "name":"武汉光谷金盾大酒店",
    "longitude":114.388374,
    "latitude":30.513302
  },
  {
    "name":"武汉喜洋洋客房",
    "longitude":114.313324,
    "latitude":30.414124
  },
  {
    "name":"纽宾凯新宜国际酒店",
    "longitude":114.31781,
    "latitude":30.539644
  },
  {
    "name":"武汉米莱创意酒店",
    "longitude":114.411179,
    "latitude":30.48374
  },
  {
    "name":"兆瑞国际大酒店",
    "longitude":114.284767,
    "latitude":30.602837
  },
  {
    "name":"德加酒店(建设大道)",
    "longitude":114.29184,
    "latitude":30.613705
  },
  {
    "name":"金盾大酒店",
    "longitude":114.263718,
    "latitude":30.600325
  },
  {
    "name":"如家快捷酒店(武汉高雄路店)",
    "longitude":114.285973,
    "latitude":30.600742
  },
  {
    "name":"如家快捷酒店(武汉光谷民族大道店)",
    "longitude":114.398201,
    "latitude":30.496222
  },
  {
    "name":"军悦假日酒店",
    "longitude":114.370377,
    "latitude":30.529297
  },
  {
    "name":"莱斯国际酒店",
    "longitude":114.354027,
    "latitude":30.570086
  },
  {
    "name":"森泰中洋酒店",
    "longitude":114.2967,
    "latitude":30.53583
  },
  {
    "name":"武汉晴川假日酒店",
    "longitude":114.28553,
    "latitude":30.557474
  },
  {
    "name":"华天大酒店(徐东路)",
    "longitude":114.346825,
    "latitude":30.589085
  },
  {
    "name":"湖北民航大酒店",
    "longitude":114.279594,
    "latitude":30.588547
  },
  {
    "name":"武汉华美达天禄酒店(青年路店)",
    "longitude":114.265594,
    "latitude":30.581455
  },
  {
    "name":"光谷潮漫国际酒店",
    "longitude":114.428841,
    "latitude":30.491766
  },
  {
    "name":"武汉新华诺富特大饭店",
    "longitude":114.268677,
    "latitude":30.594082
  },
  {
    "name":"梨园大酒店",
    "longitude":114.365761,
    "latitude":30.576242
  },
  {
    "name":"长丰出租房",
    "longitude":114.213181,
    "latitude":30.608234
  },
  {
    "name":"速佳宾馆",
    "longitude":114.249763,
    "latitude":30.54862
  },
  {
    "name":"净馨旅舍(武汉光谷创业街店)",
    "longitude":114.409729,
    "latitude":30.503599
  },
  {
    "name":"新尚都酒店公寓",
    "longitude":114.405869,
    "latitude":30.506453
  },
  {
    "name":"丰颐大酒店",
    "longitude":114.365677,
    "latitude":30.529503
  },
  {
    "name":"通缘宾馆",
    "longitude":114.298798,
    "latitude":30.604177
  },
  {
    "name":"欧喜得精品酒店",
    "longitude":114.330307,
    "latitude":30.544075
  },
  {
    "name":"巴山夜雨大酒店",
    "longitude":114.332169,
    "latitude":30.544111
  },
  {
    "name":"帅府饭店",
    "longitude":114.34761,
    "latitude":30.536316
  },
  {
    "name":"V9假日酒店(武汉南湖店)",
    "longitude":114.320488,
    "latitude":30.497702
  },
  {
    "name":"武汉馨梦住宿",
    "longitude":114.352982,
    "latitude":30.714182
  },
  {
    "name":"亚洲大酒店(汉口店)",
    "longitude":114.261551,
    "latitude":30.577354
  },
  {
    "name":"城市便捷酒店(武汉长丰大道店)",
    "longitude":114.218758,
    "latitude":30.60585
  },
  {
    "name":"佳佳住宿(武汉阳逻店)",
    "longitude":114.533119,
    "latitude":30.712833
  },
  {
    "name":"洪山宾馆",
    "longitude":114.337006,
    "latitude":30.546976
  },
  {
    "name":"城市便捷酒店(武汉江汉路步行街店)",
    "longitude":114.289467,
    "latitude":30.579479
  },
  {
    "name":"军安宾馆",
    "longitude":114.259636,
    "latitude":30.61664
  },
  {
    "name":"武汉宏源招待所",
    "longitude":114.313354,
    "latitude":30.414124
  },
  {
    "name":"武汉巴洛青年旅社",
    "longitude":114.395187,
    "latitude":30.505123
  },
  {
    "name":"武汉光谷凯悦酒店",
    "longitude":114.422958,
    "latitude":30.507313
  },
  {
    "name":"安聚缘酒店",
    "longitude":114.400543,
    "latitude":30.49828
  },
  {
    "name":"锦江之星旅馆(武汉江滩步行街店)",
    "longitude":114.296417,
    "latitude":30.577608
  },
  {
    "name":"a-ok商旅酒店",
    "longitude":114.339058,
    "latitude":30.583654
  },
  {
    "name":"武汉温馨家园旅店",
    "longitude":114.152405,
    "latitude":30.505806
  },
  {
    "name":"九龙大酒店",
    "longitude":114.30275,
    "latitude":30.520506
  },
  {
    "name":"瑞丰时代酒店",
    "longitude":114.333321,
    "latitude":30.536692
  },
  {
    "name":"怡安街宾馆",
    "longitude":114.278984,
    "latitude":30.572456
  },
  {
    "name":"武汉楚缘客房部",
    "longitude":114.289253,
    "latitude":30.576605
  },
  {
    "name":"昌瑞招待所",
    "longitude":114.314865,
    "latitude":30.527418
  },
  {
    "name":"江海楼大酒店",
    "longitude":114.235298,
    "latitude":30.586067
  },
  {
    "name":"武汉顺通住宿",
    "longitude":114.184494,
    "latitude":30.611778
  },
  {
    "name":"中油酒店(中北路店)",
    "longitude":114.352097,
    "latitude":30.568047
  },
  {
    "name":"武汉五月花大酒店",
    "longitude":114.327553,
    "latitude":30.536751
  },
  {
    "name":"洪广大酒店",
    "longitude":114.333725,
    "latitude":30.544174
  },
  {
    "name":"武汉帅府饭店附楼",
    "longitude":114.347603,
    "latitude":30.536509
  },
  {
    "name":"滨江阁大酒店",
    "longitude":114.238495,
    "latitude":30.576906
  },
  {
    "name":"武汉博汇精品酒店",
    "longitude":114.398247,
    "latitude":30.636557
  },
  {
    "name":"青年酒店",
    "longitude":114.369682,
    "latitude":30.513968
  },
  {
    "name":"玲珑旭精品酒店(武汉站欢乐谷店)",
    "longitude":114.381874,
    "latitude":30.616533
  },
  {
    "name":"创意宾馆",
    "longitude":114.307541,
    "latitude":30.620604
  },
  {
    "name":"江城明珠豪生大酒店",
    "longitude":114.304146,
    "latitude":30.590769
  },
  {
    "name":"武汉万达嘉华酒店",
    "longitude":114.345993,
    "latitude":30.552395
  },
  {
    "name":"香格里拉大酒店",
    "longitude":114.283134,
    "latitude":30.602623
  },
  {
    "name":"华坤宾馆(武泰闸店)",
    "longitude":114.308861,
    "latitude":30.521145
  },
  {
    "name":"葛洲坝大酒店",
    "longitude":114.251602,
    "latitude":30.576368
  },
  {
    "name":"武汉春发旅馆",
    "longitude":114.532661,
    "latitude":30.712845
  },
  {
    "name":"武汉唐山旅馆",
    "longitude":114.906433,
    "latitude":30.869402
  },
  {
    "name":"武汉鹰谊大酒店",
    "longitude":114.808205,
    "latitude":30.838814
  },
  {
    "name":"同乐客房",
    "longitude":114.263168,
    "latitude":30.583643
  },
  {
    "name":"锦鑫快捷旅馆",
    "longitude":114.207626,
    "latitude":30.559965
  },
  {
    "name":"武汉汉阳市区惠民招待所",
    "longitude":114.193604,
    "latitude":30.567234
  },
  {
    "name":"归元旅社",
    "longitude":114.261749,
    "latitude":30.546608
  },
  {
    "name":"洪鑫快捷宾馆",
    "longitude":114.270126,
    "latitude":30.547508
  },
  {
    "name":"炎龙商务酒店(拦江路店)",
    "longitude":114.268578,
    "latitude":30.543825
  },
  {
    "name":"武汉为民旅社",
    "longitude":114.255928,
    "latitude":30.550871
  },
  {
    "name":"金源隆住宿",
    "longitude":114.263283,
    "latitude":30.549858
  },
  {
    "name":"武汉君安旅社(站前店)",
    "longitude":114.258583,
    "latitude":30.55032
  },
  {
    "name":"美佳旅馆",
    "longitude":114.203316,
    "latitude":30.567974
  },
  {
    "name":"菩提旅社",
    "longitude":114.261276,
    "latitude":30.546425
  },
  {
    "name":"玫瑰大酒店",
    "longitude":114.211449,
    "latitude":30.565872
  },
  {
    "name":"大桥宾馆(莲花湖路)",
    "longitude":114.275154,
    "latitude":30.550909
  },
  {
    "name":"武汉巫溪大自然酒店(七里一村店)",
    "longitude":114.224876,
    "latitude":30.555189
  },
  {
    "name":"金铃宾馆",
    "longitude":114.13372,
    "latitude":30.298445
  },
  {
    "name":"武汉梦之旅住宿",
    "longitude":114.31337,
    "latitude":30.414085
  },
  {
    "name":"阳光住宿(武汉东湖学院店)",
    "longitude":114.31337,
    "latitude":30.414085
  },
  {
    "name":"雅馨公寓",
    "longitude":114.331703,
    "latitude":30.365562
  },
  {
    "name":"武汉地一栈酒店",
    "longitude":114.430733,
    "latitude":30.4217
  },
  {
    "name":"莫泰168(武汉光谷金融港店)",
    "longitude":114.419868,
    "latitude":30.462078
  },
  {
    "name":"金凯商务宾馆",
    "longitude":114.443085,
    "latitude":30.435045
  },
  {
    "name":"新世纪长租房",
    "longitude":114.383766,
    "latitude":30.475504
  },
  {
    "name":"鑫来公寓",
    "longitude":114.384018,
    "latitude":30.478165
  },
  {
    "name":"书香公寓",
    "longitude":114.385559,
    "latitude":30.475515
  },
  {
    "name":"青年166长租房",
    "longitude":114.383926,
    "latitude":30.476055
  },
  {
    "name":"梦缘公寓(中南大道)",
    "longitude":114.385376,
    "latitude":30.475588
  },
  {
    "name":"宏发公寓",
    "longitude":114.384987,
    "latitude":30.476238
  },
  {
    "name":"新馨兴招待所",
    "longitude":114.310066,
    "latitude":30.404776
  },
  {
    "name":"紫玫瑰住宿",
    "longitude":114.311661,
    "latitude":30.418142
  },
  {
    "name":"四方客房",
    "longitude":114.311317,
    "latitude":30.415562
  },
  {
    "name":"君旭住宿",
    "longitude":114.323296,
    "latitude":30.352404
  },
  {
    "name":"称心宾馆(兴新街)",
    "longitude":114.306404,
    "latitude":30.348001
  },
  {
    "name":"城关住宿",
    "longitude":114.328453,
    "latitude":30.346954
  },
  {
    "name":"军齐酒店",
    "longitude":114.4254,
    "latitude":30.390596
  },
  {
    "name":"如家租住(第二师范店)",
    "longitude":114.444519,
    "latitude":30.485025
  },
  {
    "name":"华泰住宿",
    "longitude":114.374771,
    "latitude":30.411497
  },
  {
    "name":"武汉仙慧旅社",
    "longitude":114.308792,
    "latitude":30.347675
  },
  {
    "name":"祥云公寓",
    "longitude":114.383278,
    "latitude":30.476931
  },
  {
    "name":"高亢长租房",
    "longitude":114.38398,
    "latitude":30.476154
  },
  {
    "name":"维维出租屋",
    "longitude":114.383728,
    "latitude":30.474979
  },
  {
    "name":"娇子平价住宿",
    "longitude":114.313316,
    "latitude":30.414129
  },
  {
    "name":"武汉二家公寓",
    "longitude":114.384491,
    "latitude":30.475899
  },
  {
    "name":"红旗公寓",
    "longitude":114.311142,
    "latitude":30.406586
  },
  {
    "name":"鑫河丹园光谷国际酒店(正门)",
    "longitude":114.420074,
    "latitude":30.458469
  },
  {
    "name":"金鸿商务酒店",
    "longitude":114.313637,
    "latitude":30.35063
  },
  {
    "name":"有间住宿(藏龙北街)",
    "longitude":114.425224,
    "latitude":30.440262
  },
  {
    "name":"创意住宿",
    "longitude":114.434082,
    "latitude":30.456911
  },
  {
    "name":"舒家住宿",
    "longitude":114.441132,
    "latitude":30.39963
  },
  {
    "name":"博美公寓",
    "longitude":114.342583,
    "latitude":30.51895
  },
  {
    "name":"鑫隆时尚旅馆",
    "longitude":114.341705,
    "latitude":30.523977
  },
  {
    "name":"咸嘉住宿",
    "longitude":114.25985,
    "latitude":30.461039
  },
  {
    "name":"枫桥公寓",
    "longitude":114.327751,
    "latitude":30.509878
  },
  {
    "name":"美境公寓",
    "longitude":114.409973,
    "latitude":30.469725
  },
  {
    "name":"泰合宾馆",
    "longitude":114.330414,
    "latitude":30.512993
  },
  {
    "name":"新昌旅馆",
    "longitude":114.2696,
    "latitude":30.462095
  },
  {
    "name":"珈园宾馆",
    "longitude":114.359222,
    "latitude":30.532087
  },
  {
    "name":"武汉家佳酒店公寓",
    "longitude":114.353333,
    "latitude":30.52561
  },
  {
    "name":"喜莱商务酒店(欢乐谷店)",
    "longitude":114.38855,
    "latitude":30.607622
  },
  {
    "name":"凯兴商务宾馆",
    "longitude":114.419746,
    "latitude":30.489058
  },
  {
    "name":"鑫如家宾馆",
    "longitude":114.350441,
    "latitude":30.518255
  },
  {
    "name":"友缘住宿",
    "longitude":114.41275,
    "latitude":30.469936
  },
  {
    "name":"我家公馆",
    "longitude":114.427841,
    "latitude":30.603151
  },
  {
    "name":"国光宾馆",
    "longitude":114.399727,
    "latitude":30.512341
  },
  {
    "name":"武汉世茂希尔顿酒店",
    "longitude":114.27401,
    "latitude":30.538866
  },
  {
    "name":"阳光公寓(岭南路)",
    "longitude":114.329239,
    "latitude":30.513145
  },
  {
    "name":"7日时尚公寓(尖东智能花园店)",
    "longitude":114.398705,
    "latitude":30.504311
  },
  {
    "name":"武汉时尚住宿",
    "longitude":114.350426,
    "latitude":30.518023
  },
  {
    "name":"武汉爱琴海商务公寓",
    "longitude":114.398643,
    "latitude":30.504272
  },
  {
    "name":"武汉温馨公寓旅店",
    "longitude":114.401894,
    "latitude":30.506763
  },
  {
    "name":"平安宾馆(武昌大道)",
    "longitude":114.309631,
    "latitude":30.443665
  },
  {
    "name":"武汉恺德花园酒店(原武汉瑞安春天酒店)",
    "longitude":114.386894,
    "latitude":30.501461
  },
  {
    "name":"小田园公寓",
    "longitude":114.267784,
    "latitude":30.454758
  },
  {
    "name":"飞洋出租房",
    "longitude":114.42617,
    "latitude":30.590349
  },
  {
    "name":"168住宿(武汉华科店)",
    "longitude":114.426476,
    "latitude":30.506601
  },
  {
    "name":"如家快捷酒店(武汉光谷华科大店)",
    "longitude":114.424545,
    "latitude":30.508644
  },
  {
    "name":"学府公寓(武汉洪山店)",
    "longitude":114.325378,
    "latitude":30.47492
  },
  {
    "name":"武汉中意招待所",
    "longitude":114.310898,
    "latitude":30.44235
  },
  {
    "name":"八一花园酒店公寓",
    "longitude":114.387421,
    "latitude":30.491844
  },
  {
    "name":"武汉博才公寓(体院店)",
    "longitude":114.370117,
    "latitude":30.51297
  },
  {
    "name":"798club(白沙洲别墅聚会店)",
    "longitude":114.275764,
    "latitude":30.484989
  },
  {
    "name":"武汉市洪鑫住宿",
    "longitude":114.349419,
    "latitude":30.518522
  },
  {
    "name":"阳光住宿(关山大道)",
    "longitude":114.409317,
    "latitude":30.46983
  },
  {
    "name":"武汉红玉住宿",
    "longitude":114.413666,
    "latitude":30.530842
  },
  {
    "name":"广源公寓",
    "longitude":114.429977,
    "latitude":30.58547
  },
  {
    "name":"东方龙酒店(洗浴部)",
    "longitude":114.404999,
    "latitude":30.484016
  },
  {
    "name":"武汉慢跑时光酒店公寓",
    "longitude":114.427521,
    "latitude":30.602953
  },
  {
    "name":"武汉一龟龟青年旅舍",
    "longitude":114.420441,
    "latitude":30.506243
  },
  {
    "name":"武汉站和谐宾馆",
    "longitude":114.419807,
    "latitude":30.599749
  },
  {
    "name":"武汉忘不了青年旅舍",
    "longitude":114.397415,
    "latitude":30.508492
  },
  {
    "name":"楚源大厦",
    "longitude":114.371323,
    "latitude":30.527245
  },
  {
    "name":"武汉湖滨花园酒店",
    "longitude":114.384178,
    "latitude":30.51717
  },
  {
    "name":"汇通时尚旅馆",
    "longitude":114.289703,
    "latitude":30.58609
  },
  {
    "name":"华鑫时尚旅馆",
    "longitude":114.29937,
    "latitude":30.581869
  },
  {
    "name":"俊俊招待所",
    "longitude":114.27681,
    "latitude":30.618315
  },
  {
    "name":"天天红旅馆",
    "longitude":114.288727,
    "latitude":30.615234
  },
  {
    "name":"相约出租屋(知行学院店)",
    "longitude":114.370262,
    "latitude":30.690241
  },
  {
    "name":"188公寓",
    "longitude":114.315186,
    "latitude":30.639105
  },
  {
    "name":"美园旅馆",
    "longitude":114.316879,
    "latitude":30.627556
  },
  {
    "name":"朗逸公寓式酒店",
    "longitude":114.276901,
    "latitude":30.59572
  },
  {
    "name":"瑞安酒店(鑫泰八环店)",
    "longitude":114.325806,
    "latitude":30.535263
  },
  {
    "name":"福祥招待所(千家街)",
    "longitude":114.315292,
    "latitude":30.532125
  },
  {
    "name":"常虹旅馆",
    "longitude":114.239052,
    "latitude":30.626762
  },
  {
    "name":"武汉龙阳住宿",
    "longitude":114.207314,
    "latitude":30.560974
  },
  {
    "name":"武汉泊濠大酒店",
    "longitude":114.211105,
    "latitude":30.54701
  },
  {
    "name":"城市便捷酒店(武汉江夏店)",
    "longitude":114.329323,
    "latitude":30.354967
  },
  {
    "name":"武汉二楼公寓",
    "longitude":114.401527,
    "latitude":30.507048
  },
  {
    "name":"武汉海岸时代宾馆",
    "longitude":114.398643,
    "latitude":30.50428
  },
  {
    "name":"府二期橙果公寓",
    "longitude":114.330605,
    "latitude":30.502087
  },
  {
    "name":"光谷步行街公寓",
    "longitude":114.40789,
    "latitude":30.503132
  },
  {
    "name":"康诚宾馆(关东园五路)",
    "longitude":114.452171,
    "latitude":30.501884
  },
  {
    "name":"武汉振兴公寓(城市职业学院店)",
    "longitude":114.325935,
    "latitude":30.476063
  },
  {
    "name":"都市便捷酒店",
    "longitude":114.293022,
    "latitude":30.483839
  },
  {
    "name":"武汉金涛鸿怡景宾馆",
    "longitude":114.391624,
    "latitude":30.510616
  },
  {
    "name":"华坤宾馆(武汉光谷店)",
    "longitude":114.429955,
    "latitude":30.504808
  },
  {
    "name":"如家快捷酒店",
    "longitude":114.360878,
    "latitude":30.524811
  },
  {
    "name":"武汉馥盛楼大酒店",
    "longitude":114.375748,
    "latitude":30.52939
  },
  {
    "name":"南湖大厦",
    "longitude":114.354958,
    "latitude":30.509148
  },
  {
    "name":"武汉速7连锁宾馆二七北路店",
    "longitude":114.31739,
    "latitude":30.629559
  },
  {
    "name":"武汉金桥商务旅馆",
    "longitude":114.331032,
    "latitude":30.645103
  },
  {
    "name":"汇申大酒店",
    "longitude":114.311058,
    "latitude":30.602428
  },
  {
    "name":"江涛旅馆(上海路)",
    "longitude":114.29763,
    "latitude":30.578209
  },
  {
    "name":"武汉帝盛酒店",
    "longitude":114.290115,
    "latitude":30.582647
  },
  {
    "name":"美特斯宾馆(苗栗路)",
    "longitude":114.289024,
    "latitude":30.596531
  },
  {
    "name":"红艳宾馆",
    "longitude":114.286339,
    "latitude":30.586967
  },
  {
    "name":"龙之家住宿",
    "longitude":114.238914,
    "latitude":30.732742
  },
  {
    "name":"武汉好莱屋宾馆",
    "longitude":114.225494,
    "latitude":30.800018
  },
  {
    "name":"城市便捷酒店连锁(东吴大道店)",
    "longitude":114.133003,
    "latitude":30.624416
  },
  {
    "name":"汉驿旅店(友谊大道)",
    "longitude":114.358566,
    "latitude":30.603991
  },
  {
    "name":"武汉武房网商务酒店(东湖酒店)",
    "longitude":114.360031,
    "latitude":30.558453
  },
  {
    "name":"城结缘酒店",
    "longitude":114.089851,
    "latitude":30.458557
  },
  {
    "name":"阳光旅社(郭蔡路)",
    "longitude":114.153214,
    "latitude":30.488459
  },
  {
    "name":"嘉缘青年旅社(武汉奥林花园店)",
    "longitude":114.180794,
    "latitude":30.515554
  },
  {
    "name":"欣欣宾馆(武汉省博物馆店)",
    "longitude":114.359024,
    "latitude":30.568451
  },
  {
    "name":"月亮湾会馆",
    "longitude":114.322517,
    "latitude":30.587214
  },
  {
    "name":"武汉捷臣汇东商务酒店(首义路店)",
    "longitude":114.304298,
    "latitude":30.539394
  },
  {
    "name":"武汉馨豪时尚公寓",
    "longitude":114.350647,
    "latitude":30.588007
  },
  {
    "name":"武汉月季花宾馆",
    "longitude":114.254158,
    "latitude":30.61322
  },
  {
    "name":"武汉汝家短租公寓",
    "longitude":114.292053,
    "latitude":30.576416
  },
  {
    "name":"武汉7天便捷公寓酒店",
    "longitude":114.254143,
    "latitude":30.613382
  },
  {
    "name":"武汉柒天便捷酒店",
    "longitude":114.252739,
    "latitude":30.612862
  },
  {
    "name":"汉庭酒店(武汉新华路店)",
    "longitude":114.271736,
    "latitude":30.593016
  },
  {
    "name":"武汉罗兰商务宾馆",
    "longitude":114.260406,
    "latitude":30.618622
  },
  {
    "name":"武汉星阳光城市酒店(崇仁路茶叶市场店)",
    "longitude":114.259628,
    "latitude":30.57312
  },
  {
    "name":"大洲公寓",
    "longitude":114.382401,
    "latitude":30.615515
  },
  {
    "name":"武汉霞芳旅社",
    "longitude":114.538177,
    "latitude":30.718424
  },
  {
    "name":"春花住宿(汽发街)",
    "longitude":114.565712,
    "latitude":30.655558
  },
  {
    "name":"台东旅馆",
    "longitude":114.289192,
    "latitude":30.593925
  },
  {
    "name":"良希酒店",
    "longitude":114.299637,
    "latitude":30.803011
  },
  {
    "name":"雅居出租房",
    "longitude":114.377464,
    "latitude":30.533955
  },
  {
    "name":"全鑫宾馆",
    "longitude":114.254257,
    "latitude":30.631018
  },
  {
    "name":"鑫芙蓉宾馆",
    "longitude":114.486954,
    "latitude":30.604139
  },
  {
    "name":"兴隆招待所",
    "longitude":114.362442,
    "latitude":30.524401
  },
  {
    "name":"华坤城市酒店(龙阳大道)",
    "longitude":114.214172,
    "latitude":30.569336
  },
  {
    "name":"银华宾馆(钟家村店)",
    "longitude":114.267281,
    "latitude":30.546646
  },
  {
    "name":"武汉叮咚主题酒店(湖北经济学院店)",
    "longitude":114.429291,
    "latitude":30.42108
  },
  {
    "name":"武汉深情公寓",
    "longitude":114.311852,
    "latitude":30.416344
  },
  {
    "name":"柴林旅馆",
    "longitude":114.368591,
    "latitude":30.607721
  },
  {
    "name":"吉鑫商务酒店",
    "longitude":114.341393,
    "latitude":30.522482
  },
  {
    "name":"武汉188家庭旅馆(高铁站店)",
    "longitude":114.42778,
    "latitude":30.602921
  },
  {
    "name":"堤角招待所",
    "longitude":114.335785,
    "latitude":30.656687
  },
  {
    "name":"金鑫宾馆(丹水池店)",
    "longitude":114.331093,
    "latitude":30.644341
  },
  {
    "name":"晴天假日酒店",
    "longitude":114.372543,
    "latitude":30.873598
  },
  {
    "name":"佳庭宾馆",
    "longitude":114.300552,
    "latitude":30.556355
  },
  {
    "name":"桥头堡",
    "longitude":114.293785,
    "latitude":30.54599
  },
  {
    "name":"百姓客房部",
    "longitude":114.288681,
    "latitude":30.575106
  },
  {
    "name":"武汉万顺招待所",
    "longitude":114.253593,
    "latitude":30.579214
  },
  {
    "name":"家常菜酒店",
    "longitude":114.293892,
    "latitude":30.534876
  },
  {
    "name":"芳洲宾悦酒店",
    "longitude":114.255806,
    "latitude":30.522268
  },
  {
    "name":"博雅客舍",
    "longitude":114.803787,
    "latitude":30.831133
  },
  {
    "name":"荣泽宾馆",
    "longitude":114.575768,
    "latitude":30.651869
  },
  {
    "name":"鸿璟万壕大酒店",
    "longitude":114.804222,
    "latitude":30.849998
  },
  {
    "name":"馨来宾馆",
    "longitude":114.569847,
    "latitude":30.664255
  },
  {
    "name":"博雅",
    "longitude":114.803947,
    "latitude":30.831287
  },
  {
    "name":"九龙酒店",
    "longitude":114.565132,
    "latitude":30.659513
  },
  {
    "name":"文昌酒店",
    "longitude":114.813042,
    "latitude":30.846239
  },
  {
    "name":"如家住宿(武汉阳逻店)",
    "longitude":114.554779,
    "latitude":30.70112
  },
  {
    "name":"华南住宿",
    "longitude":114.554771,
    "latitude":30.701183
  },
  {
    "name":"新阳旅社",
    "longitude":114.568329,
    "latitude":30.662632
  },
  {
    "name":"海岸住宿",
    "longitude":114.568474,
    "latitude":30.662817
  },
  {
    "name":"转盘住宿",
    "longitude":114.566376,
    "latitude":30.6593
  },
  {
    "name":"阳城宾馆",
    "longitude":114.571991,
    "latitude":30.653858
  },
  {
    "name":"武汉艾仕嘉宾馆(阳逻店)",
    "longitude":114.573936,
    "latitude":30.652763
  },
  {
    "name":"武汉聚丰招待所",
    "longitude":114.526382,
    "latitude":30.707975
  },
  {
    "name":"武汉新洲健康出租屋",
    "longitude":114.805595,
    "latitude":30.834223
  },
  {
    "name":"新河旅馆",
    "longitude":114.808044,
    "latitude":30.828802
  },
  {
    "name":"99旅馆(下街店)",
    "longitude":114.92424,
    "latitude":30.832561
  },
  {
    "name":"新速8客舍",
    "longitude":114.812737,
    "latitude":30.835451
  },
  {
    "name":"武汉国凤酒店",
    "longitude":114.788155,
    "latitude":30.984331
  },
  {
    "name":"速8酒店(武汉阳逻金融街店)",
    "longitude":114.581894,
    "latitude":30.65321
  },
  {
    "name":"武汉好宜家居宾馆",
    "longitude":114.79821,
    "latitude":30.843554
  },
  {
    "name":"全成宾馆(文昌大道)",
    "longitude":114.812256,
    "latitude":30.839437
  },
  {
    "name":"武汉新洲御泉宾馆",
    "longitude":114.805557,
    "latitude":30.833649
  },
  {
    "name":"家园旅馆(武汉平江店)",
    "longitude":114.555862,
    "latitude":30.655886
  },
  {
    "name":"新区宾馆(武汉齐安大道店)",
    "longitude":114.803978,
    "latitude":30.834101
  },
  {
    "name":"枫情苑旅社",
    "longitude":114.793785,
    "latitude":30.843309
  },
  {
    "name":"东风宾馆(武汉云梦店)",
    "longitude":114.795868,
    "latitude":30.831421
  },
  {
    "name":"武汉新洲新大酒店客房部",
    "longitude":114.800125,
    "latitude":30.840992
  },
  {
    "name":"风华宾馆",
    "longitude":114.801247,
    "latitude":30.847301
  },
  {
    "name":"家园旅馆(平江大道)",
    "longitude":114.563271,
    "latitude":30.662142
  },
  {
    "name":"约定宾馆(举堤路)",
    "longitude":114.79422,
    "latitude":30.843405
  },
  {
    "name":"半岛花园酒店(平江大道店)",
    "longitude":114.562141,
    "latitude":30.663296
  },
  {
    "name":"武汉红光住宿",
    "longitude":114.570839,
    "latitude":30.660397
  },
  {
    "name":"武汉振源出租屋",
    "longitude":114.566208,
    "latitude":30.65933
  },
  {
    "name":"安鑫旅馆(平江大道)",
    "longitude":114.562981,
    "latitude":30.662416
  },
  {
    "name":"阳柳宾馆",
    "longitude":114.566109,
    "latitude":30.659698
  },
  {
    "name":"三A宾馆",
    "longitude":114.565567,
    "latitude":30.660158
  },
  {
    "name":"彩云住宿",
    "longitude":114.564995,
    "latitude":30.660591
  },
  {
    "name":"梅园宾馆(平江大道)",
    "longitude":114.564072,
    "latitude":30.661465
  },
  {
    "name":"惠佳旅社",
    "longitude":114.572166,
    "latitude":30.653355
  },
  {
    "name":"春来旅社(钟南街)",
    "longitude":114.564911,
    "latitude":30.656916
  },
  {
    "name":"聚福旅社(钟南街)",
    "longitude":114.565041,
    "latitude":30.656883
  },
  {
    "name":"小康旅社(香岗路)",
    "longitude":114.566154,
    "latitude":30.660866
  },
  {
    "name":"长城宾馆(平江大道)",
    "longitude":114.565712,
    "latitude":30.660204
  },
  {
    "name":"华兴宾馆(武汉汽渡路店)",
    "longitude":114.564781,
    "latitude":30.656469
  },
  {
    "name":"觅你时尚宾馆",
    "longitude":114.563499,
    "latitude":30.661196
  },
  {
    "name":"江山宾馆(平江大道)",
    "longitude":114.566437,
    "latitude":30.660065
  },
  {
    "name":"康泰住宿",
    "longitude":114.564705,
    "latitude":30.65814
  },
  {
    "name":"明生旅社",
    "longitude":114.562599,
    "latitude":30.662733
  },
  {
    "name":"振华旅社(阳光南路)",
    "longitude":114.564003,
    "latitude":30.656878
  },
  {
    "name":"振源旅馆",
    "longitude":114.57029,
    "latitude":30.654552
  },
  {
    "name":"阳光旅社(平江大道)",
    "longitude":114.565048,
    "latitude":30.65958
  },
  {
    "name":"豪骏宾馆",
    "longitude":114.564064,
    "latitude":30.656473
  },
  {
    "name":"黄冈旅社",
    "longitude":114.570145,
    "latitude":30.654551
  },
  {
    "name":"香岗旅社",
    "longitude":114.567413,
    "latitude":30.662457
  },
  {
    "name":"红超旅社",
    "longitude":114.569878,
    "latitude":30.661097
  },
  {
    "name":"金城旅馆(金融街)",
    "longitude":114.570648,
    "latitude":30.660442
  },
  {
    "name":"名人大酒店(军安道)",
    "longitude":114.575287,
    "latitude":30.65736
  },
  {
    "name":"铭豪快捷宾馆",
    "longitude":114.575531,
    "latitude":30.658676
  },
  {
    "name":"武汉爱情公寓生物工程学院店",
    "longitude":114.535759,
    "latitude":30.713717
  },
  {
    "name":"武汉鸿璟万壕酒店",
    "longitude":114.80407,
    "latitude":30.845079
  },
  {
    "name":"懿尚城酒店公寓",
    "longitude":114.808273,
    "latitude":30.837994
  },
  {
    "name":"武汉天鹅宾馆",
    "longitude":114.579552,
    "latitude":30.674076
  },
  {
    "name":"7天公寓(武汉生物工程学院店)",
    "longitude":114.532417,
    "latitude":30.710554
  },
  {
    "name":"海悦出租屋",
    "longitude":114.795921,
    "latitude":30.840719
  },
  {
    "name":"曹湖宾馆",
    "longitude":114.81971,
    "latitude":30.774202
  },
  {
    "name":"倾城宾馆(朝家山街)",
    "longitude":114.569191,
    "latitude":30.664253
  },
  {
    "name":"华丽旅馆",
    "longitude":114.574745,
    "latitude":30.671162
  },
  {
    "name":"君临大酒店",
    "longitude":114.922844,
    "latitude":30.833439
  },
  {
    "name":"新世纪酒楼",
    "longitude":114.618134,
    "latitude":30.861845
  },
  {
    "name":"飞浪宾馆",
    "longitude":114.803307,
    "latitude":30.83518
  },
  {
    "name":"车站招待所(齐安大道)",
    "longitude":114.803398,
    "latitude":30.835192
  },
  {
    "name":"醉人归旅社",
    "longitude":114.803848,
    "latitude":30.840405
  },
  {
    "name":"宜居轩旅馆",
    "longitude":114.813194,
    "latitude":30.843676
  },
  {
    "name":"礼馨宾馆",
    "longitude":114.801186,
    "latitude":30.831892
  },
  {
    "name":"馨安宾馆",
    "longitude":114.813499,
    "latitude":30.828936
  },
  {
    "name":"华海宾馆(文昌大道)",
    "longitude":114.811195,
    "latitude":30.829233
  },
  {
    "name":"聚缘居宾馆",
    "longitude":114.80825,
    "latitude":30.840145
  },
  {
    "name":"恒源宾馆(古衡路)",
    "longitude":114.810692,
    "latitude":30.829281
  },
  {
    "name":"文昌旅馆",
    "longitude":114.81205,
    "latitude":30.834114
  },
  {
    "name":"普罗旺斯花园酒店(新洲店)",
    "longitude":114.80117,
    "latitude":30.827244
  },
  {
    "name":"家福客栈",
    "longitude":114.803185,
    "latitude":30.828396
  },
  {
    "name":"新怡宾馆(红旗街)",
    "longitude":114.803864,
    "latitude":30.841293
  },
  {
    "name":"舒馨宾馆",
    "longitude":114.811874,
    "latitude":30.830227
  },
  {
    "name":"恒州商务宾馆",
    "longitude":114.812386,
    "latitude":30.832508
  },
  {
    "name":"如家旅馆(商发街)",
    "longitude":114.706749,
    "latitude":30.780199
  },
  {
    "name":"红玫瑰宾馆(举堤路)",
    "longitude":114.794106,
    "latitude":30.843515
  },
  {
    "name":"景江假日酒店",
    "longitude":114.79425,
    "latitude":30.838036
  },
  {
    "name":"柏林宾馆",
    "longitude":114.842255,
    "latitude":30.820641
  },
  {
    "name":"新鑫旅社(合作路)",
    "longitude":114.795082,
    "latitude":30.844023
  },
  {
    "name":"常兴旅馆(双拥路)",
    "longitude":114.800888,
    "latitude":30.832745
  },
  {
    "name":"国秀宾馆",
    "longitude":114.82386,
    "latitude":30.827604
  },
  {
    "name":"煜隆酒店",
    "longitude":114.803169,
    "latitude":30.826914
  },
  {
    "name":"宝都酒店",
    "longitude":114.795258,
    "latitude":30.82832
  },
  {
    "name":"天恒宾馆",
    "longitude":114.532547,
    "latitude":30.710762
  },
  {
    "name":"心愿招待所",
    "longitude":114.532677,
    "latitude":30.711798
  },
  {
    "name":"怡园住宿",
    "longitude":114.593147,
    "latitude":30.701385
  },
  {
    "name":"汉驿旅店(汉施路辅路)",
    "longitude":114.526489,
    "latitude":30.708708
  },
  {
    "name":"友佳旅社",
    "longitude":114.705849,
    "latitude":30.779505
  },
  {
    "name":"如家出租屋(南安街)",
    "longitude":114.797531,
    "latitude":30.839529
  },
  {
    "name":"粤港宾馆",
    "longitude":114.80455,
    "latitude":30.8494
  },
  {
    "name":"7天酒店(武汉新洲人民广场店)",
    "longitude":114.794144,
    "latitude":30.825651
  },
  {
    "name":"红人酒店",
    "longitude":114.797485,
    "latitude":30.927078
  },
  {
    "name":"盛世大酒店(双拥路)",
    "longitude":114.801041,
    "latitude":30.826887
  },
  {
    "name":"信合酒店",
    "longitude":114.758766,
    "latitude":30.925272
  },
  {
    "name":"中意住宿",
    "longitude":114.602547,
    "latitude":30.831448
  },
  {
    "name":"潇湘阁旅社",
    "longitude":114.704979,
    "latitude":30.778074
  },
  {
    "name":"虹景天酒店",
    "longitude":114.693108,
    "latitude":30.766649
  },
  {
    "name":"水云轩商务大酒店",
    "longitude":114.605957,
    "latitude":30.829754
  },
  {
    "name":"周全商务宾馆",
    "longitude":114.560364,
    "latitude":30.666262
  },
  {
    "name":"鑫玉住宿",
    "longitude":114.554779,
    "latitude":30.701242
  },
  {
    "name":"王姐酒店",
    "longitude":114.668053,
    "latitude":30.591446
  },
  {
    "name":"天港宾馆",
    "longitude":114.56459,
    "latitude":30.660074
  },
  {
    "name":"港城住宿",
    "longitude":114.565414,
    "latitude":30.66041
  },
  {
    "name":"7天酒店(武汉阳逻店)",
    "longitude":114.568451,
    "latitude":30.657307
  },
  {
    "name":"武汉四季欣商务宾馆",
    "longitude":114.809349,
    "latitude":30.829279
  },
  {
    "name":"凯莱大酒店",
    "longitude":114.574745,
    "latitude":30.652256
  },
  {
    "name":"武汉华丽宾馆",
    "longitude":114.561928,
    "latitude":30.653185
  },
  {
    "name":"武汉顺心旅社",
    "longitude":114.57634,
    "latitude":30.66671
  },
  {
    "name":"雅园宾馆(平江大道)",
    "longitude":114.563644,
    "latitude":30.661047
  },
  {
    "name":"安居出租屋",
    "longitude":114.797592,
    "latitude":30.839621
  },
  {
    "name":"武汉阳光890招待所",
    "longitude":114.532066,
    "latitude":30.712252
  },
  {
    "name":"泰安出租屋",
    "longitude":114.804077,
    "latitude":30.846117
  },
  {
    "name":"鑫天缘住宿",
    "longitude":114.569145,
    "latitude":30.66423
  },
  {
    "name":"武汉天安住宿",
    "longitude":114.534241,
    "latitude":30.715158
  },
  {
    "name":"武汉华英招待所",
    "longitude":114.535988,
    "latitude":30.717728
  },
  {
    "name":"武汉春发旅馆",
    "longitude":114.532654,
    "latitude":30.71283
  },
  {
    "name":"武汉雲来出租屋",
    "longitude":114.528351,
    "latitude":30.711761
  },
  {
    "name":"武汉南厢出租屋",
    "longitude":114.534683,
    "latitude":30.713703
  },
  {
    "name":"武汉乡间住宿",
    "longitude":114.535309,
    "latitude":30.705814
  },
  {
    "name":"武汉鑫隆出租屋",
    "longitude":114.535423,
    "latitude":30.706459
  },
  {
    "name":"新缘住宿(武汉阳逻店)",
    "longitude":114.538437,
    "latitude":30.717518
  },
  {
    "name":"武汉鑫安招待所",
    "longitude":114.532845,
    "latitude":30.712824
  },
  {
    "name":"武汉百信住宿部",
    "longitude":114.805618,
    "latitude":30.834309
  },
  {
    "name":"武汉馨伊莱酒店公寓",
    "longitude":114.574348,
    "latitude":30.66917
  },
  {
    "name":"新城旅社",
    "longitude":114.570679,
    "latitude":30.70463
  },
  {
    "name":"武汉加洲旅馆",
    "longitude":114.535255,
    "latitude":30.7131
  },
  {
    "name":"武汉他她公寓",
    "longitude":114.535118,
    "latitude":30.707109
  },
  {
    "name":"武汉如意出租屋",
    "longitude":114.7388,
    "latitude":30.976244
  },
  {
    "name":"武汉玉宫公寓",
    "longitude":114.803024,
    "latitude":30.84127
  },
  {
    "name":"武汉兴楚旅社",
    "longitude":114.526405,
    "latitude":30.708185
  },
  {
    "name":"武汉福春旅社",
    "longitude":114.554703,
    "latitude":30.697935
  },
  {
    "name":"如家住宿(武汉阳逻店)",
    "longitude":114.55217,
    "latitude":30.699417
  },
  {
    "name":"武汉同院住宿",
    "longitude":114.552132,
    "latitude":30.69968
  },
  {
    "name":"武汉平宏出租屋",
    "longitude":114.552475,
    "latitude":30.699598
  },
  {
    "name":"武汉黄冈旅社",
    "longitude":114.562592,
    "latitude":30.662146
  },
  {
    "name":"武汉青松旅社",
    "longitude":114.552536,
    "latitude":30.700111
  },
  {
    "name":"武汉天立酒店",
    "longitude":114.989357,
    "latitude":30.875965
  },
  {
    "name":"硚口政府度假村",
    "longitude":115.002289,
    "latitude":30.873503
  },
  {
    "name":"武汉君安住宿",
    "longitude":114.532516,
    "latitude":30.711985
  },
  {
    "name":"武汉快乐时空旅馆",
    "longitude":114.533165,
    "latitude":30.711967
  },
  {
    "name":"时信宾馆",
    "longitude":114.534241,
    "latitude":30.711544
  },
  {
    "name":"武汉心愿住宿",
    "longitude":114.535629,
    "latitude":30.705893
  },
  {
    "name":"武汉深蓝住宿",
    "longitude":114.535118,
    "latitude":30.705883
  },
  {
    "name":"情缘居旅社",
    "longitude":114.53315,
    "latitude":30.712624
  },
  {
    "name":"祥瑞宾馆",
    "longitude":114.793564,
    "latitude":30.822824
  },
  {
    "name":"武汉仙缘招待所",
    "longitude":114.538658,
    "latitude":30.718983
  },
  {
    "name":"武汉随缘出租屋",
    "longitude":114.53537,
    "latitude":30.713467
  },
  {
    "name":"武汉雅雅出租屋",
    "longitude":114.552101,
    "latitude":30.700363
  },
  {
    "name":"武汉校园出租公寓",
    "longitude":114.535423,
    "latitude":30.706459
  },
  {
    "name":"武汉三星招待所",
    "longitude":114.532486,
    "latitude":30.7061
  },
  {
    "name":"便民旅社",
    "longitude":114.706947,
    "latitude":30.780676
  },
  {
    "name":"武汉诚羲商务酒店",
    "longitude":114.644562,
    "latitude":30.590776
  },
  {
    "name":"粮贸住宿",
    "longitude":114.924713,
    "latitude":30.833824
  },
  {
    "name":"武汉四方缘旅社",
    "longitude":114.650749,
    "latitude":30.590199
  },
  {
    "name":"武汉汪集招待所",
    "longitude":114.705162,
    "latitude":30.778664
  },
  {
    "name":"武汉先阁旅店",
    "longitude":114.707108,
    "latitude":30.780993
  },
  {
    "name":"武汉欢迎住宿",
    "longitude":114.804466,
    "latitude":30.835922
  },
  {
    "name":"凤凰住宿(武汉凤凰街店)",
    "longitude":114.75798,
    "latitude":30.925091
  },
  {
    "name":"武汉富贵阁住宿",
    "longitude":114.650093,
    "latitude":30.58905
  },
  {
    "name":"武汉震鑫宾馆",
    "longitude":114.648102,
    "latitude":30.585707
  },
  {
    "name":"武汉正源宾馆",
    "longitude":114.603271,
    "latitude":30.830929
  },
  {
    "name":"武汉三角住宿",
    "longitude":114.604698,
    "latitude":30.835413
  },
  {
    "name":"武汉东方旅馆",
    "longitude":114.532822,
    "latitude":30.713778
  },
  {
    "name":"武汉长期客栈",
    "longitude":114.526764,
    "latitude":30.707855
  },
  {
    "name":"新缘住宿",
    "longitude":114.535057,
    "latitude":30.705839
  },
  {
    "name":"福星宾馆",
    "longitude":114.827408,
    "latitude":30.826998
  },
  {
    "name":"武汉石化招待所",
    "longitude":114.606033,
    "latitude":30.837181
  },
  {
    "name":"武汉邾城旅馆",
    "longitude":114.803261,
    "latitude":30.835344
  },
  {
    "name":"豪吉宾馆",
    "longitude":114.804482,
    "latitude":30.832994
  },
  {
    "name":"武汉唐山旅馆",
    "longitude":114.906303,
    "latitude":30.869408
  },
  {
    "name":"武汉万客隆时尚旅馆",
    "longitude":114.535118,
    "latitude":30.705898
  },
  {
    "name":"2099主题酒店",
    "longitude":114.801178,
    "latitude":30.840899
  },
  {
    "name":"龙凤宾馆",
    "longitude":114.810242,
    "latitude":30.833216
  },
  {
    "name":"虹景酒店(古城大道)",
    "longitude":114.798195,
    "latitude":30.826361
  },
  {
    "name":"武汉车站住宿(仓埠街店)",
    "longitude":114.604607,
    "latitude":30.836668
  },
  {
    "name":"恋巢主题宾馆(生物学院店)",
    "longitude":114.526749,
    "latitude":30.709154
  },
  {
    "name":"汪思住宿",
    "longitude":114.564873,
    "latitude":30.656565
  },
  {
    "name":"武汉嘉丽住宿",
    "longitude":114.568512,
    "latitude":30.662897
  },
  {
    "name":"凤翔宾馆(江夏大道)",
    "longitude":114.816162,
    "latitude":30.852268
  },
  {
    "name":"红红旅社",
    "longitude":114.704803,
    "latitude":30.777737
  },
  {
    "name":"祥云宾馆",
    "longitude":114.668663,
    "latitude":30.591663
  },
  {
    "name":"宏泰宾馆(商发街)",
    "longitude":114.70594,
    "latitude":30.778675
  },
  {
    "name":"永安旅社(小巷)",
    "longitude":114.55661,
    "latitude":30.654131
  },
  {
    "name":"聚友宾馆(齐安大道)",
    "longitude":114.804558,
    "latitude":30.843609
  },
  {
    "name":"联盛旅社",
    "longitude":114.565842,
    "latitude":30.66041
  },
  {
    "name":"长虹大酒店",
    "longitude":114.983803,
    "latitude":30.876587
  },
  {
    "name":"武汉邾城花园宾馆",
    "longitude":114.798958,
    "latitude":30.83427
  },
  {
    "name":"惠民住宿",
    "longitude":114.668594,
    "latitude":30.591602
  },
  {
    "name":"天一快捷宾馆(阳逻武湖店)",
    "longitude":114.53334,
    "latitude":30.711681
  },
  {
    "name":"随缘旅馆",
    "longitude":114.577621,
    "latitude":30.661192
  },
  {
    "name":"九九隆酒店",
    "longitude":114.795235,
    "latitude":30.928017
  },
  {
    "name":"武汉如家出租屋",
    "longitude":114.569817,
    "latitude":30.652403
  },
  {
    "name":"武汉乡间住宿",
    "longitude":114.569817,
    "latitude":30.652403
  },
  {
    "name":"周记住宿",
    "longitude":114.563591,
    "latitude":30.661097
  },
  {
    "name":"武汉投缘居出租屋",
    "longitude":114.533844,
    "latitude":30.712536
  },
  {
    "name":"周记旅社",
    "longitude":114.623932,
    "latitude":30.869543
  },
  {
    "name":"福顺住宿",
    "longitude":114.562973,
    "latitude":30.654373
  },
  {
    "name":"惠民旅社(齐安大道)",
    "longitude":114.804619,
    "latitude":30.843832
  },
  {
    "name":"森森旅社",
    "longitude":114.804482,
    "latitude":30.842527
  },
  {
    "name":"倾城宾馆(平江大道)",
    "longitude":114.564926,
    "latitude":30.660618
  },
  {
    "name":"永安旅社(军安北路)",
    "longitude":114.572884,
    "latitude":30.654015
  },
  {
    "name":"军民宾馆(军安北路)",
    "longitude":114.576897,
    "latitude":30.660118
  },
  {
    "name":"城市便捷酒店(阳逻阳光大道店)",
    "longitude":114.572403,
    "latitude":30.66773
  },
  {
    "name":"民生住宿",
    "longitude":114.804604,
    "latitude":30.843767
  },
  {
    "name":"欧喜得精品酒店",
    "longitude":114.604149,
    "latitude":30.834999
  },
  {
    "name":"武汉小田园酒楼住宿",
    "longitude":114.987427,
    "latitude":30.876854
  },
  {
    "name":"商厦宾馆(阳光购物中心南)",
    "longitude":114.566315,
    "latitude":30.658556
  },
  {
    "name":"天地三五酒店",
    "longitude":114.800217,
    "latitude":30.843168
  },
  {
    "name":"天地世纪宾馆",
    "longitude":114.802498,
    "latitude":30.844124
  },
  {
    "name":"武汉新洲新大酒店",
    "longitude":114.800156,
    "latitude":30.842585
  },
  {
    "name":"太公武酒店",
    "longitude":114.573105,
    "latitude":30.653191
  },
  {
    "name":"陆斯酒店",
    "longitude":114.79863,
    "latitude":30.8444
  },
  {
    "name":"新佳宾馆",
    "longitude":114.533119,
    "latitude":30.712538
  },
  {
    "name":"汉驿连锁旅店(武汉生物工程学院店)",
    "longitude":114.52742,
    "latitude":30.708906
  },
  {
    "name":"万达旅业",
    "longitude":114.797089,
    "latitude":30.829885
  },
  {
    "name":"金城宾馆",
    "longitude":114.793762,
    "latitude":30.833277
  },
  {
    "name":"芜湖街道紫轩雅苑",
    "longitude":114.530907,
    "latitude":30.707695
  },
  {
    "name":"佳怡宾馆",
    "longitude":114.812828,
    "latitude":30.83317
  },
  {
    "name":"恒鑫住宿",
    "longitude":114.568428,
    "latitude":30.650772
  },
  {
    "name":"金叶大酒店(汽发街)",
    "longitude":114.567703,
    "latitude":30.657965
  },
  {
    "name":"东方宾馆(平江大道)",
    "longitude":114.56633,
    "latitude":30.658554
  },
  {
    "name":"法苑客舍",
    "longitude":114.799095,
    "latitude":30.832964
  },
  {
    "name":"衡州大酒店",
    "longitude":114.794937,
    "latitude":30.83329
  },
  {
    "name":"金源旅社",
    "longitude":114.573624,
    "latitude":30.652929
  },
  {
    "name":"四季香大酒店",
    "longitude":114.566353,
    "latitude":30.653673
  },
  {
    "name":"天鹅宾馆(金融街)",
    "longitude":114.567017,
    "latitude":30.66188
  },
  {
    "name":"夏威夷大酒店",
    "longitude":114.795708,
    "latitude":30.927608
  },
  {
    "name":"红四方宾馆",
    "longitude":114.801147,
    "latitude":30.833023
  },
  {
    "name":"华威招待所",
    "longitude":114.566551,
    "latitude":30.653606
  },
  {
    "name":"新宏宾馆",
    "longitude":114.805054,
    "latitude":30.832966
  },
  {
    "name":"阳光宾馆(平江大道)",
    "longitude":114.565742,
    "latitude":30.660583
  },
  {
    "name":"武汉新洲新大酒店",
    "longitude":114.800102,
    "latitude":30.840977
  },
  {
    "name":"新科出租屋",
    "longitude":114.803741,
    "latitude":30.829468
  },
  {
    "name":"斯味特大酒店",
    "longitude":114.56852,
    "latitude":30.657261
  },
  {
    "name":"武汉广电道观河度假村",
    "longitude":115.014488,
    "latitude":30.867397
  },
  {
    "name":"聚香居商务宾馆",
    "longitude":114.561638,
    "latitude":30.663992
  },
  {
    "name":"杏花酒店",
    "longitude":114.550735,
    "latitude":30.699629
  },
  {
    "name":"沁园春大酒店(政通路)",
    "longitude":114.807877,
    "latitude":30.837601
  },
  {
    "name":"永安旅馆(永安大道)",
    "longitude":114.808548,
    "latitude":30.846043
  },
  {
    "name":"方圆住宿(汽发街)",
    "longitude":114.56794,
    "latitude":30.65711
  },
  {
    "name":"圣都宾馆(衡州大街)",
    "longitude":114.804939,
    "latitude":30.832972
  },
  {
    "name":"森鑫宾馆(衡州大街)",
    "longitude":114.804512,
    "latitude":30.8328
  },
  {
    "name":"康洁住宿",
    "longitude":114.807022,
    "latitude":30.832901
  },
  {
    "name":"三红酒店",
    "longitude":114.570015,
    "latitude":30.704498
  },
  {
    "name":"龙腾宾馆(龙腾大道店)",
    "longitude":114.804504,
    "latitude":30.828142
  },
  {
    "name":"金鑫宾馆(文昌大道)",
    "longitude":114.81179,
    "latitude":30.82929
  },
  {
    "name":"长城宾馆(古衡路)",
    "longitude":114.8097,
    "latitude":30.829336
  },
  {
    "name":"章林宾馆",
    "longitude":114.798622,
    "latitude":30.832373
  },
  {
    "name":"怡安宾馆",
    "longitude":114.809494,
    "latitude":30.838791
  },
  {
    "name":"龙鑫宾馆(人民路)",
    "longitude":114.795486,
    "latitude":30.833712
  },
  {
    "name":"龙丘大酒店",
    "longitude":114.7827,
    "latitude":30.922483
  },
  {
    "name":"新港国际大酒店",
    "longitude":114.570045,
    "latitude":30.703722
  },
  {
    "name":"新洲服务区住宿",
    "longitude":114.905594,
    "latitude":30.952665
  },
  {
    "name":"新洲服务区住宿",
    "longitude":114.903252,
    "latitude":30.953199
  },
  {
    "name":"太平洋宾馆(古州路)",
    "longitude":114.799362,
    "latitude":30.835323
  },
  {
    "name":"馨怡宾馆(衡州大街)",
    "longitude":114.812767,
    "latitude":30.833111
  },
  {
    "name":"和家顺宾馆",
    "longitude":114.800728,
    "latitude":30.829769
  },
  {
    "name":"吉祥宾馆(南安街)",
    "longitude":114.796913,
    "latitude":30.839561
  },
  {
    "name":"星梦缘宾馆",
    "longitude":114.795357,
    "latitude":30.836971
  },
  {
    "name":"欣云宾馆(衡州大街)",
    "longitude":114.805077,
    "latitude":30.833387
  },
  {
    "name":"育英招待所",
    "longitude":114.814545,
    "latitude":30.846067
  },
  {
    "name":"鄂东宾馆",
    "longitude":114.800255,
    "latitude":30.827438
  },
  {
    "name":"逢原商务酒店",
    "longitude":114.802582,
    "latitude":30.84104
  },
  {
    "name":"林祥源宾馆",
    "longitude":114.794861,
    "latitude":30.84214
  },
  {
    "name":"成红宾馆",
    "longitude":114.80262,
    "latitude":30.832186
  },
  {
    "name":"永昌宾馆",
    "longitude":114.80851,
    "latitude":30.845369
  },
  {
    "name":"武汉新区宾馆(衡州大道店)",
    "longitude":114.805153,
    "latitude":30.83296
  },
  {
    "name":"馨丽宾馆(举堤路)",
    "longitude":114.794052,
    "latitude":30.842894
  },
  {
    "name":"恒兴宾馆(衡州大街)",
    "longitude":114.801987,
    "latitude":30.832756
  },
  {
    "name":"辉煌宾馆(衡州大街)",
    "longitude":114.801605,
    "latitude":30.833078
  },
  {
    "name":"祥云宾馆(衡州大街)",
    "longitude":114.800568,
    "latitude":30.833103
  },
  {
    "name":"百世恒酒店",
    "longitude":114.804253,
    "latitude":30.851706
  },
  {
    "name":"华兴宾馆",
    "longitude":114.801491,
    "latitude":30.827831
  },
  {
    "name":"振兴宾馆(双拥路)",
    "longitude":114.800629,
    "latitude":30.827976
  },
  {
    "name":"君悦宾馆(武汉凤凰街店)",
    "longitude":114.804375,
    "latitude":30.836458
  },
  {
    "name":"飞越宾馆(古城大道)",
    "longitude":114.799133,
    "latitude":30.835854
  },
  {
    "name":"上圆宾馆",
    "longitude":114.806244,
    "latitude":30.846348
  },
  {
    "name":"武汉金鹤宾馆(衡州大道店)",
    "longitude":114.804581,
    "latitude":30.832979
  },
  {
    "name":"嘉源宾馆(武汉衡州大道店)",
    "longitude":114.804733,
    "latitude":30.832973
  },
  {
    "name":"辉望宾馆(武汉新洲文昌大道店)",
    "longitude":114.812286,
    "latitude":30.842106
  },
  {
    "name":"宏昌宾馆(人民路)",
    "longitude":114.795166,
    "latitude":30.826687
  },
  {
    "name":"声雅大酒店",
    "longitude":114.799049,
    "latitude":30.830557
  },
  {
    "name":"佳源宾馆",
    "longitude":114.802406,
    "latitude":30.827501
  },
  {
    "name":"新星宾馆(齐安大道)",
    "longitude":114.803627,
    "latitude":30.827509
  },
  {
    "name":"新区旅馆",
    "longitude":114.801331,
    "latitude":30.833084
  },
  {
    "name":"大鸿图酒店旅社",
    "longitude":114.623299,
    "latitude":30.870039
  },
  {
    "name":"宏伟酒店",
    "longitude":114.758217,
    "latitude":30.92725
  },
  {
    "name":"梅园酒店(徐古大道店)",
    "longitude":114.978539,
    "latitude":30.94449
  },
  {
    "name":"建安大酒店",
    "longitude":114.80777,
    "latitude":30.844252
  },
  {
    "name":"鹰迪宾馆",
    "longitude":114.988411,
    "latitude":30.874647
  },
  {
    "name":"锦程商务宾馆(平江大道)",
    "longitude":114.563774,
    "latitude":30.660929
  },
  {
    "name":"帝豪宾馆(高新街)",
    "longitude":114.572891,
    "latitude":30.668097
  },
  {
    "name":"君安酒店",
    "longitude":114.569611,
    "latitude":30.704037
  },
  {
    "name":"李集宾馆",
    "longitude":114.675179,
    "latitude":30.869898
  },
  {
    "name":"鑫华旅社(平江大道)",
    "longitude":114.554688,
    "latitude":30.698238
  },
  {
    "name":"振兴宾馆(武汉潘塘街店)",
    "longitude":114.88958,
    "latitude":31.000816
  },
  {
    "name":"光明酒店(旅游大道)",
    "longitude":114.982697,
    "latitude":30.876747
  },
  {
    "name":"鑫源宾馆(广场街)",
    "longitude":114.7976,
    "latitude":30.829878
  },
  {
    "name":"富华宾馆(云梦街)",
    "longitude":114.809776,
    "latitude":30.830975
  },
  {
    "name":"万盛宾馆(章林路)",
    "longitude":114.791618,
    "latitude":30.825436
  },
  {
    "name":"龙城宾馆(龙城华庭大街)",
    "longitude":114.813232,
    "latitude":30.839426
  },
  {
    "name":"玲珑宾馆",
    "longitude":114.805237,
    "latitude":30.828348
  },
  {
    "name":"联谊宾馆(商发街)",
    "longitude":114.706215,
    "latitude":30.779192
  },
  {
    "name":"盛鸿大酒店",
    "longitude":114.705231,
    "latitude":30.778488
  },
  {
    "name":"枫林晚宾馆",
    "longitude":114.803452,
    "latitude":30.832481
  },
  {
    "name":"中泊宾馆",
    "longitude":114.800766,
    "latitude":30.833096
  },
  {
    "name":"艾仕丽宾馆(阳逻精品店)",
    "longitude":114.566902,
    "latitude":30.661722
  },
  {
    "name":"金德宾馆(金融街)",
    "longitude":114.570099,
    "latitude":30.660295
  },
  {
    "name":"好再来住宿(平江大道)",
    "longitude":114.563583,
    "latitude":30.661821
  },
  {
    "name":"艾雅宾馆",
    "longitude":114.571861,
    "latitude":30.659561
  },
  {
    "name":"品尚快捷宾馆",
    "longitude":114.56353,
    "latitude":30.661156
  },
  {
    "name":"新源宾馆(平江大道)",
    "longitude":114.565041,
    "latitude":30.660416
  },
  {
    "name":"华晨住宿",
    "longitude":114.567612,
    "latitude":30.65741
  },
  {
    "name":"四方缘酒店",
    "longitude":114.604904,
    "latitude":30.748573
  },
  {
    "name":"福馨旅社",
    "longitude":114.793633,
    "latitude":30.843508
  },
  {
    "name":"景福瑞假日酒店",
    "longitude":114.805084,
    "latitude":30.86009
  },
  {
    "name":"凉亭宾馆",
    "longitude":114.614326,
    "latitude":30.776211
  },
  {
    "name":"勇春住宿",
    "longitude":114.793831,
    "latitude":30.843248
  },
  {
    "name":"百仕德酒店",
    "longitude":114.574783,
    "latitude":30.65671
  },
  {
    "name":"福源旅馆(新洲大街)",
    "longitude":114.813278,
    "latitude":30.844019
  },
  {
    "name":"聚缘宾馆(气象路)",
    "longitude":114.803642,
    "latitude":30.825504
  },
  {
    "name":"天香宾馆",
    "longitude":114.806328,
    "latitude":30.829084
  },
  {
    "name":"金香",
    "longitude":114.809044,
    "latitude":30.829317
  },
  {
    "name":"梦缘宾馆(古衡路)",
    "longitude":114.809593,
    "latitude":30.829338
  },
  {
    "name":"锦绣天堂大酒店",
    "longitude":114.796265,
    "latitude":30.845375
  },
  {
    "name":"琴怡宾馆",
    "longitude":114.801224,
    "latitude":30.83279
  },
  {
    "name":"东风宾馆(武汉云梦店)",
    "longitude":114.802933,
    "latitude":30.832466
  },
  {
    "name":"满缘红宾馆",
    "longitude":114.809685,
    "latitude":30.829849
  },
  {
    "name":"桃源宾馆(衡州大道店)",
    "longitude":114.80484,
    "latitude":30.832973
  },
  {
    "name":"诚义商务酒店",
    "longitude":114.644287,
    "latitude":30.590965
  },
  {
    "name":"陶石钓鱼台",
    "longitude":114.798988,
    "latitude":30.864395
  },
  {
    "name":"衡洲宾馆",
    "longitude":114.793709,
    "latitude":30.833305
  },
  {
    "name":"武汉金鹤宾馆(齐安大道店)",
    "longitude":114.803246,
    "latitude":30.835684
  },
  {
    "name":"万欣商务酒店",
    "longitude":114.813171,
    "latitude":30.828997
  },
  {
    "name":"桂花山庄",
    "longitude":114.721313,
    "latitude":30.831472
  },
  {
    "name":"湘江花园酒店",
    "longitude":114.56691,
    "latitude":30.663609
  },
  {
    "name":"林特宾馆",
    "longitude":114.803917,
    "latitude":30.84181
  },
  {
    "name":"朋来旅馆(平江大道)",
    "longitude":114.563782,
    "latitude":30.661671
  },
  {
    "name":"府南旅馆",
    "longitude":114.805031,
    "latitude":30.83786
  },
  {
    "name":"新世界嘉源宾馆",
    "longitude":114.801941,
    "latitude":30.843462
  },
  {
    "name":"邾城花园公寓",
    "longitude":114.803215,
    "latitude":30.835272
  },
  {
    "name":"天浪宾馆",
    "longitude":114.804558,
    "latitude":30.843702
  },
  {
    "name":"康宏旅馆",
    "longitude":114.79808,
    "latitude":30.83952
  },
  {
    "name":"瑞福祥宾馆",
    "longitude":114.800812,
    "latitude":30.82976
  },
  {
    "name":"施岗服务区-宾馆",
    "longitude":114.585228,
    "latitude":30.691675
  },
  {
    "name":"梦你香旅社",
    "longitude":114.564346,
    "latitude":30.660442
  },
  {
    "name":"天浩旅社",
    "longitude":114.564827,
    "latitude":30.657122
  },
  {
    "name":"天缘旅社(钟南街)",
    "longitude":114.564941,
    "latitude":30.657312
  },
  {
    "name":"武汉邾城宾馆迎宾楼",
    "longitude":114.800537,
    "latitude":30.841141
  },
  {
    "name":"春圣招待所",
    "longitude":114.605888,
    "latitude":30.837727
  },
  {
    "name":"紫茗宾馆",
    "longitude":114.565308,
    "latitude":30.660385
  },
  {
    "name":"新洲政府招待所邾城宾馆道观分部",
    "longitude":115.002296,
    "latitude":30.873356
  },
  {
    "name":"安居客房",
    "longitude":114.7976,
    "latitude":30.839523
  },
  {
    "name":"白云旅社",
    "longitude":114.565689,
    "latitude":30.660191
  },
  {
    "name":"莲花住宿(汽发街)",
    "longitude":114.567841,
    "latitude":30.657841
  },
  {
    "name":"新港招待所",
    "longitude":114.558464,
    "latitude":30.669416
  },
  {
    "name":"浦东园招待所",
    "longitude":114.566406,
    "latitude":30.661093
  },
  {
    "name":"长禄源宾馆",
    "longitude":114.804245,
    "latitude":30.836466
  },
  {
    "name":"方园宾馆",
    "longitude":114.568207,
    "latitude":30.656967
  },
  {
    "name":"晋华宾馆",
    "longitude":114.576614,
    "latitude":30.666536
  },
  {
    "name":"泰绅酒店",
    "longitude":114.31958,
    "latitude":30.644264
  },
  {
    "name":"兴源宾馆",
    "longitude":114.302094,
    "latitude":30.627953
  },
  {
    "name":"安陆汉办招待所",
    "longitude":114.278603,
    "latitude":30.596869
  },
  {
    "name":"天鑫宾馆(武汉青岛路店)",
    "longitude":114.298622,
    "latitude":30.581621
  },
  {
    "name":"武汉马哥孛罗酒店",
    "longitude":114.301773,
    "latitude":30.585293
  },
  {
    "name":"鸿缘商务旅馆",
    "longitude":114.291969,
    "latitude":30.582071
  },
  {
    "name":"瑞祥宾馆(湖边坊店)",
    "longitude":114.292191,
    "latitude":30.604189
  },
  {
    "name":"江凌旅社",
    "longitude":114.311401,
    "latitude":30.615177
  },
  {
    "name":"云泰6+1酒店(永清店)",
    "longitude":114.300117,
    "latitude":30.613005
  },
  {
    "name":"九洲招待所",
    "longitude":114.300354,
    "latitude":30.58993
  },
  {
    "name":"君悦商务酒店",
    "longitude":114.29686,
    "latitude":30.586082
  },
  {
    "name":"隆馨时尚旅馆",
    "longitude":114.298592,
    "latitude":30.616203
  },
  {
    "name":"锦星宾馆(汉口三阳路店)",
    "longitude":114.305573,
    "latitude":30.597185
  },
  {
    "name":"江滩6+1假日宾馆(洞庭街店)",
    "longitude":114.296387,
    "latitude":30.578075
  },
  {
    "name":"武汉汇豪大酒店",
    "longitude":114.286781,
    "latitude":30.586224
  },
  {
    "name":"一日游旅业",
    "longitude":114.297768,
    "latitude":30.591867
  },
  {
    "name":"雷龙招待所",
    "longitude":114.326141,
    "latitude":30.633705
  },
  {
    "name":"舒鑫旅馆",
    "longitude":114.320557,
    "latitude":30.626997
  },
  {
    "name":"鑫洪源客房部",
    "longitude":114.33094,
    "latitude":30.645065
  },
  {
    "name":"董都宾馆",
    "longitude":114.144676,
    "latitude":30.559195
  },
  {
    "name":"华坤宾馆(武泰闸店)",
    "longitude":114.308838,
    "latitude":30.521093
  },
  {
    "name":"清江饭店",
    "longitude":114.298981,
    "latitude":30.549822
  },
  {
    "name":"新大地酒店",
    "longitude":114.324646,
    "latitude":30.536978
  },
  {
    "name":"舒心招待所",
    "longitude":114.188766,
    "latitude":30.611046
  },
  {
    "name":"江海楼大酒店",
    "longitude":114.235275,
    "latitude":30.585897
  },
  {
    "name":"滨江阁大酒店",
    "longitude":114.238388,
    "latitude":30.576967
  },
  {
    "name":"洪广大酒店",
    "longitude":114.333649,
    "latitude":30.544271
  },
  {
    "name":"武汉东鑫大酒店",
    "longitude":114.212059,
    "latitude":30.560713
  },
  {
    "name":"青年酒店",
    "longitude":114.369484,
    "latitude":30.514023
  },
  {
    "name":"如家快捷酒店(武汉光谷民族大道店)",
    "longitude":114.398178,
    "latitude":30.496456
  },
  {
    "name":"玲珑旭精品酒店(武汉站欢乐谷店)",
    "longitude":114.381798,
    "latitude":30.616381
  },
  {
    "name":"九龙大酒店(雄楚店)",
    "longitude":114.344215,
    "latitude":30.510082
  },
  {
    "name":"珞珈山宾馆",
    "longitude":114.373878,
    "latitude":30.53159
  },
  {
    "name":"水神客舍",
    "longitude":114.382828,
    "latitude":30.517101
  },
  {
    "name":"香格里拉大酒店",
    "longitude":114.283035,
    "latitude":30.602528
  },
  {
    "name":"金盾大酒店",
    "longitude":114.263695,
    "latitude":30.600349
  },
  {
    "name":"武汉新华诺富特大饭店",
    "longitude":114.268684,
    "latitude":30.593864
  },
  {
    "name":"葛洲坝大酒店",
    "longitude":114.251434,
    "latitude":30.576324
  },
  {
    "name":"佳佳住宿(武汉阳逻店)",
    "longitude":114.533119,
    "latitude":30.712826
  },
  {
    "name":"中油酒店(中北路店)",
    "longitude":114.352081,
    "latitude":30.568007
  },
  {
    "name":"武汉帅府饭店附楼",
    "longitude":114.34758,
    "latitude":30.536371
  },
  {
    "name":"循礼门饭店",
    "longitude":114.283966,
    "latitude":30.585915
  },
  {
    "name":"雅懿思聪旅店",
    "longitude":114.320808,
    "latitude":30.5263
  },
  {
    "name":"世纪家园酒店",
    "longitude":114.212975,
    "latitude":30.560747
  },
  {
    "name":"禧龙宾馆",
    "longitude":114.411781,
    "latitude":30.497101
  },
  {
    "name":"创意宾馆",
    "longitude":114.307487,
    "latitude":30.620628
  },
  {
    "name":"江城明珠豪生大酒店",
    "longitude":114.304146,
    "latitude":30.590738
  },
  {
    "name":"如家快捷酒店(武汉高雄路店)",
    "longitude":114.285904,
    "latitude":30.60083
  },
  {
    "name":"武汉万达嘉华酒店",
    "longitude":114.345818,
    "latitude":30.552343
  },
  {
    "name":"时代酒店公寓",
    "longitude":114.300438,
    "latitude":30.55628
  },
  {
    "name":"纽宾凯新宜国际酒店",
    "longitude":114.317719,
    "latitude":30.539419
  },
  {
    "name":"天一商务酒店",
    "longitude":114.350052,
    "latitude":30.607059
  },
  {
    "name":"安华酒店",
    "longitude":114.316139,
    "latitude":30.533346
  },
  {
    "name":"帅府饭店",
    "longitude":114.347595,
    "latitude":30.536379
  },
  {
    "name":"世纪花园大酒店",
    "longitude":114.249847,
    "latitude":30.584118
  },
  {
    "name":"新龙商务酒店",
    "longitude":114.206856,
    "latitude":30.554893
  },
  {
    "name":"V9假日酒店(武汉南湖店)",
    "longitude":114.320473,
    "latitude":30.497501
  },
  {
    "name":"武汉米莱创意酒店",
    "longitude":114.411133,
    "latitude":30.483906
  },
  {
    "name":"军悦假日酒店",
    "longitude":114.370041,
    "latitude":30.529421
  },
  {
    "name":"德加酒店(建设大道)",
    "longitude":114.291611,
    "latitude":30.613684
  },
  {
    "name":"武汉馨梦住宿",
    "longitude":114.352982,
    "latitude":30.714128
  },
  {
    "name":"武汉万达瑞华酒店",
    "longitude":114.347298,
    "latitude":30.552315
  },
  {
    "name":"格林豪泰酒店(湖北省武汉市武昌火车站东广场)",
    "longitude":114.323051,
    "latitude":30.531723
  },
  {
    "name":"瑞丰时代酒店",
    "longitude":114.333267,
    "latitude":30.536678
  },
  {
    "name":"亚洲大酒店(汉口店)",
    "longitude":114.261353,
    "latitude":30.577362
  },
  {
    "name":"武汉凤凰如家公寓",
    "longitude":114.424026,
    "latitude":30.437906
  },
  {
    "name":"汇悦宾馆",
    "longitude":114.290878,
    "latitude":30.581238
  },
  {
    "name":"耀明旅社",
    "longitude":114.080666,
    "latitude":30.305012
  },
  {
    "name":"中大189招待所",
    "longitude":114.280319,
    "latitude":30.572754
  },
  {
    "name":"素言印象假日酒店",
    "longitude":114.082817,
    "latitude":30.309162
  },
  {
    "name":"索菲斯时尚宾馆",
    "longitude":114.096153,
    "latitude":30.463602
  },
  {
    "name":"鸿程旅社",
    "longitude":114.149261,
    "latitude":30.457476
  },
  {
    "name":"晴川旅社",
    "longitude":113.8414,
    "latitude":30.440445
  },
  {
    "name":"武汉武晶酒店",
    "longitude":114.307808,
    "latitude":30.564632
  },
  {
    "name":"摩尔宾馆",
    "longitude":114.191055,
    "latitude":30.528521
  },
  {
    "name":"怡宾馆",
    "longitude":114.151619,
    "latitude":30.5061
  },
  {
    "name":"武汉今世缘住宿",
    "longitude":114.134392,
    "latitude":30.469118
  },
  {
    "name":"金珠大酒店",
    "longitude":114.191109,
    "latitude":30.529968
  },
  {
    "name":"汉庭酒店(武汉沌口开发区店)",
    "longitude":114.15757,
    "latitude":30.486551
  },
  {
    "name":"龙情旅馆",
    "longitude":114.168282,
    "latitude":30.496407
  },
  {
    "name":"武汉市蔡甸区侏儒街星云旅社",
    "longitude":113.847382,
    "latitude":30.440355
  },
  {
    "name":"金堡龙湾",
    "longitude":114.096306,
    "latitude":30.462915
  },
  {
    "name":"阳光丽锦酒店(奓山分店)",
    "longitude":114.016479,
    "latitude":30.446646
  },
  {
    "name":"诚缘商务宾馆",
    "longitude":114.096397,
    "latitude":30.462263
  },
  {
    "name":"盛宜家快捷旅馆",
    "longitude":114.071022,
    "latitude":30.446056
  },
  {
    "name":"龙凤住宿",
    "longitude":114.073959,
    "latitude":30.43981
  },
  {
    "name":"宾悦旅社",
    "longitude":114.017014,
    "latitude":30.449615
  },
  {
    "name":"群力旅社",
    "longitude":114.017464,
    "latitude":30.449627
  },
  {
    "name":"晴天旅馆",
    "longitude":114.019295,
    "latitude":30.449677
  },
  {
    "name":"鑫速7宾馆(江汉大学店)",
    "longitude":114.160355,
    "latitude":30.507631
  },
  {
    "name":"金霖旅馆",
    "longitude":114.160812,
    "latitude":30.507837
  },
  {
    "name":"711宾馆",
    "longitude":114.160812,
    "latitude":30.507837
  },
  {
    "name":"武汉世嘉公寓",
    "longitude":114.093918,
    "latitude":30.458889
  },
  {
    "name":"武汉航宇公寓",
    "longitude":114.094345,
    "latitude":30.461084
  },
  {
    "name":"武汉涛哥住宿",
    "longitude":114.095695,
    "latitude":30.461941
  },
  {
    "name":"武汉温馨客房",
    "longitude":114.091515,
    "latitude":30.461119
  },
  {
    "name":"武汉诚信客房",
    "longitude":114.095695,
    "latitude":30.461945
  },
  {
    "name":"建新宾馆(文兴路)",
    "longitude":114.026558,
    "latitude":30.583014
  },
  {
    "name":"武汉金怡家宾馆(经开万达店)",
    "longitude":114.176094,
    "latitude":30.507738
  },
  {
    "name":"祥根住宿",
    "longitude":114.134415,
    "latitude":30.468824
  },
  {
    "name":"东风城市旅店",
    "longitude":114.15731,
    "latitude":30.492758
  },
  {
    "name":"武汉沌口名致服务公寓",
    "longitude":114.158218,
    "latitude":30.506931
  },
  {
    "name":"好人家宾馆",
    "longitude":114.114449,
    "latitude":30.550711
  },
  {
    "name":"中地锦颐商务酒店",
    "longitude":113.984993,
    "latitude":30.512411
  },
  {
    "name":"军威宾馆",
    "longitude":114.00779,
    "latitude":30.453968
  },
  {
    "name":"华丰时尚旅馆",
    "longitude":114.182663,
    "latitude":30.519461
  },
  {
    "name":"迎宾招待所(郭蔡路)",
    "longitude":114.153618,
    "latitude":30.489756
  },
  {
    "name":"万事兴客栈",
    "longitude":114.178452,
    "latitude":30.513924
  },
  {
    "name":"健康乐旅馆",
    "longitude":114.178764,
    "latitude":30.513754
  },
  {
    "name":"米兰旅馆",
    "longitude":114.134323,
    "latitude":30.469091
  },
  {
    "name":"富远旅社",
    "longitude":114.139832,
    "latitude":30.479137
  },
  {
    "name":"艾菊旅社",
    "longitude":114.139496,
    "latitude":30.478998
  },
  {
    "name":"凯宾商务宾馆",
    "longitude":114.134476,
    "latitude":30.468679
  },
  {
    "name":"海之天宾馆",
    "longitude":114.134644,
    "latitude":30.468475
  },
  {
    "name":"莲池旅社",
    "longitude":114.022346,
    "latitude":30.585983
  },
  {
    "name":"华逸宾馆",
    "longitude":114.057877,
    "latitude":30.452198
  },
  {
    "name":"刀居然酒店(夜宴餐厅)",
    "longitude":114.16291,
    "latitude":30.493378
  },
  {
    "name":"武汉民宜旅店",
    "longitude":114.151756,
    "latitude":30.505142
  },
  {
    "name":"武汉卓越旅店",
    "longitude":114.151802,
    "latitude":30.505157
  },
  {
    "name":"悦己主题酒店",
    "longitude":114.17514,
    "latitude":30.505804
  },
  {
    "name":"宏海假日",
    "longitude":114.167709,
    "latitude":30.49888
  },
  {
    "name":"湖北中核国际酒店",
    "longitude":114.058708,
    "latitude":30.564301
  },
  {
    "name":"民众大酒店",
    "longitude":113.846336,
    "latitude":30.440651
  },
  {
    "name":"武汉鹦鹉住宿",
    "longitude":113.841179,
    "latitude":30.440628
  },
  {
    "name":"武汉宇辰旅馆",
    "longitude":113.843575,
    "latitude":30.438957
  },
  {
    "name":"红鑫出租屋",
    "longitude":114.152687,
    "latitude":30.505072
  },
  {
    "name":"喜来登出租屋",
    "longitude":114.152527,
    "latitude":30.505846
  },
  {
    "name":"798club沌口1店别墅轰趴派对聚会店",
    "longitude":114.176392,
    "latitude":30.513226
  },
  {
    "name":"名彩商务宾馆",
    "longitude":114.159988,
    "latitude":30.502962
  },
  {
    "name":"如家快捷酒店(武汉蔡姚路店)",
    "longitude":114.033478,
    "latitude":30.573715
  },
  {
    "name":"新7宾馆",
    "longitude":114.15332,
    "latitude":30.466558
  },
  {
    "name":"武汉长大招待所",
    "longitude":114.023079,
    "latitude":30.537222
  },
  {
    "name":"武汉佳兴旅馆",
    "longitude":114.025528,
    "latitude":30.580685
  },
  {
    "name":"红光住宿",
    "longitude":114.133675,
    "latitude":30.468557
  },
  {
    "name":"恒通住宿",
    "longitude":114.1353,
    "latitude":30.469587
  },
  {
    "name":"天天e家酒店",
    "longitude":114.175789,
    "latitude":30.507854
  },
  {
    "name":"凤凰1号",
    "longitude":114.010033,
    "latitude":30.451426
  },
  {
    "name":"武汉致家公寓酒店(经开万达店)",
    "longitude":114.17511,
    "latitude":30.505791
  },
  {
    "name":"啊星酒店",
    "longitude":114.166908,
    "latitude":30.499371
  },
  {
    "name":"武汉高元出租公寓",
    "longitude":114.027412,
    "latitude":30.536245
  },
  {
    "name":"幸福苑住宿",
    "longitude":114.13427,
    "latitude":30.468801
  },
  {
    "name":"汉芳旅社",
    "longitude":114.016739,
    "latitude":30.450083
  },
  {
    "name":"昊康旅店",
    "longitude":114.016075,
    "latitude":30.450787
  },
  {
    "name":"馨悦旅社",
    "longitude":114.016495,
    "latitude":30.450766
  },
  {
    "name":"武汉徐工住宿",
    "longitude":114.19632,
    "latitude":30.47164
  },
  {
    "name":"阳光宾馆",
    "longitude":114.03714,
    "latitude":30.576845
  },
  {
    "name":"泰合住宿",
    "longitude":114.160225,
    "latitude":30.505564
  },
  {
    "name":"为民宾馆",
    "longitude":114.024353,
    "latitude":30.580444
  },
  {
    "name":"青青住宿",
    "longitude":114.134209,
    "latitude":30.468168
  },
  {
    "name":"6+1假日旅馆",
    "longitude":114.191368,
    "latitude":30.530207
  },
  {
    "name":"宏成旅馆",
    "longitude":114.056602,
    "latitude":30.503838
  },
  {
    "name":"宏祥宾馆",
    "longitude":114.155792,
    "latitude":30.521572
  },
  {
    "name":"红鼎住宿",
    "longitude":114.118538,
    "latitude":30.551674
  },
  {
    "name":"博晶宾馆",
    "longitude":114.128433,
    "latitude":30.552305
  },
  {
    "name":"汉庭快捷酒店",
    "longitude":114.148537,
    "latitude":30.505262
  },
  {
    "name":"星云宾馆",
    "longitude":113.847382,
    "latitude":30.440355
  },
  {
    "name":"武汉梦点旅社",
    "longitude":114.026939,
    "latitude":30.535965
  },
  {
    "name":"常福市场旅社",
    "longitude":114.044106,
    "latitude":30.42942
  },
  {
    "name":"大东旅社",
    "longitude":114.035889,
    "latitude":30.453825
  },
  {
    "name":"永安停车区-住宿",
    "longitude":113.949516,
    "latitude":30.458879
  },
  {
    "name":"武汉木林森宾馆(大集店)",
    "longitude":114.057266,
    "latitude":30.500463
  },
  {
    "name":"海友酒店(东风大道店)",
    "longitude":114.179298,
    "latitude":30.515205
  },
  {
    "name":"武汉郑华旅社",
    "longitude":114.031929,
    "latitude":30.587543
  },
  {
    "name":"星云大酒店",
    "longitude":114.029129,
    "latitude":30.571587
  },
  {
    "name":"金凤成祥宾馆(蔡甸区齐锦花园东区东北)",
    "longitude":114.024521,
    "latitude":30.592182
  },
  {
    "name":"扬帆住宿",
    "longitude":114.024773,
    "latitude":30.535503
  },
  {
    "name":"武汉麦豪斯聚会别墅",
    "longitude":114.07959,
    "latitude":30.486708
  },
  {
    "name":"武汉芷逸居酒店",
    "longitude":114.172768,
    "latitude":30.505836
  },
  {
    "name":"7天连锁酒店(武汉蔡甸摩天逸品店)",
    "longitude":114.029442,
    "latitude":30.571615
  },
  {
    "name":"武汉宁康公寓",
    "longitude":114.168411,
    "latitude":30.497967
  },
  {
    "name":"武汉明德酒店",
    "longitude":114.161499,
    "latitude":30.508654
  },
  {
    "name":"武汉鑫柒柒宾馆",
    "longitude":114.179169,
    "latitude":30.515026
  },
  {
    "name":"水上客房",
    "longitude":114.135307,
    "latitude":30.481726
  },
  {
    "name":"昱峡招待所",
    "longitude":114.054108,
    "latitude":30.436838
  },
  {
    "name":"腾飞宾馆",
    "longitude":113.719383,
    "latitude":30.404104
  },
  {
    "name":"联投半岛六星酒店",
    "longitude":114.136848,
    "latitude":30.490114
  },
  {
    "name":"汉城招待所",
    "longitude":114.193146,
    "latitude":30.53231
  },
  {
    "name":"华苑大酒店",
    "longitude":114.178642,
    "latitude":30.514212
  },
  {
    "name":"亮亮招待所",
    "longitude":113.720863,
    "latitude":30.410288
  },
  {
    "name":"康安旅社",
    "longitude":114.011284,
    "latitude":30.44796
  },
  {
    "name":"万豪商务酒店",
    "longitude":113.752647,
    "latitude":30.423241
  },
  {
    "name":"联投半岛酒店筹备处",
    "longitude":114.138855,
    "latitude":30.492765
  },
  {
    "name":"金博住宿",
    "longitude":114.152847,
    "latitude":30.505589
  },
  {
    "name":"逸心阁酒店",
    "longitude":114.078407,
    "latitude":30.562788
  },
  {
    "name":"丽景招待所",
    "longitude":114.155937,
    "latitude":30.492174
  },
  {
    "name":"汉鑫旅社",
    "longitude":114.15287,
    "latitude":30.491068
  },
  {
    "name":"广来旅社",
    "longitude":114.150803,
    "latitude":30.487808
  },
  {
    "name":"新家园旅社",
    "longitude":114.150978,
    "latitude":30.487673
  },
  {
    "name":"武汉银建招待所",
    "longitude":114.153046,
    "latitude":30.49028
  },
  {
    "name":"武汉如意旅社(沌口贸易路)",
    "longitude":114.149055,
    "latitude":30.487343
  },
  {
    "name":"友好旅社",
    "longitude":114.152,
    "latitude":30.487663
  },
  {
    "name":"新岭招待所",
    "longitude":114.147514,
    "latitude":30.488363
  },
  {
    "name":"金润发宾馆",
    "longitude":114.15403,
    "latitude":30.491615
  },
  {
    "name":"博客宾馆",
    "longitude":114.156219,
    "latitude":30.491476
  },
  {
    "name":"艾佳精致时尚酒店",
    "longitude":114.156479,
    "latitude":30.491768
  },
  {
    "name":"地质宾馆",
    "longitude":114.150482,
    "latitude":30.489134
  },
  {
    "name":"巴特尔商务酒店",
    "longitude":114.167259,
    "latitude":30.498257
  },
  {
    "name":"怡宾楼(三角湖路)",
    "longitude":114.151619,
    "latitude":30.506153
  },
  {
    "name":"祝家庄招待所",
    "longitude":114.177345,
    "latitude":30.466356
  },
  {
    "name":"卡希尔商务宾馆",
    "longitude":114.169304,
    "latitude":30.496874
  },
  {
    "name":"明星酒店(湘隆店)",
    "longitude":114.166817,
    "latitude":30.499329
  },
  {
    "name":"武汉星星旅馆(水木清华店)",
    "longitude":114.153763,
    "latitude":30.5068
  },
  {
    "name":"胜威旅馆",
    "longitude":114.154198,
    "latitude":30.503834
  },
  {
    "name":"文路酒店",
    "longitude":113.965912,
    "latitude":30.454107
  },
  {
    "name":"永兴酒楼旅社",
    "longitude":113.971725,
    "latitude":30.452328
  },
  {
    "name":"朝阳住宿",
    "longitude":114.033813,
    "latitude":30.571283
  },
  {
    "name":"建新宾馆客房部",
    "longitude":114.026794,
    "latitude":30.582842
  },
  {
    "name":"映泉商务酒店",
    "longitude":114.159821,
    "latitude":30.502478
  },
  {
    "name":"中心旅社(临嶂大道)",
    "longitude":114.035278,
    "latitude":30.575871
  },
  {
    "name":"中山宾馆(工农路)",
    "longitude":114.043098,
    "latitude":30.576639
  },
  {
    "name":"兴隆旅社",
    "longitude":114.080162,
    "latitude":30.562283
  },
  {
    "name":"天一旅社",
    "longitude":114.033142,
    "latitude":30.576221
  },
  {
    "name":"六毛客栈",
    "longitude":114.02417,
    "latitude":30.580284
  },
  {
    "name":"良友大酒店(蔡姚路)",
    "longitude":114.032326,
    "latitude":30.575472
  },
  {
    "name":"鑫鑫旅馆",
    "longitude":114.031113,
    "latitude":30.576101
  },
  {
    "name":"九通住宿",
    "longitude":114.033737,
    "latitude":30.571486
  },
  {
    "name":"万家湖宾馆",
    "longitude":114.19268,
    "latitude":30.462255
  },
  {
    "name":"华康旅店",
    "longitude":114.198494,
    "latitude":30.460253
  },
  {
    "name":"武汉馨乐庭沌口服务公寓",
    "longitude":114.164726,
    "latitude":30.497189
  },
  {
    "name":"万客来商务宾馆",
    "longitude":114.196281,
    "latitude":30.472391
  },
  {
    "name":"锦江之星旅馆(武汉经济技术开发区店)",
    "longitude":114.166153,
    "latitude":30.494081
  },
  {
    "name":"今满源宾馆",
    "longitude":114.138153,
    "latitude":30.476997
  },
  {
    "name":"居然酒店(神农店)",
    "longitude":114.162964,
    "latitude":30.493162
  },
  {
    "name":"武汉三五酒店",
    "longitude":114.033623,
    "latitude":30.583441
  },
  {
    "name":"元亨宾馆",
    "longitude":114.030846,
    "latitude":30.580765
  },
  {
    "name":"康泰驿栈",
    "longitude":114.161499,
    "latitude":30.47908
  },
  {
    "name":"武汉天外天度假村",
    "longitude":114.115875,
    "latitude":30.391907
  },
  {
    "name":"荆楚沉湖度假村",
    "longitude":113.866791,
    "latitude":30.324265
  },
  {
    "name":"华坤宾馆(蔡甸店)",
    "longitude":114.030678,
    "latitude":30.571629
  },
  {
    "name":"福山(彩云路)",
    "longitude":114.08345,
    "latitude":30.524649
  },
  {
    "name":"惠远阳光大酒店",
    "longitude":114.15686,
    "latitude":30.498047
  },
  {
    "name":"军港美食城",
    "longitude":114.132416,
    "latitude":30.363579
  },
  {
    "name":"中山宾馆(蔡正街)",
    "longitude":114.028961,
    "latitude":30.584044
  },
  {
    "name":"龙鼎旅馆",
    "longitude":114.027008,
    "latitude":30.589281
  },
  {
    "name":"阳泉旅馆",
    "longitude":114.027061,
    "latitude":30.589182
  },
  {
    "name":"五华宾馆",
    "longitude":114.138374,
    "latitude":30.477608
  },
  {
    "name":"金尚慕宾馆",
    "longitude":114.146019,
    "latitude":30.481047
  },
  {
    "name":"如家快捷酒店(武汉经济开发区升官渡小区店)",
    "longitude":114.191124,
    "latitude":30.529945
  },
  {
    "name":"武汉知音莲花湖酒店",
    "longitude":114.027695,
    "latitude":30.58617
  },
  {
    "name":"027餐谋天下酒店(车城西路店)",
    "longitude":114.14933,
    "latitude":30.494949
  },
  {
    "name":"武汉开发区潮海公寓(东北门)",
    "longitude":114.15654,
    "latitude":30.522743
  },
  {
    "name":"7天酒店(武汉沌口创业路店)",
    "longitude":114.156441,
    "latitude":30.484711
  },
  {
    "name":"友情旅馆(全力南路)",
    "longitude":114.075737,
    "latitude":30.44018
  },
  {
    "name":"银城酒店(百业路)",
    "longitude":114.157303,
    "latitude":30.486725
  },
  {
    "name":"天龙宾馆",
    "longitude":114.166931,
    "latitude":30.498878
  },
  {
    "name":"城市便捷酒店(武汉蔡甸广场店)",
    "longitude":114.041512,
    "latitude":30.575472
  },
  {
    "name":"希尔曼宾馆",
    "longitude":114.168953,
    "latitude":30.49715
  },
  {
    "name":"同馨小宾馆",
    "longitude":114.041092,
    "latitude":30.575665
  },
  {
    "name":"兰光招待所",
    "longitude":114.138786,
    "latitude":30.478928
  },
  {
    "name":"三月天宾馆(武汉湘隆时代广场店)",
    "longitude":114.168678,
    "latitude":30.496851
  },
  {
    "name":"春晓旅馆",
    "longitude":114.169144,
    "latitude":30.497553
  },
  {
    "name":"康宁商务宾馆",
    "longitude":114.168159,
    "latitude":30.496227
  },
  {
    "name":"五月花宾馆(宁康路)",
    "longitude":114.168365,
    "latitude":30.496239
  },
  {
    "name":"巴布特商务宾馆",
    "longitude":114.168457,
    "latitude":30.497355
  },
  {
    "name":"阳光旅馆(西三路)",
    "longitude":114.133133,
    "latitude":30.468552
  },
  {
    "name":"小桥旅社(永安正街)",
    "longitude":113.942039,
    "latitude":30.457214
  },
  {
    "name":"武汉鸿盛宾馆",
    "longitude":114.047531,
    "latitude":30.505552
  },
  {
    "name":"国兴旅社",
    "longitude":114.035385,
    "latitude":30.575708
  },
  {
    "name":"武汉温馨家园旅店",
    "longitude":114.152412,
    "latitude":30.505634
  },
  {
    "name":"金泰商务酒店(沌口经济开发区店)",
    "longitude":114.187286,
    "latitude":30.52611
  },
  {
    "name":"武汉盛源住宿",
    "longitude":114.265175,
    "latitude":30.568266
  },
  {
    "name":"武汉舒安招待所",
    "longitude":114.273453,
    "latitude":30.563999
  },
  {
    "name":"武汉舒安招待所",
    "longitude":114.272224,
    "latitude":30.569342
  },
  {
    "name":"汉办招待所",
    "longitude":114.259888,
    "latitude":30.569426
  },
  {
    "name":"安乐招待所",
    "longitude":114.272873,
    "latitude":30.569088
  },
  {
    "name":"武汉怡佳公寓",
    "longitude":114.2603,
    "latitude":30.569033
  },
  {
    "name":"武汉浩好旅馆",
    "longitude":114.261871,
    "latitude":30.569244
  },
  {
    "name":"天羽客栈",
    "longitude":114.272285,
    "latitude":30.566887
  },
  {
    "name":"磊奇商务宾馆",
    "longitude":114.27224,
    "latitude":30.567957
  },
  {
    "name":"武汉虹景商务酒店(武胜路家乐福店)",
    "longitude":114.268837,
    "latitude":30.567785
  },
  {
    "name":"万兴招待所",
    "longitude":114.09359,
    "latitude":30.458624
  },
  {
    "name":"辛星新酒店",
    "longitude":114.037941,
    "latitude":30.576731
  },
  {
    "name":"吉祥住宿(蔡姚路)",
    "longitude":114.033745,
    "latitude":30.571442
  },
  {
    "name":"红方住宿副食复印",
    "longitude":114.134178,
    "latitude":30.469017
  },
  {
    "name":"逸宾商务酒店",
    "longitude":114.146225,
    "latitude":30.480909
  },
  {
    "name":"武汉威森艾玲公寓(经开万达店)",
    "longitude":114.175819,
    "latitude":30.505817
  },
  {
    "name":"豪泰酒店",
    "longitude":114.175743,
    "latitude":30.507818
  },
  {
    "name":"群英驿站(武汉开发区店)",
    "longitude":114.166893,
    "latitude":30.497696
  },
  {
    "name":"祥和宾馆(大沌公路)",
    "longitude":114.056778,
    "latitude":30.503626
  },
  {
    "name":"668商务旅馆",
    "longitude":114.052399,
    "latitude":30.502619
  },
  {
    "name":"天红旅馆(宝丰街)",
    "longitude":114.266586,
    "latitude":30.577656
  },
  {
    "name":"武汉和顺旅馆",
    "longitude":114.259117,
    "latitude":30.577469
  },
  {
    "name":"欣园旅社",
    "longitude":114.262856,
    "latitude":30.576548
  },
  {
    "name":"武汉美奇自助公寓酒店",
    "longitude":114.278214,
    "latitude":30.572708
  },
  {
    "name":"南巷社区(北门)",
    "longitude":114.27523,
    "latitude":30.577072
  },
  {
    "name":"武汉涛涛住宿",
    "longitude":114.187874,
    "latitude":30.61113
  },
  {
    "name":"武汉兰馨出租屋",
    "longitude":114.263283,
    "latitude":30.577593
  },
  {
    "name":"武汉凯威旅馆",
    "longitude":114.181007,
    "latitude":30.610519
  },
  {
    "name":"武汉成功出租屋",
    "longitude":114.263031,
    "latitude":30.577946
  },
  {
    "name":"武汉鼎丰招待所",
    "longitude":114.270332,
    "latitude":30.568645
  },
  {
    "name":"尝丰阁酒店(住宿部)",
    "longitude":114.192406,
    "latitude":30.60927
  },
  {
    "name":"昌兴宾馆",
    "longitude":114.266998,
    "latitude":30.568007
  },
  {
    "name":"和悦酒店",
    "longitude":114.318588,
    "latitude":30.548244
  },
  {
    "name":"小猪短租(丁字桥短租民宅房屋整租)",
    "longitude":114.356407,
    "latitude":30.571964
  },
  {
    "name":"湖北中国青年旅社",
    "longitude":114.348396,
    "latitude":30.542925
  },
  {
    "name":"气象宾馆",
    "longitude":114.341576,
    "latitude":30.550274
  },
  {
    "name":"小猪短租(中南路短租民宅房屋整租)",
    "longitude":114.325645,
    "latitude":30.542871
  },
  {
    "name":"金宝利大酒店",
    "longitude":114.296867,
    "latitude":30.534586
  },
  {
    "name":"彼得潘情侣主题酒店(首义园店)",
    "longitude":114.309822,
    "latitude":30.536758
  },
  {
    "name":"美嘉城市客栈(沙湖店)",
    "longitude":114.31678,
    "latitude":30.556744
  },
  {
    "name":"武汉嘉信出租屋",
    "longitude":114.274162,
    "latitude":30.571341
  },
  {
    "name":"武汉顺通住宿",
    "longitude":114.184486,
    "latitude":30.611786
  },
  {
    "name":"武汉安康家庭旅社",
    "longitude":114.264542,
    "latitude":30.577505
  },
  {
    "name":"和谐住宿(慈善巷)",
    "longitude":114.274185,
    "latitude":30.571438
  },
  {
    "name":"紫润住宿",
    "longitude":114.228203,
    "latitude":30.583649
  },
  {
    "name":"洪生旅社",
    "longitude":114.231773,
    "latitude":30.603731
  },
  {
    "name":"武汉馨缘宾馆",
    "longitude":114.188202,
    "latitude":30.611391
  },
  {
    "name":"明艳园",
    "longitude":114.255997,
    "latitude":30.581858
  },
  {
    "name":"武汉豪客旅馆",
    "longitude":114.185226,
    "latitude":30.611526
  },
  {
    "name":"武汉云轩阁招待所",
    "longitude":114.215584,
    "latitude":30.607725
  },
  {
    "name":"武汉1705公寓",
    "longitude":114.25119,
    "latitude":30.57336
  },
  {
    "name":"财苑大酒店",
    "longitude":114.311684,
    "latitude":30.543884
  },
  {
    "name":"蓝水源商务宾馆",
    "longitude":114.323441,
    "latitude":30.530634
  },
  {
    "name":"滨湖大厦",
    "longitude":114.362404,
    "latitude":30.562357
  },
  {
    "name":"弘毅大酒店",
    "longitude":114.355629,
    "latitude":30.551357
  },
  {
    "name":"武汉九坤宾馆(湖北大学店)",
    "longitude":114.338234,
    "latitude":30.58416
  },
  {
    "name":"武汉天盛艺术酒店(湖北大学店)",
    "longitude":114.338928,
    "latitude":30.583675
  },
  {
    "name":"梨园大酒店",
    "longitude":114.365723,
    "latitude":30.576387
  },
  {
    "name":"银苑大厦",
    "longitude":114.355415,
    "latitude":30.569225
  },
  {
    "name":"矮子酒店",
    "longitude":114.349129,
    "latitude":30.606968
  },
  {
    "name":"昌德盛旅社",
    "longitude":114.303421,
    "latitude":30.54813
  },
  {
    "name":"佛恩旅社",
    "longitude":114.315498,
    "latitude":30.531624
  },
  {
    "name":"公众旅馆",
    "longitude":114.297401,
    "latitude":30.537045
  },
  {
    "name":"宏坤住宿",
    "longitude":114.337196,
    "latitude":30.584902
  },
  {
    "name":"红盛住宿",
    "longitude":114.338768,
    "latitude":30.58886
  },
  {
    "name":"科园宾馆(八一路)",
    "longitude":114.345398,
    "latitude":30.537512
  },
  {
    "name":"鑫联和招待所(联盟路)",
    "longitude":114.362541,
    "latitude":30.607836
  },
  {
    "name":"龙操旅馆",
    "longitude":114.318985,
    "latitude":30.537001
  },
  {
    "name":"怡美宾馆",
    "longitude":114.325302,
    "latitude":30.532824
  },
  {
    "name":"广源招待所(武珞路)",
    "longitude":114.323944,
    "latitude":30.537418
  },
  {
    "name":"宏梁旅馆",
    "longitude":114.298668,
    "latitude":30.547991
  },
  {
    "name":"金燕招待所",
    "longitude":114.310066,
    "latitude":30.539333
  },
  {
    "name":"京源旅馆",
    "longitude":114.30188,
    "latitude":30.545696
  },
  {
    "name":"警康苑招待所",
    "longitude":114.313232,
    "latitude":30.54376
  },
  {
    "name":"兰天招待所(张之洞路)",
    "longitude":114.316628,
    "latitude":30.533468
  },
  {
    "name":"七一九招待所",
    "longitude":114.314186,
    "latitude":30.527969
  },
  {
    "name":"天成旅馆(解放路)",
    "longitude":114.297592,
    "latitude":30.536356
  },
  {
    "name":"天家招待所(总督路)",
    "longitude":114.302353,
    "latitude":30.538036
  },
  {
    "name":"天鑫旅馆(铁机路)",
    "longitude":114.349457,
    "latitude":30.606209
  },
  {
    "name":"楚民大酒店",
    "longitude":114.309746,
    "latitude":30.535505
  },
  {
    "name":"翠柳村客舍",
    "longitude":114.373398,
    "latitude":30.564022
  },
  {
    "name":"好苑·新海天大酒店",
    "longitude":114.346542,
    "latitude":30.545139
  },
  {
    "name":"中南电力宾馆(洪山广场店)",
    "longitude":114.328278,
    "latitude":30.543961
  },
  {
    "name":"豪派商务酒店",
    "longitude":114.299057,
    "latitude":30.538778
  },
  {
    "name":"皇庭都市旅馆(彭刘杨路)",
    "longitude":114.298973,
    "latitude":30.540075
  },
  {
    "name":"京鹏宾馆(首义路)",
    "longitude":114.30957,
    "latitude":30.538637
  },
  {
    "name":"星芝雅旅馆",
    "longitude":114.319221,
    "latitude":30.544905
  },
  {
    "name":"旺庐花园酒店",
    "longitude":114.306313,
    "latitude":30.545418
  },
  {
    "name":"金瑞商务旅馆",
    "longitude":114.330017,
    "latitude":30.544628
  },
  {
    "name":"如家快捷酒店(武汉大东门二店)",
    "longitude":114.322685,
    "latitude":30.537424
  },
  {
    "name":"巴山夜雨大酒店",
    "longitude":114.332153,
    "latitude":30.54405
  },
  {
    "name":"秭归大酒店",
    "longitude":114.309967,
    "latitude":30.53908
  },
  {
    "name":"金琳旅馆",
    "longitude":114.349312,
    "latitude":30.605991
  },
  {
    "name":"顺达住宿(秦园路)",
    "longitude":114.336426,
    "latitude":30.585543
  },
  {
    "name":"武汉五月花大酒店",
    "longitude":114.327423,
    "latitude":30.536789
  },
  {
    "name":"东湖大厦",
    "longitude":114.336067,
    "latitude":30.551823
  },
  {
    "name":"东湖宾馆",
    "longitude":114.366531,
    "latitude":30.551464
  },
  {
    "name":"7天酒店(武汉亚贸店)",
    "longitude":114.344345,
    "latitude":30.528391
  },
  {
    "name":"红叶招待所(丁字桥店)",
    "longitude":114.33287,
    "latitude":30.528265
  },
  {
    "name":"航海酒店(中山路辅路)",
    "longitude":114.313896,
    "latitude":30.527222
  },
  {
    "name":"惠苑酒店",
    "longitude":114.30806,
    "latitude":30.533983
  },
  {
    "name":"茶港商务酒店",
    "longitude":114.354462,
    "latitude":30.540533
  },
  {
    "name":"老河口驻汉宾馆",
    "longitude":114.331306,
    "latitude":30.532784
  },
  {
    "name":"思美尔宾馆",
    "longitude":114.355164,
    "latitude":30.534117
  },
  {
    "name":"锦华苑酒店",
    "longitude":114.344055,
    "latitude":30.540667
  },
  {
    "name":"昌瑞招待所",
    "longitude":114.314819,
    "latitude":30.527456
  },
  {
    "name":"吉庆旅社(中山路辅路)",
    "longitude":114.314735,
    "latitude":30.526567
  },
  {
    "name":"铁路宾馆(中山路辅路)",
    "longitude":114.315285,
    "latitude":30.525751
  },
  {
    "name":"宇洲商务酒店",
    "longitude":114.34481,
    "latitude":30.542307
  },
  {
    "name":"圣帝公寓酒店",
    "longitude":114.318497,
    "latitude":30.537519
  },
  {
    "name":"向阳梅苑商务酒店",
    "longitude":114.326302,
    "latitude":30.536114
  },
  {
    "name":"幸运星宾馆",
    "longitude":114.300972,
    "latitude":30.533821
  },
  {
    "name":"万兴旅社(南湖路)",
    "longitude":114.310158,
    "latitude":30.516703
  },
  {
    "name":"仙源住宿",
    "longitude":114.31765,
    "latitude":30.538586
  },
  {
    "name":"胭脂山商务宾馆",
    "longitude":114.308136,
    "latitude":30.546818
  },
  {
    "name":"湖北省公安厅招待所",
    "longitude":114.315903,
    "latitude":30.533127
  },
  {
    "name":"凯瑞旅馆(武泰闸店)",
    "longitude":114.308609,
    "latitude":30.52179
  },
  {
    "name":"武汉路易100城市旅店",
    "longitude":114.317696,
    "latitude":30.54801
  },
  {
    "name":"黄鹤招待所",
    "longitude":114.303329,
    "latitude":30.542963
  },
  {
    "name":"红云宾馆(雄楚大道)",
    "longitude":114.318069,
    "latitude":30.520687
  },
  {
    "name":"鑫海湾商务宾馆",
    "longitude":114.341362,
    "latitude":30.524342
  },
  {
    "name":"里尔城市酒店(紫阳路店)",
    "longitude":114.312454,
    "latitude":30.53241
  },
  {
    "name":"五月天酒店(洪山广场店)",
    "longitude":114.338608,
    "latitude":30.551004
  },
  {
    "name":"佳运宾馆(武车路)",
    "longitude":114.32589,
    "latitude":30.573624
  },
  {
    "name":"新空间商务酒店",
    "longitude":114.318497,
    "latitude":30.537519
  },
  {
    "name":"7天酒店(武汉武昌火车站首义路地铁站店)",
    "longitude":114.310356,
    "latitude":30.53364
  },
  {
    "name":"馨港公寓酒店",
    "longitude":114.340668,
    "latitude":30.582418
  },
  {
    "name":"祥云商务旅馆",
    "longitude":114.34864,
    "latitude":30.601458
  },
  {
    "name":"奥圣吉安商务宾馆",
    "longitude":114.313828,
    "latitude":30.526463
  },
  {
    "name":"中兴宾馆(华电小路)",
    "longitude":114.369156,
    "latitude":30.577135
  },
  {
    "name":"湖北纺织宾馆",
    "longitude":114.364845,
    "latitude":30.572548
  },
  {
    "name":"美达旅馆",
    "longitude":114.29837,
    "latitude":30.534168
  },
  {
    "name":"旭日住宿",
    "longitude":114.296677,
    "latitude":30.533867
  },
  {
    "name":"瑞安阳光酒店(紫阳路店)",
    "longitude":114.308769,
    "latitude":30.533064
  },
  {
    "name":"圣华旅馆",
    "longitude":114.351692,
    "latitude":30.604063
  },
  {
    "name":"铁机公寓",
    "longitude":114.360428,
    "latitude":30.599525
  },
  {
    "name":"瑞泰商务宾馆(八一路)",
    "longitude":114.342827,
    "latitude":30.5387
  },
  {
    "name":"广厦公寓(复兴路)",
    "longitude":114.301064,
    "latitude":30.535158
  },
  {
    "name":"盛源宾馆(民主路店)",
    "longitude":114.330208,
    "latitude":30.545305
  },
  {
    "name":"全景宾馆",
    "longitude":114.317329,
    "latitude":30.549677
  },
  {
    "name":"雅兴宾馆",
    "longitude":114.318184,
    "latitude":30.549313
  },
  {
    "name":"天仙宾馆",
    "longitude":114.30143,
    "latitude":30.541487
  },
  {
    "name":"保利大酒店",
    "longitude":114.334793,
    "latitude":30.543177
  },
  {
    "name":"临江府宾馆",
    "longitude":114.308144,
    "latitude":30.561119
  },
  {
    "name":"东湖国际会议中心观澜厅",
    "longitude":114.372108,
    "latitude":30.558434
  },
  {
    "name":"会宾宾馆(南湖路)",
    "longitude":114.309151,
    "latitude":30.504833
  },
  {
    "name":"东湖国际会议中心听涛厅",
    "longitude":114.371559,
    "latitude":30.558926
  },
  {
    "name":"东湖国际会议中心",
    "longitude":114.371498,
    "latitude":30.560913
  },
  {
    "name":"会宾出租房",
    "longitude":114.309761,
    "latitude":30.544586
  },
  {
    "name":"梦江南商务宾馆(阅马场店)",
    "longitude":114.303909,
    "latitude":30.539507
  },
  {
    "name":"新先宾馆",
    "longitude":114.300049,
    "latitude":30.540239
  },
  {
    "name":"驿家城市酒店",
    "longitude":114.341721,
    "latitude":30.598791
  },
  {
    "name":"善明乐艺术主题酒店",
    "longitude":114.304016,
    "latitude":30.538223
  },
  {
    "name":"盛鑫源宾馆(解放路店)",
    "longitude":114.300781,
    "latitude":30.549683
  },
  {
    "name":"华清招待所",
    "longitude":114.29892,
    "latitude":30.545813
  },
  {
    "name":"丽锦宾馆",
    "longitude":114.295654,
    "latitude":30.547192
  },
  {
    "name":"鑫江宾馆(民主路)",
    "longitude":114.29509,
    "latitude":30.5471
  },
  {
    "name":"江汉油田武昌商务宾馆",
    "longitude":114.313805,
    "latitude":30.543627
  },
  {
    "name":"如家快捷酒店—北京燕莎二店",
    "longitude":114.306656,
    "latitude":30.534466
  },
  {
    "name":"城市四季宾馆",
    "longitude":114.325272,
    "latitude":30.532345
  },
  {
    "name":"武汉星如家宾馆(付家坡店)",
    "longitude":114.32618,
    "latitude":30.536282
  },
  {
    "name":"豆豆智慧旅馆(傅家坡店)",
    "longitude":114.324982,
    "latitude":30.532505
  },
  {
    "name":"恒鑫招待所(丁字桥路)",
    "longitude":114.333649,
    "latitude":30.530785
  },
  {
    "name":"雅新轩宾馆",
    "longitude":114.334419,
    "latitude":30.548513
  },
  {
    "name":"百时快捷酒店(武昌火车站店)",
    "longitude":114.314735,
    "latitude":30.531368
  },
  {
    "name":"速8酒店(武汉徐东销品茂店)",
    "longitude":114.338234,
    "latitude":30.586027
  },
  {
    "name":"7天酒店(武汉黄鹤楼首义广场店)",
    "longitude":114.308464,
    "latitude":30.54001
  },
  {
    "name":"锦江之星旅馆(武昌火车站店)",
    "longitude":114.314735,
    "latitude":30.531368
  },
  {
    "name":"银华宾馆(民主二路)",
    "longitude":114.324646,
    "latitude":30.545162
  },
  {
    "name":"洪锦商务宾馆",
    "longitude":114.330887,
    "latitude":30.544668
  },
  {
    "name":"锦明旅社",
    "longitude":114.313805,
    "latitude":30.524784
  },
  {
    "name":"如家馨宾馆(武汉武昌火车站店)",
    "longitude":114.314095,
    "latitude":30.525148
  },
  {
    "name":"随缘",
    "longitude":114.314461,
    "latitude":30.525551
  },
  {
    "name":"九龙大酒店(武泰闸店)预定中心",
    "longitude":114.303062,
    "latitude":30.520559
  },
  {
    "name":"君子酒店",
    "longitude":114.351608,
    "latitude":30.565992
  },
  {
    "name":"海怡天禄酒店(东南门)",
    "longitude":114.340019,
    "latitude":30.545628
  },
  {
    "name":"v9国际酒店",
    "longitude":114.339111,
    "latitude":30.586771
  },
  {
    "name":"东湖宾馆(东北门)",
    "longitude":114.370476,
    "latitude":30.561298
  },
  {
    "name":"海怡天禄酒店(西南门)",
    "longitude":114.339478,
    "latitude":30.545481
  },
  {
    "name":"纽宾凯(徐东店)",
    "longitude":114.345734,
    "latitude":30.591541
  },
  {
    "name":"平安出租屋",
    "longitude":114.234459,
    "latitude":30.613365
  },
  {
    "name":"天彩客房",
    "longitude":114.238762,
    "latitude":30.61516
  },
  {
    "name":"洪鑫住宿",
    "longitude":114.238152,
    "latitude":30.616522
  },
  {
    "name":"泰和住宿",
    "longitude":114.238884,
    "latitude":30.615211
  },
  {
    "name":"5+2时尚住宿(武汉江汉店)",
    "longitude":114.288963,
    "latitude":30.579943
  },
  {
    "name":"武汉千里缘公寓酒店",
    "longitude":114.251938,
    "latitude":30.612076
  },
  {
    "name":"顺风旅馆(中山大道)",
    "longitude":114.287148,
    "latitude":30.57682
  },
  {
    "name":"红玖商务宾馆",
    "longitude":114.262283,
    "latitude":30.629642
  },
  {
    "name":"锦江之星武汉菱角湖万达店",
    "longitude":114.266243,
    "latitude":30.610352
  },
  {
    "name":"武汉财神商业酒店(福缘百合店)",
    "longitude":114.257492,
    "latitude":30.617521
  },
  {
    "name":"乔希尔加州花园酒店(正门)",
    "longitude":114.278877,
    "latitude":30.573854
  },
  {
    "name":"宝客来宾馆上尚轩砂锅串串",
    "longitude":114.28891,
    "latitude":30.583033
  },
  {
    "name":"君安住宿",
    "longitude":114.268593,
    "latitude":30.582333
  },
  {
    "name":"怡然公寓式酒店",
    "longitude":114.263901,
    "latitude":30.625681
  },
  {
    "name":"福缘百合酒店(武汉汉口火车站欧亚达店)",
    "longitude":114.247871,
    "latitude":30.613779
  },
  {
    "name":"舒洁旅馆",
    "longitude":114.280312,
    "latitude":30.606131
  },
  {
    "name":"易捷酒店",
    "longitude":114.284386,
    "latitude":30.575563
  },
  {
    "name":"东方住宿(八古墩西四巷)",
    "longitude":114.269203,
    "latitude":30.620411
  },
  {
    "name":"汉庭酒店",
    "longitude":114.241272,
    "latitude":30.625786
  },
  {
    "name":"武汉明泰宾馆(江汉路店)",
    "longitude":114.283562,
    "latitude":30.580866
  },
  {
    "name":"广州军区房管局华山宾馆(正门)",
    "longitude":114.287048,
    "latitude":30.579128
  },
  {
    "name":"城市便捷酒店(武汉唐家墩店)",
    "longitude":114.268387,
    "latitude":30.621988
  },
  {
    "name":"石油大厦宾馆",
    "longitude":114.264999,
    "latitude":30.616997
  },
  {
    "name":"汉庭酒店(汉口火车站广场店)",
    "longitude":114.255058,
    "latitude":30.613152
  },
  {
    "name":"武汉如家主题宾馆",
    "longitude":114.282623,
    "latitude":30.574074
  },
  {
    "name":"兴泰招待所",
    "longitude":114.275703,
    "latitude":30.582094
  },
  {
    "name":"循礼门饭店(东门)",
    "longitude":114.284393,
    "latitude":30.586035
  },
  {
    "name":"如家酒店",
    "longitude":114.240829,
    "latitude":30.626526
  },
  {
    "name":"武汉半岛宾馆",
    "longitude":114.281082,
    "latitude":30.580307
  },
  {
    "name":"020045鑫大酒店",
    "longitude":114.259163,
    "latitude":30.617397
  },
  {
    "name":"城市便捷酒店(武汉江汉路步行街店)",
    "longitude":114.289726,
    "latitude":30.579279
  },
  {
    "name":"武汉紫晶公寓",
    "longitude":114.289124,
    "latitude":30.580679
  },
  {
    "name":"佳园宾馆(汉口火车站店)",
    "longitude":114.254868,
    "latitude":30.613939
  },
  {
    "name":"佳悦宾馆快捷宾馆",
    "longitude":114.281914,
    "latitude":30.58024
  },
  {
    "name":"食宝坊有机连锁示范酒店",
    "longitude":114.263603,
    "latitude":30.599842
  },
  {
    "name":"小光奇遇住宿",
    "longitude":114.291336,
    "latitude":30.577402
  },
  {
    "name":"嘉丰宾馆",
    "longitude":114.25602,
    "latitude":30.62233
  },
  {
    "name":"武汉欣欣酒店式公寓",
    "longitude":114.274521,
    "latitude":30.58077
  },
  {
    "name":"鑫银海酒店",
    "longitude":114.281624,
    "latitude":30.572163
  },
  {
    "name":"盛锡福招待所",
    "longitude":114.284416,
    "latitude":30.569485
  },
  {
    "name":"精途酒店(武汉江汉二路店)",
    "longitude":114.288017,
    "latitude":30.580599
  },
  {
    "name":"中奇汉口万松园旅店",
    "longitude":114.266808,
    "latitude":30.588444
  },
  {
    "name":"尚客优骏怡连锁酒店(武汉汉口火车站店)",
    "longitude":114.258896,
    "latitude":30.616474
  },
  {
    "name":"武汉尚客优骏怡连锁酒店(汉口站店)",
    "longitude":114.258896,
    "latitude":30.616474
  },
  {
    "name":"周和旅馆(东门)",
    "longitude":114.277908,
    "latitude":30.58873
  },
  {
    "name":"锦华公寓",
    "longitude":114.251938,
    "latitude":30.612396
  },
  {
    "name":"万珈旅馆(常青店)",
    "longitude":114.260696,
    "latitude":30.622351
  },
  {
    "name":"宝丽金单身公寓日租短租房",
    "longitude":114.292389,
    "latitude":30.576019
  },
  {
    "name":"威玖酒店",
    "longitude":114.243568,
    "latitude":30.605656
  },
  {
    "name":"武展东招待所",
    "longitude":114.274948,
    "latitude":30.581188
  },
  {
    "name":"华丰商务旅馆",
    "longitude":114.282349,
    "latitude":30.5772
  },
  {
    "name":"加州旅馆",
    "longitude":114.252602,
    "latitude":30.614195
  },
  {
    "name":"康乐招待所(解放大道)",
    "longitude":114.275803,
    "latitude":30.582146
  },
  {
    "name":"煌嘉宾馆",
    "longitude":114.266441,
    "latitude":30.591484
  },
  {
    "name":"湖北邮政大酒店",
    "longitude":114.232925,
    "latitude":30.622263
  },
  {
    "name":"武汉锦江国际大酒店",
    "longitude":114.270683,
    "latitude":30.596418
  },
  {
    "name":"武汉轻机宾馆",
    "longitude":114.228172,
    "latitude":30.62184
  },
  {
    "name":"胜家快捷酒店(武汉汉口火车站店)",
    "longitude":114.239426,
    "latitude":30.626108
  },
  {
    "name":"天濠宾馆",
    "longitude":114.263374,
    "latitude":30.588533
  },
  {
    "name":"武汉百花园宾馆(江汉路店)",
    "longitude":114.283463,
    "latitude":30.578924
  },
  {
    "name":"洪斌旅社",
    "longitude":114.276299,
    "latitude":30.617882
  },
  {
    "name":"回家旅社",
    "longitude":114.287682,
    "latitude":30.577715
  },
  {
    "name":"佳美旅馆",
    "longitude":114.290955,
    "latitude":30.57618
  },
  {
    "name":"江华旅馆(三民路)",
    "longitude":114.285088,
    "latitude":30.572498
  },
  {
    "name":"可瑞城市客栈(自治街)",
    "longitude":114.282333,
    "latitude":30.5804
  },
  {
    "name":"东风宾馆",
    "longitude":114.345367,
    "latitude":30.528465
  },
  {
    "name":"纽宾凯新时代国际酒店",
    "longitude":114.330803,
    "latitude":30.532761
  },
  {
    "name":"洪山宾馆",
    "longitude":114.336899,
    "latitude":30.546658
  },
  {
    "name":"锦江之星旅馆(张之洞路店)",
    "longitude":114.30368,
    "latitude":30.534483
  },
  {
    "name":"圣浴泓泽假日酒店",
    "longitude":114.315483,
    "latitude":30.567442
  },
  {
    "name":"枝江之星商务宾馆(付家坡车站店)",
    "longitude":114.325661,
    "latitude":30.532867
  },
  {
    "name":"南湖公寓",
    "longitude":114.313797,
    "latitude":30.517391
  },
  {
    "name":"江宏旅馆",
    "longitude":114.310699,
    "latitude":30.517195
  },
  {
    "name":"7天酒店(武汉解放路音乐学院店)",
    "longitude":114.297203,
    "latitude":30.533764
  },
  {
    "name":"易捷城市酒店(解放路店)",
    "longitude":114.300468,
    "latitude":30.548988
  },
  {
    "name":"方成宾馆",
    "longitude":114.32959,
    "latitude":30.545528
  },
  {
    "name":"布丁酒店(黄鹤楼店)",
    "longitude":114.300446,
    "latitude":30.540186
  },
  {
    "name":"盛东源商务酒店(首义路店)",
    "longitude":114.309578,
    "latitude":30.534794
  },
  {
    "name":"7天酒店(武汉傅家坡梅苑小区地铁站店)",
    "longitude":114.324883,
    "latitude":30.531898
  },
  {
    "name":"森泰中洋酒店",
    "longitude":114.296677,
    "latitude":30.535744
  },
  {
    "name":"7天酒店(武汉积玉桥地铁站店)",
    "longitude":114.308052,
    "latitude":30.554819
  },
  {
    "name":"添星宾馆(徐东店)",
    "longitude":114.356422,
    "latitude":30.587244
  },
  {
    "name":"海装武汉局招待所",
    "longitude":114.310524,
    "latitude":30.516308
  },
  {
    "name":"君怡快捷旅馆",
    "longitude":114.299789,
    "latitude":30.543182
  },
  {
    "name":"金凯旅店",
    "longitude":114.298477,
    "latitude":30.548079
  },
  {
    "name":"兴达旅馆",
    "longitude":114.295235,
    "latitude":30.540693
  },
  {
    "name":"家佳公寓",
    "longitude":114.314941,
    "latitude":30.518595
  },
  {
    "name":"天天快捷宾馆",
    "longitude":114.322731,
    "latitude":30.526634
  },
  {
    "name":"汉豪旅馆",
    "longitude":114.326523,
    "latitude":30.514132
  },
  {
    "name":"武汉瑞天宾馆(司门口店)",
    "longitude":114.300835,
    "latitude":30.546041
  },
  {
    "name":"鑫宇宾馆(武汉民主路店)",
    "longitude":114.30072,
    "latitude":30.546234
  },
  {
    "name":"日月旅馆(平安路)",
    "longitude":114.319824,
    "latitude":30.519552
  },
  {
    "name":"洪泰旅馆",
    "longitude":114.330307,
    "latitude":30.532188
  },
  {
    "name":"胜家玫瑰酒店(水果湖店)",
    "longitude":114.347076,
    "latitude":30.55113
  },
  {
    "name":"万友家商务宾馆",
    "longitude":114.324059,
    "latitude":30.543297
  },
  {
    "name":"乔希尔城市酒店",
    "longitude":114.34626,
    "latitude":30.593655
  },
  {
    "name":"豪婷商务宾馆(徐东店)",
    "longitude":114.350365,
    "latitude":30.597054
  },
  {
    "name":"鑫和宾馆(邓家湾)",
    "longitude":114.327477,
    "latitude":30.525951
  },
  {
    "name":"尚果酒店",
    "longitude":114.297066,
    "latitude":30.549797
  },
  {
    "name":"白云之家酒店",
    "longitude":114.326248,
    "latitude":30.526438
  },
  {
    "name":"湖北省直机关招待所",
    "longitude":114.34716,
    "latitude":30.546259
  },
  {
    "name":"明星酒店(君临苑店)",
    "longitude":114.30938,
    "latitude":30.554674
  },
  {
    "name":"鑫豪都商务宾馆(火车站店)",
    "longitude":114.309303,
    "latitude":30.524242
  },
  {
    "name":"鑫豪都宾馆商务主题酒店(徐东秦园路店)",
    "longitude":114.34024,
    "latitude":30.582718
  },
  {
    "name":"7天酒店(武汉武昌火车站地铁站店)",
    "longitude":114.314468,
    "latitude":30.525831
  },
  {
    "name":"7天酒店(武汉丁字桥店)",
    "longitude":114.333626,
    "latitude":30.528484
  },
  {
    "name":"7天酒店(武汉武昌火车站东广场店)",
    "longitude":114.316017,
    "latitude":30.522001
  },
  {
    "name":"名爵快捷宾馆(武珞路)",
    "longitude":114.344284,
    "latitude":30.528385
  },
  {
    "name":"红瓦房酒店",
    "longitude":114.343964,
    "latitude":30.557833
  },