[
    {
        "name": "速8酒店(武汉黄鹤楼阅马场店)",
        "longitude": 114.32163749152312,
        "latitude": 30.542995743842763
    },
    {
        "name": "武汉凤凰如家公寓",
        "longitude": 114.43643076145842,
        "latitude": 30.441656173732373
    },
    {
        "name": "清江饭店",
        "longitude": 114.31103368408587,
        "latitude": 30.552909489381964
    },
    {
        "name": "武汉晨发公寓",
        "longitude": 114.33095485431218,
        "latitude": 30.35693269680528
    },
    {
        "name": "温馨公寓(武汉落雁路店)",
        "longitude": 114.43770151399616,
        "latitude": 30.584812797111912
    },
    {
        "name": "紫阳湖宾馆",
        "longitude": 114.31453301270875,
        "latitude": 30.537016915991416
    },
    {
        "name": "东方建国大酒店",
        "longitude": 114.27049146068921,
        "latitude": 30.61964889388305
    },
    {
        "name": "格林豪泰酒店(湖北省武汉市武昌火车站东广场)",
        "longitude": 114.3352023944413,
        "latitude": 30.53496531387945
    },
    {
        "name": "东湖大厦",
        "longitude": 114.34815460256844,
        "latitude": 30.555631816185027
    },
    {
        "name": "添雅·1911·酒店",
        "longitude": 114.27469664825679,
        "latitude": 30.617570950451288
    },
    {
        "name": "楚天粤海国际大酒店",
        "longitude": 114.37596881364462,
        "latitude": 30.568595784544218
    },
    {
        "name": "武汉江锋客栈",
        "longitude": 114.26387110496032,
        "latitude": 30.61625231481589
    },
    {
        "name": "武汉天都旅社",
        "longitude": 114.06739778804521,
        "latitude": 30.6266785121854
    },
    {
        "name": "循礼门饭店",
        "longitude": 114.29617961671045,
        "latitude": 30.58927489425869
    },
    {
        "name": "武汉东鑫大酒店",
        "longitude": 114.22410765928035,
        "latitude": 30.564732038783198
    },
    {
        "name": "九龙大酒店(雄楚店)",
        "longitude": 114.35620012023558,
        "latitude": 30.514058101108855
    },
    {
        "name": "世纪家园酒店",
        "longitude": 114.22501679937966,
        "latitude": 30.56449974353471
    },
    {
        "name": "水神客舍",
        "longitude": 114.39510966854832,
        "latitude": 30.520840135545708
    },
    {
        "name": "世纪花园大酒店",
        "longitude": 114.26171584994073,
        "latitude": 30.588010081640185
    },
    {
        "name": "安华酒店",
        "longitude": 114.32844662650508,
        "latitude": 30.53659615802922
    },
    {
        "name": "武汉湖滨花园酒店",
        "longitude": 114.39629068777327,
        "latitude": 30.521194036413068
    },
    {
        "name": "雪莲宾馆",
        "longitude": 114.30291570953928,
        "latitude": 30.627464401846936
    },
    {
        "name": "天一商务酒店",
        "longitude": 114.36202897308885,
        "latitude": 30.61095290568802
    },
    {
        "name": "武汉万达瑞华酒店",
        "longitude": 114.35939984398702,
        "latitude": 30.556448316108465
    },
    {
        "name": "扬子江天美乐饭店(武展店)",
        "longitude": 114.29001701299977,
        "latitude": 30.578205713100584
    },
    {
        "name": "武汉光明万丽酒店",
        "longitude": 114.36820558939041,
        "latitude": 30.583439013959634
    },
    {
        "name": "东风宾馆",
        "longitude": 114.35746135956305,
        "latitude": 30.53236346374622
    },
    {
        "name": "卓悦假日酒店",
        "longitude": 114.3804433344292,
        "latitude": 30.519164195742775
    },
    {
        "name": "新大地酒店",
        "longitude": 114.3366890744587,
        "latitude": 30.540496534009293
    },
    {
        "name": "舒心招待所",
        "longitude": 114.20090633297328,
        "latitude": 30.614580864036537
    },
    {
        "name": "珞珈山宾馆",
        "longitude": 114.38614590767905,
        "latitude": 30.53535028916608
    },
    {
        "name": "武汉光谷金盾大酒店",
        "longitude": 114.40045385998992,
        "latitude": 30.516929743863773
    },
    {
        "name": "武汉喜洋洋客房",
        "longitude": 114.32532365068151,
        "latitude": 30.417486915560275
    },
    {
        "name": "纽宾凯新宜国际酒店",
        "longitude": 114.32980303668306,
        "latitude": 30.543119944248176
    },
    {
        "name": "武汉米莱创意酒店",
        "longitude": 114.4233017130032,
        "latitude": 30.487088456941706
    },
    {
        "name": "兆瑞国际大酒店",
        "longitude": 114.29677000058182,
        "latitude": 30.606101950279914
    },
    {
        "name": "德加酒店(建设大道)",
        "longitude": 114.30387171807222,
        "latitude": 30.616945726345023
    },
    {
        "name": "金盾大酒店",
        "longitude": 114.2756257930186,
        "latitude": 30.60388366197473
    },
    {
        "name": "如家快捷酒店(武汉高雄路店)",
        "longitude": 114.29797737406687,
        "latitude": 30.60399701725432
    },
    {
        "name": "如家快捷酒店(武汉光谷民族大道店)",
        "longitude": 114.41031415364651,
        "latitude": 30.499690408044543
    },
    {
        "name": "军悦假日酒店",
        "longitude": 114.38236087827902,
        "latitude": 30.533211945935616
    },
    {
        "name": "莱斯国际酒店",
        "longitude": 114.36593419237319,
        "latitude": 30.574095003503956
    },
    {
        "name": "森泰中洋酒店",
        "longitude": 114.30872628734637,
        "latitude": 30.539046694467647
    },
    {
        "name": "武汉晴川假日酒店",
        "longitude": 114.29751723734081,
        "latitude": 30.56071268537199
    },
    {
        "name": "华天大酒店(徐东路)",
        "longitude": 114.35873755024565,
        "latitude": 30.593063376365414
    },
    {
        "name": "湖北民航大酒店",
        "longitude": 114.29156383299365,
        "latitude": 30.59185290576417
    },
    {
        "name": "武汉华美达天禄酒店(青年路店)",
        "longitude": 114.2774941096998,
        "latitude": 30.584969797873946
    },
    {
        "name": "光谷潮漫国际酒店",
        "longitude": 114.44092475020378,
        "latitude": 30.49519212532366
    },
    {
        "name": "武汉新华诺富特大饭店",
        "longitude": 114.28060222409725,
        "latitude": 30.597551227212843
    },
    {
        "name": "梨园大酒店",
        "longitude": 114.37769882440467,
        "latitude": 30.580213019911238
    },
    {
        "name": "长丰出租房",
        "longitude": 114.22511894607551,
        "latitude": 30.61195268970523
    },
    {
        "name": "速佳宾馆",
        "longitude": 114.26160718585088,
        "latitude": 30.552379318898456
    },
    {
        "name": "净馨旅舍(武汉光谷创业街店)",
        "longitude": 114.42186924882631,
        "latitude": 30.506963393025064
    },
    {
        "name": "新尚都酒店公寓",
        "longitude": 114.41800716815185,
        "latitude": 30.50984314107857
    },
    {
        "name": "丰颐大酒店",
        "longitude": 114.37764147053383,
        "latitude": 30.533466786125807
    },
    {
        "name": "通缘宾馆",
        "longitude": 114.31082644392495,
        "latitude": 30.607426881445964
    },
    {
        "name": "欧喜得精品酒店",
        "longitude": 114.3422571708999,
        "latitude": 30.54779574473199
    },
    {
        "name": "巴山夜雨大酒店",
        "longitude": 114.3441137814968,
        "latitude": 30.547866737367983
    },
    {
        "name": "帅府饭店",
        "longitude": 114.35953623934063,
        "latitude": 30.540287029395557
    },
    {
        "name": "V9假日酒店(武汉南湖店)",
        "longitude": 114.33248038974847,
        "latitude": 30.501218923736968
    },
    {
        "name": "武汉馨梦住宿",
        "longitude": 114.36491142792772,
        "latitude": 30.718253341714405
    },
    {
        "name": "亚洲大酒店(汉口店)",
        "longitude": 114.27343010668298,
        "latitude": 30.580937088859997
    },
    {
        "name": "城市便捷酒店(武汉长丰大道店)",
        "longitude": 114.23065988544673,
        "latitude": 30.609642717491894
    },
    {
        "name": "佳佳住宿(武汉阳逻店)",
        "longitude": 114.54488592425038,
        "latitude": 30.715986984534656
    },
    {
        "name": "洪山宾馆",
        "longitude": 114.34893597961091,
        "latitude": 30.550816122417732
    },
    {
        "name": "城市便捷酒店(武汉江汉路步行街店)",
        "longitude": 114.30146219824081,
        "latitude": 30.582704063914765
    },
    {
        "name": "军安宾馆",
        "longitude": 114.27154157560076,
        "latitude": 30.62027967915695
    },
    {
        "name": "武汉宏源招待所",
        "longitude": 114.32535357669214,
        "latitude": 30.417487419447603
    },
    {
        "name": "武汉巴洛青年旅社",
        "longitude": 114.407295109551,
        "latitude": 30.508638031977267
    },
    {
        "name": "武汉光谷凯悦酒店",
        "longitude": 114.43507818809958,
        "latitude": 30.510693307838963
    },
    {
        "name": "安聚缘酒店",
        "longitude": 114.41266499729194,
        "latitude": 30.50171983443509
    },
    {
        "name": "锦江之星旅馆(武汉江滩步行街店)",
        "longitude": 114.30842164940931,
        "latitude": 30.580831698627495
    },
    {
        "name": "a-ok商旅酒店",
        "longitude": 114.35097546616493,
        "latitude": 30.587536195580235
    },
    {
        "name": "武汉温馨家园旅店",
        "longitude": 114.1645888564236,
        "latitude": 30.509306959622418
    },
    {
        "name": "九龙大酒店",
        "longitude": 114.31478582725998,
        "latitude": 30.52375928563313
    },
    {
        "name": "瑞丰时代酒店",
        "longitude": 114.34526941993474,
        "latitude": 30.540468241994766
    },
    {
        "name": "怡安街宾馆",
        "longitude": 114.29094347169357,
        "latitude": 30.57576138255001
    },
    {
        "name": "武汉楚缘客房部",
        "longitude": 114.30124662044156,
        "latitude": 30.579829516933128
    },
    {
        "name": "昌瑞招待所",
        "longitude": 114.32687610428414,
        "latitude": 30.53083923203265
    },
    {
        "name": "江海楼大酒店",
        "longitude": 114.24712356458367,
        "latitude": 30.58994382312082
    },
    {
        "name": "武汉顺通住宿",
        "longitude": 114.19662819747174,
        "latitude": 30.615098235500817
    },
    {
        "name": "中油酒店(中北路店)",
        "longitude": 114.36400238841057,
        "latitude": 30.572049545708975
    },
    {
        "name": "武汉五月花大酒店",
        "longitude": 114.33951824286352,
        "latitude": 30.54041777436977
    },
    {
        "name": "洪广大酒店",
        "longitude": 114.34566549901952,
        "latitude": 30.547958008681405
    },
    {
        "name": "武汉帅府饭店附楼",
        "longitude": 114.35952907106207,
        "latitude": 30.540479987083923
    },
    {
        "name": "滨江阁大酒店",
        "longitude": 114.2503135592118,
        "latitude": 30.580769795144246
    },
    {
        "name": "武汉博汇精品酒店",
        "longitude": 114.41037887885396,
        "latitude": 30.64007684869215
    },
    {
        "name": "青年酒店",
        "longitude": 114.38166858193736,
        "latitude": 30.51788821555897
    },
    {
        "name": "玲珑旭精品酒店(武汉站欢乐谷店)",
        "longitude": 114.39392361446453,
        "latitude": 30.620307598687482
    },
    {
        "name": "创意宾馆",
        "longitude": 114.3195783227967,
        "latitude": 30.623946820442633
    },
    {
        "name": "江城明珠豪生大酒店",
        "longitude": 114.31615823713211,
        "latitude": 30.59405290317154
    },
    {
        "name": "武汉万达嘉华酒店",
        "longitude": 114.3579055040604,
        "latitude": 30.556353027525777
    },
    {
        "name": "香格里拉大酒店",
        "longitude": 114.29513135958211,
        "latitude": 30.60590133012791
    },
    {
        "name": "华坤宾馆(武泰闸店)",
        "longitude": 114.3208888574178,
        "latitude": 30.52446968375835
    },
    {
        "name": "葛洲坝大酒店",
        "longitude": 114.2634411649064,
        "latitude": 30.580109233790555
    },
    {
        "name": "武汉春发旅馆",
        "longitude": 114.54442921186973,
        "latitude": 30.716000998320872
    },
    {
        "name": "武汉唐山旅馆",
        "longitude": 114.91810992787786,
        "latitude": 30.872621974743577
    },
    {
        "name": "武汉鹰谊大酒店",
        "longitude": 114.81989980299095,
        "latitude": 30.842481629217456
    },
    {
        "name": "同乐客房",
        "longitude": 114.27505779056915,
        "latitude": 30.58720108782733
    },
    {
        "name": "锦鑫快捷旅馆",
        "longitude": 114.2195764654151,
        "latitude": 30.563572714974093
    },
    {
        "name": "武汉汉阳市区惠民招待所",
        "longitude": 114.20565144912614,
        "latitude": 30.570625168555697
    },
    {
        "name": "归元旅社",
        "longitude": 114.27364092266023,
        "latitude": 30.55018063621789
    },
    {
        "name": "洪鑫快捷宾馆",
        "longitude": 114.28205736281123,
        "latitude": 30.55093700489562
    },
    {
        "name": "炎龙商务酒店(拦江路店)",
        "longitude": 114.2805052033257,
        "latitude": 30.547279530992743
    },
    {
        "name": "武汉为民旅社",
        "longitude": 114.26779111338216,
        "latitude": 30.554541342115094
    },
    {
        "name": "金源隆住宿",
        "longitude": 114.27517924105538,
        "latitude": 30.553404290582858
    },
    {
        "name": "武汉君安旅社(站前店)",
        "longitude": 114.27045751896559,
        "latitude": 30.553946925150576
    },
    {
        "name": "美佳旅馆",
        "longitude": 114.2152945926316,
        "latitude": 30.571513104573757
    },
    {
        "name": "菩提旅社",
        "longitude": 114.27316591182849,
        "latitude": 30.550005788926487
    },
    {
        "name": "玫瑰大酒店",
        "longitude": 114.22337078121434,
        "latitude": 30.569541849987218
    },
    {
        "name": "大桥宾馆(莲花湖路)",
        "longitude": 114.28710608312011,
        "latitude": 30.55426040688444
    },
    {
        "name": "武汉巫溪大自然酒店(七里一村店)",
        "longitude": 114.23672891855755,
        "latitude": 30.559019928083043
    },
    {
        "name": "金铃宾馆",
        "longitude": 114.14583342706491,
        "latitude": 30.302249987684835
    },
    {
        "name": "武汉梦之旅住宿",
        "longitude": 114.32536956954964,
        "latitude": 30.41744868961548
    },
    {
        "name": "阳光住宿(武汉东湖学院店)",
        "longitude": 114.32536956954964,
        "latitude": 30.41744868961548
    },
    {
        "name": "雅馨公寓",
        "longitude": 114.34363883929981,
        "latitude": 30.369265261078603
    },
    {
        "name": "武汉地一栈酒店",
        "longitude": 114.44279203537859,
        "latitude": 30.42512810593951
    },
    {
        "name": "莫泰168(武汉光谷金融港店)",
        "longitude": 114.4319582881615,
        "latitude": 30.465419112277345
    },
    {
        "name": "金凯商务宾馆",
        "longitude": 114.45505221624984,
        "latitude": 30.43865463065246
    },
    {
        "name": "新世纪长租房",
        "longitude": 114.395793233235,
        "latitude": 30.47919309126869
    },
    {
        "name": "鑫来公寓",
        "longitude": 114.39604934867468,
        "latitude": 30.481851164668864
    },
    {
        "name": "书香公寓",
        "longitude": 114.39759544580971,
        "latitude": 30.479173199627095
    },
    {
        "name": "青年166长租房",
        "longitude": 114.39595463338249,
        "latitude": 30.479741627960696
    },
    {
        "name": "梦缘公寓(中南大道)",
        "longitude": 114.39741158963227,
        "latitude": 30.479249393683475
    },
    {
        "name": "宏发公寓",
        "longitude": 114.39702128088699,
        "latitude": 30.479906443515798
    },
    {
        "name": "新馨兴招待所",
        "longitude": 114.32207941924497,
        "latitude": 30.408087287184088
    },
    {
        "name": "紫玫瑰住宿",
        "longitude": 114.32366108071537,
        "latitude": 30.421477607773195
    },
    {
        "name": "四方客房",
        "longitude": 114.32332011634116,
        "latitude": 30.41889230432154
    },
    {
        "name": "君旭住宿",
        "longitude": 114.33524351940432,
        "latitude": 30.355937433051075
    },
    {
        "name": "称心宾馆(兴新街)",
        "longitude": 114.31838992023081,
        "latitude": 30.351245032591013
    },
    {
        "name": "城关住宿",
        "longitude": 114.34037964132146,
        "latitude": 30.350587569988825
    },
    {
        "name": "军齐酒店",
        "longitude": 114.43750083265729,
        "latitude": 30.39396661431442
    },
    {
        "name": "如家租住(第二师范店)",
        "longitude": 114.45649470922505,
        "latitude": 30.488674490000026
    },
    {
        "name": "华泰住宿",
        "longitude": 114.38676367446983,
        "latitude": 30.415321323969287
    },
    {
        "name": "武汉仙慧旅社",
        "longitude": 114.32077386892612,
        "latitude": 30.350950147987565
    },
    {
        "name": "祥云公寓",
        "longitude": 114.39530420264924,
        "latitude": 30.480629223352068
    },
    {
        "name": "高亢长租房",
        "longitude": 114.39600901577916,
        "latitude": 30.47983975084475
    },
    {
        "name": "维维出租屋",
        "longitude": 114.39575449556412,
        "latitude": 30.478668471265358
    },
    {
        "name": "娇子平价住宿",
        "longitude": 114.32531566624134,
        "latitude": 30.417491781113174
    },
    {
        "name": "武汉二家公寓",
        "longitude": 114.39652238180284,
        "latitude": 30.479575816563926
    },
    {
        "name": "红旗公寓",
        "longitude": 114.32315216337436,
        "latitude": 30.409913680401676
    },
    {
        "name": "鑫河丹园光谷国际酒店(正门)",
        "longitude": 114.4321619290044,
        "latitude": 30.461809679554932
    },
    {
        "name": "金鸿商务酒店",
        "longitude": 114.32561095718862,
        "latitude": 30.35398144140435
    },
    {
        "name": "有间住宿(藏龙北街)",
        "longitude": 114.43729515268785,
        "latitude": 30.44363243678751
    },
    {
        "name": "创意住宿",
        "longitude": 114.44610521303015,
        "latitude": 30.460386157012262
    },
    {
        "name": "舒家住宿",
        "longitude": 114.4531399905818,
        "latitude": 30.403208587629948
    },
    {
        "name": "博美公寓",
        "longitude": 114.35452367635038,
        "latitude": 30.52286697568281
    },
    {
        "name": "鑫隆时尚旅馆",
        "longitude": 114.35364494349314,
        "latitude": 30.52788381687874
    },
    {
        "name": "咸嘉住宿",
        "longitude": 114.27171271610693,
        "latitude": 30.464615211460327
    },
    {
        "name": "枫桥公寓",
        "longitude": 114.33972685989941,
        "latitude": 30.51354367032091
    },
    {
        "name": "美境公寓",
        "longitude": 114.42208107439548,
        "latitude": 30.473070933827234
    },
    {
        "name": "泰合宾馆",
        "longitude": 114.34238222825047,
        "latitude": 30.516711281236184
    },
    {
        "name": "新昌旅馆",
        "longitude": 114.28150948747913,
        "latitude": 30.465504008433097
    },
    {
        "name": "珈园宾馆",
        "longitude": 114.37116461726843,
        "latitude": 30.536088491231688
    },
    {
        "name": "武汉家佳酒店公寓",
        "longitude": 114.36526967576432,
        "latitude": 30.52961115785584
    },
    {
        "name": "喜莱商务酒店(欢乐谷店)",
        "longitude": 114.40062511034797,
        "latitude": 30.61127639128462
    },
    {
        "name": "凯兴商务宾馆",
        "longitude": 114.43186257916399,
        "latitude": 30.49241220409715
    },
    {
        "name": "鑫如家宾馆",
        "longitude": 114.36237843003617,
        "latitude": 30.52224280881178
    },
    {
        "name": "友缘住宿",
        "longitude": 114.42485782965694,
        "latitude": 30.47327283965203
    },
    {
        "name": "我家公馆",
        "longitude": 114.4399313477379,
        "latitude": 30.606602437054455
    },
    {
        "name": "国光宾馆",
        "longitude": 114.41185287979964,
        "latitude": 30.515796294568098
    },
    {
        "name": "武汉世茂希尔顿酒店",
        "longitude": 114.28596768668062,
        "latitude": 30.542233257804526
    },
    {
        "name": "阳光公寓(岭南路)",
        "longitude": 114.34121073782576,
        "latitude": 30.516840753658677
    },
    {
        "name": "7日时尚公寓(尖东智能花园店)",
        "longitude": 114.41082531804831,
        "latitude": 30.50777642403327
    },
    {
        "name": "武汉时尚住宿",
        "longitude": 114.36236347426717,
        "latitude": 30.522010671906617
    },
    {
        "name": "武汉爱琴海商务公寓",
        "longitude": 114.41076309855043,
        "latitude": 30.507738217564157
    },
    {
        "name": "武汉温馨公寓旅店",
        "longitude": 114.4140244967357,
        "latitude": 30.510191026595905
    },
    {
        "name": "平安宾馆(武昌大道)",
        "longitude": 114.3216159262339,
        "latitude": 30.446969809732934
    },
    {
        "name": "武汉恺德花园酒店(原武汉瑞安春天酒店)",
        "longitude": 114.3989624938205,
        "latitude": 30.505109681774094
    },
    {
        "name": "小田园公寓",
        "longitude": 114.27968179340431,
        "latitude": 30.458195114988158
    },
    {
        "name": "飞洋出租房",
        "longitude": 114.43825478044964,
        "latitude": 30.593775737242133
    },
    {
        "name": "168住宿(武汉华科店)",
        "longitude": 114.43858169865715,
        "latitude": 30.510009693534073
    },
    {
        "name": "如家快捷酒店(武汉光谷华科大店)",
        "longitude": 114.43665959894687,
        "latitude": 30.512036551735658
    },
    {
        "name": "学府公寓(武汉洪山店)",
        "longitude": 114.33733175985739,
        "latitude": 30.478521510976687
    },
    {
        "name": "武汉中意招待所",
        "longitude": 114.32288085923028,
        "latitude": 30.44567361867685
    },
    {
        "name": "八一花园酒店公寓",
        "longitude": 114.39948422925397,
        "latitude": 30.49547896666212
    },
    {
        "name": "武汉博才公寓(体院店)",
        "longitude": 114.38210546444762,
        "latitude": 30.516884812981445
    },
    {
        "name": "798club(白沙洲别墅聚会店)",
        "longitude": 114.2877238222127,
        "latitude": 30.488314063136222
    },
    {
        "name": "武汉市洪鑫住宿",
        "longitude": 114.36135605169467,
        "latitude": 30.52250375273022
    },
    {
        "name": "阳光住宿(关山大道)",
        "longitude": 114.42142493746825,
        "latitude": 30.473179141901312
    },
    {
        "name": "武汉红玉住宿",
        "longitude": 114.42580125840549,
        "latitude": 30.53420134864778
    },
    {
        "name": "广源公寓",
        "longitude": 114.44203909749939,
        "latitude": 30.58893406241497
    },
    {
        "name": "东方龙酒店(洗浴部)",
        "longitude": 114.41711709690311,
        "latitude": 30.48740241244786
    },
    {
        "name": "武汉慢跑时光酒店公寓",
        "longitude": 114.43961267001438,
        "latitude": 30.606401007758603
    },
    {
        "name": "武汉一龟龟青年旅舍",
        "longitude": 114.43256888356618,
        "latitude": 30.50960842677094
    },
    {
        "name": "武汉站和谐宾馆",
        "longitude": 114.43192415292111,
        "latitude": 30.603138617111338
    },
    {
        "name": "武汉忘不了青年旅舍",
        "longitude": 114.40953264788364,
        "latitude": 30.51197632568677
    },
    {
        "name": "楚源大厦",
        "longitude": 114.38331251147356,
        "latitude": 30.53114798152797
    },
    {
        "name": "武汉湖滨花园酒店",
        "longitude": 114.39623646603651,
        "latitude": 30.520870888190263
    },
    {
        "name": "汇通时尚旅馆",
        "longitude": 114.30170274040464,
        "latitude": 30.589317697477018
    },
    {
        "name": "华鑫时尚旅馆",
        "longitude": 114.31137773038438,
        "latitude": 30.585108543203162
    },
    {
        "name": "俊俊招待所",
        "longitude": 114.28879792325843,
        "latitude": 30.62167485953121
    },
    {
        "name": "天天红旅馆",
        "longitude": 114.30075371358578,
        "latitude": 30.61848381860275
    },
    {
        "name": "相约出租屋(知行学院店)",
        "longitude": 114.38222779351294,
        "latitude": 30.69421330228384
    },
    {
        "name": "188公寓",
        "longitude": 114.32721050132373,
        "latitude": 30.64257536013419
    },
    {
        "name": "美园旅馆",
        "longitude": 114.32889833948158,
        "latitude": 30.631052214180805
    },
    {
        "name": "朗逸公寓式酒店",
        "longitude": 114.2888663856186,
        "latitude": 30.599064026385687
    },
    {
        "name": "瑞安酒店(鑫泰八环店)",
        "longitude": 114.33777802529998,
        "latitude": 30.538895100794814
    },
    {
        "name": "福祥招待所(千家街)",
        "longitude": 114.32729862223046,
        "latitude": 30.535554311964713
    },
    {
        "name": "常虹旅馆",
        "longitude": 114.25091193204267,
        "latitude": 30.63065304208933
    },
    {
        "name": "武汉龙阳住宿",
        "longitude": 114.21926615805745,
        "latitude": 30.564576838138464
    },
    {
        "name": "武汉泊濠大酒店",
        "longitude": 114.22304110432943,
        "latitude": 30.550671514902838
    },
    {
        "name": "城市便捷酒店(武汉江夏店)",
        "longitude": 114.3412543403234,
        "latitude": 30.358620482283072
    },
    {
        "name": "武汉二楼公寓",
        "longitude": 114.41365667874531,
        "latitude": 30.51048020553783
    },
    {
        "name": "武汉海岸时代宾馆",
        "longitude": 114.41076310257253,
        "latitude": 30.50774622083618
    },
    {
        "name": "府二期橙果公寓",
        "longitude": 114.34256900215298,
        "latitude": 30.505804861944487
    },
    {
        "name": "光谷步行街公寓",
        "longitude": 114.42002889897701,
        "latitude": 30.506506361756497
    },
    {
        "name": "康诚宾馆(关东园五路)",
        "longitude": 114.46410572491777,
        "latitude": 30.505660541600232
    },
    {
        "name": "武汉振兴公寓(城市职业学院店)",
        "longitude": 114.33788818174152,
        "latitude": 30.479676177937733
    },
    {
        "name": "都市便捷酒店",
        "longitude": 114.30503464100633,
        "latitude": 30.487031944007633
    },
    {
        "name": "武汉金涛鸿怡景宾馆",
        "longitude": 114.40371883455059,
        "latitude": 30.514188710662705
    },
    {
        "name": "华坤宾馆(武汉光谷店)",
        "longitude": 114.44204279616494,
        "latitude": 30.508253001806217
    },
    {
        "name": "如家快捷酒店",
        "longitude": 114.37282977262763,
        "latitude": 30.52880555004479
    },
    {
        "name": "武汉馥盛楼大酒店",
        "longitude": 114.38775737913316,
        "latitude": 30.53323151382036
    },
    {
        "name": "南湖大厦",
        "longitude": 114.366899571783,
        "latitude": 30.51314833277066
    },
    {
        "name": "武汉速7连锁宾馆二七北路店",
        "longitude": 114.32940843937249,
        "latitude": 30.633065628448122
    },
    {
        "name": "武汉金桥商务旅馆",
        "longitude": 114.34300556497925,
        "latitude": 30.648881348728757
    },
    {
        "name": "汇申大酒店",
        "longitude": 114.3230713138794,
        "latitude": 30.60580956184462
    },
    {
        "name": "江涛旅馆(上海路)",
        "longitude": 114.30963555824253,
        "latitude": 30.58143764205374
    },
    {
        "name": "武汉帝盛酒店",
        "longitude": 114.30211327671024,
        "latitude": 30.58587162661022
    },
    {
        "name": "美特斯宾馆(苗栗路)",
        "longitude": 114.30103185967853,
        "latitude": 30.599767410513493
    },
    {
        "name": "红艳宾馆",
        "longitude": 114.29833092237551,
        "latitude": 30.590211059424746
    },
    {
        "name": "龙之家住宿",
        "longitude": 114.25077429425752,
        "latitude": 30.73668040129183
    },
    {
        "name": "武汉好莱屋宾馆",
        "longitude": 114.23736150834466,
        "latitude": 30.80396472852053
    },
    {
        "name": "城市便捷酒店连锁(东吴大道店)",
        "longitude": 114.14515728619362,
        "latitude": 30.62832035277929
    },
    {
        "name": "汉驿旅店(友谊大道)",
        "longitude": 114.37050496977788,
        "latitude": 30.608018047681416
    },
    {
        "name": "武汉武房网商务酒店(东湖酒店)",
        "longitude": 114.37195354880946,
        "latitude": 30.56245432449046
    },
    {
        "name": "城结缘酒店",
        "longitude": 114.10203849304092,
        "latitude": 30.46232609790965
    },
    {
        "name": "阳光旅社(郭蔡路)",
        "longitude": 114.1653854307627,
        "latitude": 30.4919371773403
    },
    {
        "name": "嘉缘青年旅社(武汉奥林花园店)",
        "longitude": 114.19294737943392,
        "latitude": 30.51882170308698
    },
    {
        "name": "欣欣宾馆(武汉省博物馆店)",
        "longitude": 114.37094040782422,
        "latitude": 30.572457895264122
    },
    {
        "name": "月亮湾会馆",
        "longitude": 114.3344831335717,
        "latitude": 30.590793759460425
    },
    {
        "name": "武汉捷臣汇东商务酒店(首义路店)",
        "longitude": 114.31631965026776,
        "latitude": 30.542664738583397
    },
    {
        "name": "武汉馨豪时尚公寓",
        "longitude": 114.36255881089788,
        "latitude": 30.592011793709432
    },
    {
        "name": "武汉月季花宾馆",
        "longitude": 114.26603824219586,
        "latitude": 30.6169461658799
    },
    {
        "name": "武汉汝家短租公寓",
        "longitude": 114.30405208485733,
        "latitude": 30.57963408507317
    },
    {
        "name": "武汉7天便捷公寓酒店",
        "longitude": 114.26602333945586,
        "latitude": 30.617108495762462
    },
    {
        "name": "武汉柒天便捷酒店",
        "longitude": 114.26461390928809,
        "latitude": 30.61660897641887
    },
    {
        "name": "汉庭酒店(武汉新华路店)",
        "longitude": 114.28367495208833,
        "latitude": 30.596434379304963
    },
    {
        "name": "武汉罗兰商务宾馆",
        "longitude": 114.272316593535,
        "latitude": 30.62224974299045
    },
    {
        "name": "武汉星阳光城市酒店(崇仁路茶叶市场店)",
        "longitude": 114.27149743215874,
        "latitude": 30.576734310579617
    },
    {
        "name": "大洲公寓",
        "longitude": 114.39445250609647,
        "latitude": 30.619280011320047
    },
    {
        "name": "武汉霞芳旅社",
        "longitude": 114.54993255854158,
        "latitude": 30.721573412948874
    },
    {
        "name": "春花住宿(汽发街)",
        "longitude": 114.5773093012113,
        "latitude": 30.658980020846812
    },
    {
        "name": "台东旅馆",
        "longitude": 114.3011975641186,
        "latitude": 30.597159117622542
    },
    {
        "name": "良希酒店",
        "longitude": 114.31166447055752,
        "latitude": 30.80635612246854
    },
    {
        "name": "雅居出租房",
        "longitude": 114.38947856108896,
        "latitude": 30.537770453225054
    },
    {
        "name": "全鑫宾馆",
        "longitude": 114.26614805932924,
        "latitude": 30.634752401873172
    },
    {
        "name": "鑫芙蓉宾馆",
        "longitude": 114.49872720178055,
        "latitude": 30.60799810494261
    },
    {
        "name": "兴隆招待所",
        "longitude": 114.37439857719315,
        "latitude": 30.528387470625116
    },
    {
        "name": "华坤城市酒店(龙阳大道)",
        "longitude": 114.2260754668923,
        "latitude": 30.573047613286874
    },
    {
        "name": "银华宾馆(钟家村店)",
        "longitude": 114.27919931463596,
        "latitude": 30.550122775348445
    },
    {
        "name": "武汉叮咚主题酒店(湖北经济学院店)",
        "longitude": 114.44135828434433,
        "latitude": 30.424491144931967
    },
    {
        "name": "武汉深情公寓",
        "longitude": 114.32385324441205,
        "latitude": 30.419682723493516
    },
    {
        "name": "柴林旅馆",
        "longitude": 114.38056709212513,
        "latitude": 30.61168300346497
    },
    {
        "name": "吉鑫商务酒店",
        "longitude": 114.35333408308637,
        "latitude": 30.52638445852238
    },
    {
        "name": "武汉188家庭旅馆(高铁站店)",
        "longitude": 114.43987039009795,
        "latitude": 30.60637164962553
    },
    {
        "name": "堤角招待所",
        "longitude": 114.34773733942303,
        "latitude": 30.660553133141548
    },
    {
        "name": "金鑫宾馆(丹水池店)",
        "longitude": 114.34306678811352,
        "latitude": 30.648120291539218
    },
    {
        "name": "晴天假日酒店",
        "longitude": 114.38457367338731,
        "latitude": 30.87764881047056
    },
    {
        "name": "佳庭宾馆",
        "longitude": 114.31256149242148,
        "latitude": 30.55959418766579
    },
    {
        "name": "桥头堡",
        "longitude": 114.30579926706942,
        "latitude": 30.54920117841113
    },
    {
        "name": "百姓客房部",
        "longitude": 114.30067288391514,
        "latitude": 30.57833209514887
    },
    {
        "name": "武汉万顺招待所",
        "longitude": 114.26543987517464,
        "latitude": 30.582927834418932
    },
    {
        "name": "家常菜酒店",
        "longitude": 114.30591644080403,
        "latitude": 30.53808647771542
    },
    {
        "name": "芳洲宾悦酒店",
        "longitude": 114.267691269281,
        "latitude": 30.525937521978285
    },
    {
        "name": "博雅客舍",
        "longitude": 114.81550370999479,
        "latitude": 30.834722694040316
    },
    {
        "name": "荣泽宾馆",
        "longitude": 114.58730642067849,
        "latitude": 30.6554485895836
    },
    {
        "name": "鸿璟万壕大酒店",
        "longitude": 114.81595563740967,
        "latitude": 30.85361036358649
    },
    {
        "name": "馨来宾馆",
        "longitude": 114.5814094145396,
        "latitude": 30.667746427903687
    },
    {
        "name": "博雅",
        "longitude": 114.8156627813986,
        "latitude": 30.8348794264435
    },
    {
        "name": "九龙酒店",
        "longitude": 114.57672965896093,
        "latitude": 30.6629261714627
    },
    {
        "name": "文昌酒店",
        "longitude": 114.82471304315263,
        "latitude": 30.849987111207177
    },
    {
        "name": "如家住宿(武汉阳逻店)",
        "longitude": 114.56642960735597,
        "latitude": 30.70438663127569
    },
    {
        "name": "华南住宿",
        "longitude": 114.56642169296597,
        "latitude": 30.704449559989918
    },
    {
        "name": "新阳旅社",
        "longitude": 114.57990264078843,
        "latitude": 30.666098447169254
    },
    {
        "name": "海岸住宿",
        "longitude": 114.58004653017649,
        "latitude": 30.66628585349353
    },
    {
        "name": "转盘住宿",
        "longitude": 114.57796554280925,
        "latitude": 30.66273369282921
    },
    {
        "name": "阳城宾馆",
        "longitude": 114.58354951576324,
        "latitude": 30.65738156276326
    },
    {
        "name": "武汉艾仕嘉宾馆(阳逻店)",
        "longitude": 114.58548394096012,
        "latitude": 30.656316079625775
    },
    {
        "name": "武汉聚丰招待所",
        "longitude": 114.53815877132753,
        "latitude": 30.711174839440925
    },
    {
        "name": "武汉新洲健康出租屋",
        "longitude": 114.81730255551521,
        "latitude": 30.837844667113707
    },
    {
        "name": "新河旅馆",
        "longitude": 114.8197300185643,
        "latitude": 30.832458996633605
    },
    {
        "name": "99旅馆(下街店)",
        "longitude": 114.93582720310341,
        "latitude": 30.83603511923924
    },
    {
        "name": "新速8客舍",
        "longitude": 114.82439836492301,
        "latitude": 30.839185668899393
    },
    {
        "name": "武汉国凤酒店",
        "longitude": 114.80000565680618,
        "latitude": 30.987795492233094
    },
    {
        "name": "速8酒店(武汉阳逻金融街店)",
        "longitude": 114.59340211452407,
        "latitude": 30.656866577290003
    },
    {
        "name": "武汉好宜家居宾馆",
        "longitude": 114.8099761238164,
        "latitude": 30.847064771759513
    },
    {
        "name": "全成宾馆(文昌大道)",
        "longitude": 114.82392469581501,
        "latitude": 30.843167861306164
    },
    {
        "name": "武汉新洲御泉宾馆",
        "longitude": 114.81726423785916,
        "latitude": 30.837269583885323
    },
    {
        "name": "家园旅馆(武汉平江店)",
        "longitude": 114.56752566711992,
        "latitude": 30.659153137114775
    },
    {
        "name": "新区宾馆(武汉齐安大道店)",
        "longitude": 114.81569629918661,
        "latitude": 30.837696182663134
    },
    {
        "name": "枫情苑旅社",
        "longitude": 114.80557747140521,
        "latitude": 30.84675494304417
    },
    {
        "name": "东风宾馆(武汉云梦店)",
        "longitude": 114.80763581998161,
        "latitude": 30.834886622517605
    },
    {
        "name": "武汉新洲新大酒店客房部",
        "longitude": 114.81187606717796,
        "latitude": 30.844530606777383
    },
    {
        "name": "风华宾馆",
        "longitude": 114.81299761144423,
        "latitude": 30.850862822369223
    },
    {
        "name": "家园旅馆(平江大道)",
        "longitude": 114.57487880847931,
        "latitude": 30.665525009872265
    },
    {
        "name": "约定宾馆(举堤路)",
        "longitude": 114.80601008598003,
        "latitude": 30.846857013017765
    },
    {
        "name": "半岛花园酒店(平江大道店)",
        "longitude": 114.57375542754816,
        "latitude": 30.66666080357158
    },
    {
        "name": "武汉红光住宿",
        "longitude": 114.58239878542228,
        "latitude": 30.663903630453948
    },
    {
        "name": "武汉振源出租屋",
        "longitude": 114.57779863204895,
        "latitude": 30.662760922184166
    },
    {
        "name": "安鑫旅馆(平江大道)",
        "longitude": 114.57459052508406,
        "latitude": 30.665794315619074
    },
    {
        "name": "阳柳宾馆",
        "longitude": 114.57769995381287,
        "latitude": 30.66312735272929
    },
    {
        "name": "三A宾馆",
        "longitude": 114.57716114954736,
        "latitude": 30.663578476714427
    },
    {
        "name": "彩云住宿",
        "longitude": 114.57659258785529,
        "latitude": 30.664002103371615
    },
    {
        "name": "梅园宾馆(平江大道)",
        "longitude": 114.57567500576255,
        "latitude": 30.664861040229205
    },
    {
        "name": "惠佳旅社",
        "longitude": 114.5837238732576,
        "latitude": 30.656881187513147
    },
    {
        "name": "春来旅社(钟南街)",
        "longitude": 114.57651248709469,
        "latitude": 30.66032504347691
    },
    {
        "name": "聚福旅社(钟南街)",
        "longitude": 114.57664164203457,
        "latitude": 30.660294184141588
    },
    {
        "name": "小康旅社(香岗路)",
        "longitude": 114.57774357753385,
        "latitude": 30.6642963073111
    },
    {
        "name": "长城宾馆(平江大道)",
        "longitude": 114.57730513728657,
        "latitude": 30.6636268818596
    },
    {
        "name": "华兴宾馆(武汉汽渡路店)",
        "longitude": 114.57638375609537,
        "latitude": 30.659875813176942
    },
    {
        "name": "觅你时尚宾馆",
        "longitude": 114.5751061379746,
        "latitude": 30.6645825763872
    },
    {
        "name": "江山宾馆(平江大道)",
        "longitude": 114.57802543585107,
        "latitude": 30.663499839203713
    },
    {
        "name": "康泰住宿",
        "longitude": 114.57630678039622,
        "latitude": 30.661545870345766
    },
    {
        "name": "明生旅社",
        "longitude": 114.57421083007704,
        "latitude": 30.666105142050153
    },
    {
        "name": "振华旅社(阳光南路)",
        "longitude": 114.5756106488818,
        "latitude": 30.66027206757666
    },
    {
        "name": "振源旅馆",
        "longitude": 114.58185840975283,
        "latitude": 30.658048765920668
    },
    {
        "name": "阳光旅社(平江大道)",
        "longitude": 114.57664616200755,
        "latitude": 30.662991796054218
    },
    {
        "name": "豪骏宾馆",
        "longitude": 114.57567159284241,
        "latitude": 30.659867995060665
    },
    {
        "name": "黄冈旅社",
        "longitude": 114.5817143204554,
        "latitude": 30.658045437495975
    },
    {
        "name": "香岗旅社",
        "longitude": 114.5789927777398,
        "latitude": 30.66590837148393
    },
    {
        "name": "红超旅社",
        "longitude": 114.58144315188731,
        "latitude": 30.664588357080984
    },
    {
        "name": "金城旅馆(金融街)",
        "longitude": 114.58220893009916,
        "latitude": 30.663945594377104
    },
    {
        "name": "名人大酒店(军安道)",
        "longitude": 114.58682343254542,
        "latitude": 30.660933804724515
    },
    {
        "name": "铭豪快捷宾馆",
        "longitude": 114.58706490829479,
        "latitude": 30.662253545464857
    },
    {
        "name": "武汉爱情公寓生物工程学院店",
        "longitude": 114.5475185456336,
        "latitude": 30.71686400074058
    },
    {
        "name": "武汉鸿璟万壕酒店",
        "longitude": 114.81579945507539,
        "latitude": 30.84868480111543
    },
    {
        "name": "懿尚城酒店公寓",
        "longitude": 114.81996646625177,
        "latitude": 30.841662034287364
    },
    {
        "name": "武汉天鹅宾馆",
        "longitude": 114.59105194071967,
        "latitude": 30.67770991282573
    },
    {
        "name": "7天公寓(武汉生物工程学院店)",
        "longitude": 114.54418371643585,
        "latitude": 30.71370950419151
    },
    {
        "name": "海悦出租屋",
        "longitude": 114.80769811824884,
        "latitude": 30.84419300413207
    },
    {
        "name": "曹湖宾馆",
        "longitude": 114.83133927409382,
        "latitude": 30.777997485440284
    },
    {
        "name": "倾城宾馆(朝家山街)",
        "longitude": 114.58075758661995,
        "latitude": 30.667733804954274
    },
    {
        "name": "华丽旅馆",
        "longitude": 114.58627195075255,
        "latitude": 30.674730542472414
    },
    {
        "name": "君临大酒店",
        "longitude": 114.93443702054589,
        "latitude": 30.836887293719126
    },
    {
        "name": "新世纪酒楼",
        "longitude": 114.62970271344582,
        "latitude": 30.86546736993277
    },
    {
        "name": "飞浪宾馆",
        "longitude": 114.81503088338233,
        "latitude": 30.838765115293825
    },
    {
        "name": "车站招待所(齐安大道)",
        "longitude": 114.81512128781353,
        "latitude": 30.83877860826672
    },
    {
        "name": "醉人归旅社",
        "longitude": 114.81557382851913,
        "latitude": 30.844003262781033
    },
    {
        "name": "宜居轩旅馆",
        "longitude": 114.8248612874724,
        "latitude": 30.847424174361564
    },
    {
        "name": "礼馨宾馆",
        "longitude": 114.81292068241896,
        "latitude": 30.835440099918834
    },
    {
        "name": "馨安宾馆",
        "longitude": 114.82514929845868,
        "latitude": 30.832676554845275
    },
    {
        "name": "华海宾馆(文昌大道)",
        "longitude": 114.82286045214822,
        "latitude": 30.83293965590057
    },
    {
        "name": "聚缘居宾馆",
        "longitude": 114.81994594440606,
        "latitude": 30.843814457878832
    },
    {
        "name": "恒源宾馆(古衡路)",
        "longitude": 114.82236080065024,
        "latitude": 30.832979995683015
    },
    {
        "name": "文昌旅馆",
        "longitude": 114.82371444899096,
        "latitude": 30.8378374112208
    },
    {
        "name": "普罗旺斯花园酒店(新洲店)",
        "longitude": 114.81290071572188,
        "latitude": 30.830788248492144
    },
    {
        "name": "家福客栈",
        "longitude": 114.81490331630582,
        "latitude": 30.83197375637864
    },
    {
        "name": "新怡宾馆(红旗街)",
        "longitude": 114.81559069246475,
        "latitude": 30.844892266855172
    },
    {
        "name": "舒馨宾馆",
        "longitude": 114.82353589160557,
        "latitude": 30.83394468635648
    },
    {
        "name": "恒州商务宾馆",
        "longitude": 114.82404669307293,
        "latitude": 30.836235116165643
    },
    {
        "name": "如家旅馆(商发街)",
        "longitude": 114.71840225081634,
        "latitude": 30.784111467117274
    },
    {
        "name": "红玫瑰宾馆(举堤路)",
        "longitude": 114.80589686235898,
        "latitude": 30.846965526806883
    },
    {
        "name": "景江假日酒店",
        "longitude": 114.80603405265589,
        "latitude": 30.841483944059608
    },
    {
        "name": "柏林宾馆",
        "longitude": 114.85379497888536,
        "latitude": 30.82448957602061
    },
    {
        "name": "新鑫旅社(合作路)",
        "longitude": 114.80686773935189,
        "latitude": 30.84748765861267
    },
    {
        "name": "常兴旅馆(双拥路)",
        "longitude": 114.81262545375046,
        "latitude": 30.836288996936133
    },
    {
        "name": "国秀宾馆",
        "longitude": 114.83545075984217,
        "latitude": 30.831462145675193
    },
    {
        "name": "煜隆酒店",
        "longitude": 114.81488622208381,
        "latitude": 30.830490376939945
    },
    {
        "name": "宝都酒店",
        "longitude": 114.80702670218653,
        "latitude": 30.831774392522384
    },
    {
        "name": "天恒宾馆",
        "longitude": 114.544313555348,
        "latitude": 30.713917031780433
    },
    {
        "name": "心愿招待所",
        "longitude": 114.54444416411398,
        "latitude": 30.714953168028302
    },
    {
        "name": "怡园住宿",
        "longitude": 114.60460406161239,
        "latitude": 30.70512721240587
    },
    {
        "name": "汉驿旅店(汉施路辅路)",
        "longitude": 114.5382662311936,
        "latitude": 30.711907237675476
    },
    {
        "name": "友佳旅社",
        "longitude": 114.71750327193479,
        "latitude": 30.78340898811268
    },
    {
        "name": "如家出租屋(南安街)",
        "longitude": 114.80929696635711,
        "latitude": 30.843026015097557
    },
    {
        "name": "粤港宾馆",
        "longitude": 114.81628082273033,
        "latitude": 30.853017227333964
    },
    {
        "name": "7天酒店(武汉新洲人民广场店)",
        "longitude": 114.80591709979937,
        "latitude": 30.829087700120905
    },
    {
        "name": "红人酒店",
        "longitude": 114.80924308814106,
        "latitude": 30.93062071277735
    },
    {
        "name": "盛世大酒店(双拥路)",
        "longitude": 114.81277227972186,
        "latitude": 30.830428909290905
    },
    {
        "name": "信合酒店",
        "longitude": 114.77059483739849,
        "latitude": 30.928748463243704
    },
    {
        "name": "中意住宿",
        "longitude": 114.61402633178888,
        "latitude": 30.835234822098727
    },
    {
        "name": "潇湘阁旅社",
        "longitude": 114.71663509956694,
        "latitude": 30.78196891704294
    },
    {
        "name": "虹景天酒店",
        "longitude": 114.70479282964521,
        "latitude": 30.770366402011735
    },
    {
        "name": "水云轩商务大酒店",
        "longitude": 114.61744302812625,
        "latitude": 30.833511716487095
    },
    {
        "name": "周全商务宾馆",
        "longitude": 114.57198781657914,
        "latitude": 30.669598876376796
    },
    {
        "name": "鑫玉住宿",
        "longitude": 114.56642967159453,
        "latitude": 30.70450870454308
    },
    {
        "name": "王姐酒店",
        "longitude": 114.67975596015975,
        "latitude": 30.59461897698979
    },
    {
        "name": "天港宾馆",
        "longitude": 114.57619079204498,
        "latitude": 30.663478325208285
    },
    {
        "name": "港城住宿",
        "longitude": 114.57700894197336,
        "latitude": 30.663827993365405
    },
    {
        "name": "7天酒店(武汉阳逻店)",
        "longitude": 114.58002873374544,
        "latitude": 30.660774476680658
    },
    {
        "name": "武汉四季欣商务宾馆",
        "longitude": 114.82102670112799,
        "latitude": 30.832957087890403
    },
    {
        "name": "凯莱大酒店",
        "longitude": 114.58628875462361,
        "latitude": 30.655820937067112
    },
    {
        "name": "武汉华丽宾馆",
        "longitude": 114.57355288902441,
        "latitude": 30.656544467016186
    },
    {
        "name": "武汉顺心旅社",
        "longitude": 114.5878621334191,
        "latitude": 30.67030041356638
    },
    {
        "name": "雅园宾馆(平江大道)",
        "longitude": 114.57525029229498,
        "latitude": 30.664435929081208
    },
    {
        "name": "安居出租屋",
        "longitude": 114.80935768669664,
        "latitude": 30.843119019105778
    },
    {
        "name": "武汉阳光890招待所",
        "longitude": 114.5438352288761,
        "latitude": 30.71541047263695
    },
    {
        "name": "泰安出租屋",
        "longitude": 114.81580753176057,
        "latitude": 30.84972378275057
    },
    {
        "name": "鑫天缘住宿",
        "longitude": 114.58071190211534,
        "latitude": 30.667710053065996
    },
    {
        "name": "武汉天安住宿",
        "longitude": 114.54600692973854,
        "latitude": 30.71830963224216
    },
    {
        "name": "武汉华英招待所",
        "longitude": 114.5477509070305,
        "latitude": 30.720877647320258
    },
    {
        "name": "武汉春发旅馆",
        "longitude": 114.54442221642728,
        "latitude": 30.715986019618203
    },
    {
        "name": "武汉雲来出租屋",
        "longitude": 114.54012795716677,
        "latitude": 30.71494478216251
    },
    {
        "name": "武汉南厢出租屋",
        "longitude": 114.54644607700196,
        "latitude": 30.716852290196787
    },
    {
        "name": "武汉乡间住宿",
        "longitude": 114.54706313165302,
        "latitude": 30.708956301896894
    },
    {
        "name": "武汉鑫隆出租屋",
        "longitude": 114.54717723599038,
        "latitude": 30.709601501278826
    },
    {
        "name": "新缘住宿(武汉阳逻店)",
        "longitude": 114.55019055928412,
        "latitude": 30.72066694025686
    },
    {
        "name": "武汉鑫安招待所",
        "longitude": 114.5446126843419,
        "latitude": 30.715979153409783
    },
    {
        "name": "武汉百信住宿部",
        "longitude": 114.81732548722565,
        "latitude": 30.837931111541753
    },
    {
        "name": "武汉馨伊莱酒店公寓",
        "longitude": 114.5858788860525,
        "latitude": 30.672732291123395
    },
    {
        "name": "新城旅社",
        "longitude": 114.58222558605152,
        "latitude": 30.70814998778483
    },
    {
        "name": "武汉加洲旅馆",
        "longitude": 114.54701562894518,
        "latitude": 30.716247487848552
    },
    {
        "name": "武汉他她公寓",
        "longitude": 114.54687374775366,
        "latitude": 30.710252573974657
    },
    {
        "name": "武汉如意出租屋",
        "longitude": 114.75057222541099,
        "latitude": 30.98009342599171
    },
    {
        "name": "武汉玉宫公寓",
        "longitude": 114.8147562820885,
        "latitude": 30.84485555409829
    },
    {
        "name": "武汉兴楚旅社",
        "longitude": 114.53818191215309,
        "latitude": 30.71138474465082
    },
    {
        "name": "武汉福春旅社",
        "longitude": 114.56635268653031,
        "latitude": 30.701198756548862
    },
    {
        "name": "如家住宿(武汉阳逻店)",
        "longitude": 114.56383660504616,
        "latitude": 30.702648910571348
    },
    {
        "name": "武汉同院住宿",
        "longitude": 114.56379896270722,
        "latitude": 30.70291160077862
    },
    {
        "name": "武汉平宏出租屋",
        "longitude": 114.56413975463781,
        "latitude": 30.702833753659885
    },
    {
        "name": "武汉黄冈旅社",
        "longitude": 114.57420442285964,
        "latitude": 30.665517922248988
    },
    {
        "name": "武汉青松旅社",
        "longitude": 114.5642006046397,
        "latitude": 30.70334780685554
    },
    {
        "name": "武汉天立酒店",
        "longitude": 115.00117183791295,
        "latitude": 30.879543791003584
    },
    {
        "name": "硚口政府度假村",
        "longitude": 115.01420308064652,
        "latitude": 30.876927458894393
    },
    {
        "name": "武汉君安住宿",
        "longitude": 114.54428377944458,
        "latitude": 30.715141052586137
    },
    {
        "name": "武汉快乐时空旅馆",
        "longitude": 114.54493096136339,
        "latitude": 30.715120167654405
    },
    {
        "name": "时信宾馆",
        "longitude": 114.54600337378052,
        "latitude": 30.714692992110344
    },
    {
        "name": "武汉心愿住宿",
        "longitude": 114.5473821186708,
        "latitude": 30.709034746322995
    },
    {
        "name": "武汉深蓝住宿",
        "longitude": 114.5468728113829,
        "latitude": 30.70902575704838
    },
    {
        "name": "情缘居旅社",
        "longitude": 114.54491663356401,
        "latitude": 30.71577770431335
    },
    {
        "name": "祥瑞宾馆",
        "longitude": 114.80533849647435,
        "latitude": 30.82625073082441
    },
    {
        "name": "武汉仙缘招待所",
        "longitude": 114.55041224598526,
        "latitude": 30.72213328386197
    },
    {
        "name": "武汉随缘出租屋",
        "longitude": 114.54713060868457,
        "latitude": 30.716614520271463
    },
    {
        "name": "武汉雅雅出租屋",
        "longitude": 114.56376848006323,
        "latitude": 30.703594623967547
    },
    {
        "name": "武汉校园出租公寓",
        "longitude": 114.54717723599038,
        "latitude": 30.709601501278826
    },
    {
        "name": "武汉三星招待所",
        "longitude": 114.54424882730333,
        "latitude": 30.709252119244955
    },
    {
        "name": "便民旅社",
        "longitude": 114.7185997479443,
        "latitude": 30.78459032234155
    },
    {
        "name": "武汉诚羲商务酒店",
        "longitude": 114.65622607120989,
        "latitude": 30.593876626140542
    },
    {
        "name": "粮贸住宿",
        "longitude": 114.93629977324223,
        "latitude": 30.837308163034166
    },
    {
        "name": "武汉四方缘旅社",
        "longitude": 114.66243477642135,
        "latitude": 30.5932685358769
    },
    {
        "name": "武汉汪集招待所",
        "longitude": 114.71681744187698,
        "latitude": 30.782560957004527
    },
    {
        "name": "武汉先阁旅店",
        "longitude": 114.71876040985816,
        "latitude": 30.784908786162244
    },
    {
        "name": "武汉欢迎住宿",
        "longitude": 114.81618288649604,
        "latitude": 30.839526633333247
    },
    {
        "name": "凤凰住宿(武汉凤凰街店)",
        "longitude": 114.7698062745505,
        "latitude": 30.92857830784128
    },
    {
        "name": "武汉富贵阁住宿",
        "longitude": 114.66177580629278,
        "latitude": 30.592120464672522
    },
    {
        "name": "武汉震鑫宾馆",
        "longitude": 114.65977560536615,
        "latitude": 30.588782894114264
    },
    {
        "name": "武汉正源宾馆",
        "longitude": 114.61475133170184,
        "latitude": 30.834710291017164
    },
    {
        "name": "武汉三角住宿",
        "longitude": 114.61618603007553,
        "latitude": 30.839186540199666
    },
    {
        "name": "武汉东方旅馆",
        "longitude": 114.54459068697595,
        "latitude": 30.716933952156648
    },
    {
        "name": "武汉长期客栈",
        "longitude": 114.53854012096922,
        "latitude": 30.711050859963358
    },
    {
        "name": "新缘住宿",
        "longitude": 114.54681197804078,
        "latitude": 30.70898186629504
    },
    {
        "name": "福星宾馆",
        "longitude": 114.83898288640594,
        "latitude": 30.83087852957801
    },
    {
        "name": "武汉石化招待所",
        "longitude": 114.61752649432033,
        "latitude": 30.840943942196645
    },
    {
        "name": "武汉邾城旅馆",
        "longitude": 114.81498535904564,
        "latitude": 30.838928499638058
    },
    {
        "name": "豪吉宾馆",
        "longitude": 114.81619582189528,
        "latitude": 30.836596518272966
    },
    {
        "name": "武汉唐山旅馆",
        "longitude": 114.91798023630882,
        "latitude": 30.87262662754359
    },
    {
        "name": "武汉万客隆时尚旅馆",
        "longitude": 114.54687282247795,
        "latitude": 30.70904076693952
    },
    {
        "name": "2099主题酒店",
        "longitude": 114.81292209524241,
        "latitude": 30.84445435768613
    },
    {
        "name": "龙凤宾馆",
        "longitude": 114.82191741925521,
        "latitude": 30.836911146055666
    },
    {
        "name": "虹景酒店(古城大道)",
        "longitude": 114.80994417671619,
        "latitude": 30.829857677460335
    },
    {
        "name": "武汉车站住宿(仓埠街店)",
        "longitude": 114.61609609930147,
        "latitude": 30.840443337965706
    },
    {
        "name": "恋巢主题宾馆(生物学院店)",
        "longitude": 114.5385262343438,
        "latitude": 30.712350903834142
    },
    {
        "name": "汪思住宿",
        "longitude": 114.57647505239288,
        "latitude": 30.659973350032136
    },
    {
        "name": "武汉嘉丽住宿",
        "longitude": 114.58008421015879,
        "latitude": 30.666366489369977
    },
    {
        "name": "凤翔宾馆(江夏大道)",
        "longitude": 114.82781974964747,
        "latitude": 30.856064276602474
    },
    {
        "name": "红红旅社",
        "longitude": 114.71645952741345,
        "latitude": 30.781629989865472
    },
    {
        "name": "祥云宾馆",
        "longitude": 114.68036554115167,
        "latitude": 30.594844425007086
    },
    {
        "name": "宏泰宾馆(商发街)",
        "longitude": 114.7175949848089,
        "latitude": 30.782579637128464
    },
    {
        "name": "永安旅社(小巷)",
        "longitude": 114.56827017449197,
        "latitude": 30.65740852009971
    },
    {
        "name": "聚友宾馆(齐安大道)",
        "longitude": 114.81628257503746,
        "latitude": 30.847221536800408
    },
    {
        "name": "联盛旅社",
        "longitude": 114.57743407887132,
        "latitude": 30.663835067995738
    },
    {
        "name": "长虹大酒店",
        "longitude": 114.99557093541127,
        "latitude": 30.880249528918757
    },
    {
        "name": "武汉邾城花园宾馆",
        "longitude": 114.81070943561369,
        "latitude": 30.837784669575758
    },
    {
        "name": "惠民住宿",
        "longitude": 114.68029655783181,
        "latitude": 30.594782433573535
    },
    {
        "name": "天一快捷宾馆(阳逻武湖店)",
        "longitude": 114.54510518966029,
        "latitude": 30.714833256667557
    },
    {
        "name": "随缘旅馆",
        "longitude": 114.58914160204809,
        "latitude": 30.66479880578736
    },
    {
        "name": "九九隆酒店",
        "longitude": 114.80700662315364,
        "latitude": 30.93152695989255
    },
    {
        "name": "武汉如家出租屋",
        "longitude": 114.5813901411408,
        "latitude": 30.655891718472148
    },
    {
        "name": "武汉乡间住宿",
        "longitude": 114.5813901411408,
        "latitude": 30.655891718472148
    },
    {
        "name": "周记住宿",
        "longitude": 114.57519760546835,
        "latitude": 30.66448506806575
    },
    {
        "name": "武汉投缘居出租屋",
        "longitude": 114.54560852316219,
        "latitude": 30.71568700603656
    },
    {
        "name": "周记旅社",
        "longitude": 114.63553689794134,
        "latitude": 30.873074028737435
    },
    {
        "name": "福顺住宿",
        "longitude": 114.57458979584227,
        "latitude": 30.657749694200135
    },
    {
        "name": "惠民旅社(齐安大道)",
        "longitude": 114.81634340920411,
        "latitude": 30.84744571954625
    },
    {
        "name": "森森旅社",
        "longitude": 114.81620589962816,
        "latitude": 30.846137389013332
    },
    {
        "name": "倾城宾馆(平江大道)",
        "longitude": 114.57652402703661,
        "latitude": 30.664027968792364
    },
    {
        "name": "永安旅社(军安北路)",
        "longitude": 114.58443704926455,
        "latitude": 30.657552407374208
    },
    {
        "name": "军民宾馆(军安北路)",
        "longitude": 114.58842230563012,
        "latitude": 30.66371487979766
    },
    {
        "name": "城市便捷酒店(阳逻阳光大道店)",
        "longitude": 114.5839465008176,
        "latitude": 30.671262545825858
    },
    {
        "name": "民生住宿",
        "longitude": 114.81632843888701,
        "latitude": 30.847380420194924
    },
    {
        "name": "欧喜得精品酒店",
        "longitude": 114.61563525620831,
        "latitude": 30.838776756976376
    },
    {
        "name": "武汉小田园酒楼住宿",
        "longitude": 114.99922550678644,
        "latitude": 30.880461831877412
    },
    {
        "name": "商厦宾馆(阳光购物中心南)",
        "longitude": 114.5779056256502,
        "latitude": 30.66198854925952
    },
    {
        "name": "天地三五酒店",
        "longitude": 114.81196985734516,
        "latitude": 30.846709891996724
    },
    {
        "name": "天地世纪宾馆",
        "longitude": 114.81423691122396,
        "latitude": 30.847703393541728
    },
    {
        "name": "武汉新洲新大酒店",
        "longitude": 114.81190861344628,
        "latitude": 30.846125433714082
    },
    {
        "name": "太公武酒店",
        "longitude": 114.58465742297555,
        "latitude": 30.656731619114247
    },
    {
        "name": "陆斯酒店",
        "longitude": 114.81039439466434,
        "latitude": 30.84791797487427
    },
    {
        "name": "新佳宾馆",
        "longitude": 114.54488563851783,
        "latitude": 30.715691770421934
    },
    {
        "name": "汉驿连锁旅店(武汉生物工程学院店)",
        "longitude": 114.53919598194831,
        "latitude": 30.712096186511715
    },
    {
        "name": "万达旅业",
        "longitude": 114.8088479852844,
        "latitude": 30.833367515376292
    },
    {
        "name": "金城宾馆",
        "longitude": 114.80554392431864,
        "latitude": 30.83671433172841
    },
    {
        "name": "芜湖街道紫轩雅苑",
        "longitude": 114.54267505878381,
        "latitude": 30.71085689642585
    },
    {
        "name": "佳怡宾馆",
        "longitude": 114.82448648617711,
        "latitude": 30.836904153659418
    },
    {
        "name": "恒鑫住宿",
        "longitude": 114.58001127656492,
        "latitude": 30.65423778591775
    },
    {
        "name": "金叶大酒店(汽发街)",
        "longitude": 114.5792850084219,
        "latitude": 30.66142032957522
    },
    {
        "name": "东方宾馆(平江大道)",
        "longitude": 114.57792052779375,
        "latitude": 30.661986796748327
    },
    {
        "name": "法苑客舍",
        "longitude": 114.81084426453266,
        "latitude": 30.83647975745631
    },
    {
        "name": "衡州大酒店",
        "longitude": 114.80671214677146,
        "latitude": 30.836743709911442
    },
    {
        "name": "金源旅社",
        "longitude": 114.58517360689711,
        "latitude": 30.65647743210533
    },
    {
        "name": "四季香大酒店",
        "longitude": 114.57794761713016,
        "latitude": 30.657105243900638
    },
    {
        "name": "天鹅宾馆(金融街)",
        "longitude": 114.57859991894311,
        "latitude": 30.665324741109266
    },
    {
        "name": "夏威夷大酒店",
        "longitude": 114.80747686389202,
        "latitude": 30.931124571240307
    },
    {
        "name": "红四方宾馆",
        "longitude": 114.81288302820714,
        "latitude": 30.83657137580903
    },
    {
        "name": "华威招待所",
        "longitude": 114.57814435837517,
        "latitude": 30.657041501281327
    },
    {
        "name": "新宏宾馆",
        "longitude": 114.8167639503133,
        "latitude": 30.83657783234678
    },
    {
        "name": "阳光宾馆(平江大道)",
        "longitude": 114.57733458712022,
        "latitude": 30.664006446135847
    },
    {
        "name": "武汉新洲新大酒店",
        "longitude": 114.8118531998375,
        "latitude": 30.844515228992694
    },
    {
        "name": "新科出租屋",
        "longitude": 114.81545651828445,
        "latitude": 30.833055644166286
    },
    {
        "name": "斯味特大酒店",
        "longitude": 114.58009732869623,
        "latitude": 30.66072959655549
    },
    {
        "name": "武汉广电道观河度假村",
        "longitude": 115.02646437171973,
        "latitude": 30.870784301298162
    },
    {
        "name": "聚香居商务宾馆",
        "longitude": 114.57325521216445,
        "latitude": 30.66734880174584
    },
    {
        "name": "杏花酒店",
        "longitude": 114.56241064205774,
        "latitude": 30.70284423050557
    },
    {
        "name": "沁园春大酒店(政通路)",
        "longitude": 114.81957270378602,
        "latitude": 30.841262371701028
    },
    {
        "name": "永安旅馆(永安大道)",
        "longitude": 114.8202483851074,
        "latitude": 30.84972214667448
    },
    {
        "name": "方圆住宿(汽发街)",
        "longitude": 114.57952122634254,
        "latitude": 30.660569064820635
    },
    {
        "name": "圣都宾馆(衡州大街)",
        "longitude": 114.81664972953722,
        "latitude": 30.836581960576417
    },
    {
        "name": "森鑫宾馆(衡州大街)",
        "longitude": 114.81622543140487,
        "latitude": 30.83640285259214
    },
    {
        "name": "康洁住宿",
        "longitude": 114.81871863858152,
        "latitude": 30.836544769852267
    },
    {
        "name": "三红酒店",
        "longitude": 114.58156565929949,
        "latitude": 30.708007261181955
    },
    {
        "name": "龙腾宾馆(龙腾大道店)",
        "longitude": 114.81621327407973,
        "latitude": 30.831741082218635
    },
    {
        "name": "金鑫宾馆(文昌大道)",
        "longitude": 114.82345161236701,
        "latitude": 30.833005699139772
    },
    {
        "name": "长城宾馆(古衡路)",
        "longitude": 114.82137541489104,
        "latitude": 30.83301964161704
    },
    {
        "name": "章林宾馆",
        "longitude": 114.81037370177744,
        "latitude": 30.835880914063797
    },
    {
        "name": "怡安宾馆",
        "longitude": 114.8211801627778,
        "latitude": 30.842479039007017
    },
    {
        "name": "龙鑫宾馆(人民路)",
        "longitude": 114.80725831979105,
        "latitude": 30.837173909335647
    },
    {
        "name": "龙丘大酒店",
        "longitude": 114.794532261543,
        "latitude": 30.92585656277425
    },
    {
        "name": "新港国际大酒店",
        "longitude": 114.58159496040876,
        "latitude": 30.70723124846909
    },
    {
        "name": "新洲服务区住宿",
        "longitude": 114.9172515314001,
        "latitude": 30.955917426208273
    },
    {
        "name": "新洲服务区住宿",
        "longitude": 114.91491484551273,
        "latitude": 30.956431408742493
    },
    {
        "name": "太平洋宾馆(古州路)",
        "longitude": 114.81111192513565,
        "latitude": 30.838844853578003
    },
    {
        "name": "馨怡宾馆(衡州大街)",
        "longitude": 114.8244258207088,
        "latitude": 30.83684421271879
    },
    {
        "name": "和家顺宾馆",
        "longitude": 114.81246373252621,
        "latitude": 30.833308088721726
    },
    {
        "name": "吉祥宾馆(南安街)",
        "longitude": 114.8086828224986,
        "latitude": 30.843048717499446
    },
    {
        "name": "星梦缘宾馆",
        "longitude": 114.80713344135273,
        "latitude": 30.840433712310997
    },
    {
        "name": "欣云宾馆(衡州大街)",
        "longitude": 114.81678720871942,
        "latitude": 30.83699954582153
    },
    {
        "name": "育英招待所",
        "longitude": 114.82620633567569,
        "latitude": 30.849836354872327
    },
    {
        "name": "鄂东宾馆",
        "longitude": 114.8119918423539,
        "latitude": 30.8309677606328
    },
    {
        "name": "逢原商务酒店",
        "longitude": 114.81431697282916,
        "latitude": 30.84461817345928
    },
    {
        "name": "林祥源宾馆",
        "longitude": 114.80664597186274,
        "latitude": 30.84559993957187
    },
    {
        "name": "成红宾馆",
        "longitude": 114.81434548815052,
        "latitude": 30.835757520123757
    },
    {
        "name": "永昌宾馆",
        "longitude": 114.82020991107959,
        "latitude": 30.849046978739914
    },
    {
        "name": "武汉新区宾馆(衡州大道店)",
        "longitude": 114.81686227852641,
        "latitude": 30.836573442704292
    },
    {
        "name": "馨丽宾馆(举堤路)",
        "longitude": 114.80584249060159,
        "latitude": 30.84634326086568
    },
    {
        "name": "恒兴宾馆(衡州大街)",
        "longitude": 114.81371723469233,
        "latitude": 30.83631770962801
    },
    {
        "name": "辉煌宾馆(衡州大街)",
        "longitude": 114.81333807067685,
        "latitude": 30.836633794728126
    },
    {
        "name": "祥云宾馆(衡州大街)",
        "longitude": 114.81230789244437,
        "latitude": 30.83664216474907
    },
    {
        "name": "百世恒酒店",
        "longitude": 114.81598813502046,
        "latitude": 30.855320261898225
    },
    {
        "name": "华兴宾馆",
        "longitude": 114.81322007996039,
        "latitude": 30.831380857652782
    },
    {
        "name": "振兴宾馆(双拥路)",
        "longitude": 114.8123638466176,
        "latitude": 30.831512130364064
    },
    {
        "name": "君悦宾馆(武汉凤凰街店)",
        "longitude": 114.81609305706986,
        "latitude": 30.840061587951467
    },
    {
        "name": "飞越宾馆(古城大道)",
        "longitude": 114.81088494077356,
        "latitude": 30.839372696694944
    },
    {
        "name": "上圆宾馆",
        "longitude": 114.81796020266323,
        "latitude": 30.849990304756236
    },
    {
        "name": "武汉金鹤宾馆(衡州大道店)",
        "longitude": 114.81629414236848,
        "latitude": 30.83658312250642
    },
    {
        "name": "嘉源宾馆(武汉衡州大道店)",
        "longitude": 114.81644511527584,
        "latitude": 30.836579599064148
    },
    {
        "name": "辉望宾馆(武汉新洲文昌大道店)",
        "longitude": 114.82395741353675,
        "latitude": 30.845839538687756
    },
    {
        "name": "宏昌宾馆(人民路)",
        "longitude": 114.80693392884147,
        "latitude": 30.830138845262844
    },
    {
        "name": "声雅大酒店",
        "longitude": 114.81079628423468,
        "latitude": 30.83407013032235
    },
    {
        "name": "佳源宾馆",
        "longitude": 114.81412876477053,
        "latitude": 30.831065410447877
    },
    {
        "name": "新星宾馆(齐安大道)",
        "longitude": 114.81534163506078,
        "latitude": 30.831093289070477
    },
    {
        "name": "新区旅馆",
        "longitude": 114.8130658798011,
        "latitude": 30.836635383841177
    },
    {
        "name": "大鸿图酒店旅社",
        "longitude": 114.63490028727006,
        "latitude": 30.873581058656264
    },
    {
        "name": "宏伟酒店",
        "longitude": 114.77004357977965,
        "latitude": 30.930735050055613
    },
    {
        "name": "梅园酒店(徐古大道店)",
        "longitude": 114.99023472935491,
        "latitude": 30.9482610095304
    },
    {
        "name": "建安大酒店",
        "longitude": 114.81947366015442,
        "latitude": 30.84791721123134
    },
    {
        "name": "鹰迪宾馆",
        "longitude": 115.00021799680796,
        "latitude": 30.878239008989905
    },
    {
        "name": "锦程商务宾馆(平江大道)",
        "longitude": 114.57537952019284,
        "latitude": 30.664320043067338
    },
    {
        "name": "帝豪宾馆(高新街)",
        "longitude": 114.58443127158239,
        "latitude": 30.671637133552995
    },
    {
        "name": "君安酒店",
        "longitude": 114.58116391161184,
        "latitude": 30.707539446413353
    },
    {
        "name": "李集宾馆",
        "longitude": 114.68692434238297,
        "latitude": 30.873329232499497
    },
    {
        "name": "鑫华旅社(平江大道)",
        "longitude": 114.56633789817283,
        "latitude": 30.701501721441595
    },
    {
        "name": "振兴宾馆(武汉潘塘街店)",
        "longitude": 114.90128039725954,
        "latitude": 31.004067566864634
    },
    {
        "name": "光明酒店(旅游大道)",
        "longitude": 114.99445561414021,
        "latitude": 30.880426364279757
    },
    {
        "name": "鑫源宾馆(广场街)",
        "longitude": 114.80935581269836,
        "latitude": 30.83336824091991
    },
    {
        "name": "富华宾馆(云梦街)",
        "longitude": 114.82145237644524,
        "latitude": 30.834661107285758
    },
    {
        "name": "万盛宾馆(章林路)",
        "longitude": 114.80340491292651,
        "latitude": 30.82883920813749
    },
    {
        "name": "龙城宾馆(龙城华庭大街)",
        "longitude": 114.82489440212281,
        "latitude": 30.843171167857328
    },
    {
        "name": "玲珑宾馆",
        "longitude": 114.81694151859281,
        "latitude": 30.831959201730903
    },
    {
        "name": "联谊宾馆(商发街)",
        "longitude": 114.71786938368096,
        "latitude": 30.783099363514726
    },
    {
        "name": "盛鸿大酒店",
        "longitude": 114.71688655743719,
        "latitude": 30.782385611672016
    },
    {
        "name": "枫林晚宾馆",
        "longitude": 114.81517222532598,
        "latitude": 30.836066299054014
    },
    {
        "name": "中泊宾馆",
        "longitude": 114.81250459371613,
        "latitude": 30.83663832446421
    },
    {
        "name": "艾仕丽宾馆(阳逻精品店)",
        "longitude": 114.5784858245035,
        "latitude": 30.665164815482477
    },
    {
        "name": "金德宾馆(金融街)",
        "longitude": 114.58166350071578,
        "latitude": 30.663789771604133
    },
    {
        "name": "好再来住宿(平江大道)",
        "longitude": 114.57518898852871,
        "latitude": 30.665209067053624
    },
    {
        "name": "艾雅宾馆",
        "longitude": 114.58341528956721,
        "latitude": 30.6630836102393
    },
    {
        "name": "品尚快捷宾馆",
        "longitude": 114.57513696466772,
        "latitude": 30.664543077719383
    },
    {
        "name": "新源宾馆(平江大道)",
        "longitude": 114.57663844012399,
        "latitude": 30.663827831554695
    },
    {
        "name": "华晨住宿",
        "longitude": 114.57919510110383,
        "latitude": 30.660863730210643
    },
    {
        "name": "四方缘酒店",
        "longitude": 114.61641144373364,
        "latitude": 30.752304873886487
    },
    {
        "name": "福馨旅社",
        "longitude": 114.8054265527902,
        "latitude": 30.84695203846123
    },
    {
        "name": "景福瑞假日酒店",
        "longitude": 114.81682065420223,
        "latitude": 30.86372433561492
    },
    {
        "name": "凉亭宾馆",
        "longitude": 114.62585827338656,
        "latitude": 30.779841931271868
    },
    {
        "name": "勇春住宿",
        "longitude": 114.80562314252076,
        "latitude": 30.846694521001318
    },
    {
        "name": "百仕德酒店",
        "longitude": 114.58632280709234,
        "latitude": 30.660276374907443
    },
    {
        "name": "福源旅馆(新洲大街)",
        "longitude": 114.82494512527757,
        "latitude": 30.847768677321994
    },
    {
        "name": "聚缘宾馆(气象路)",
        "longitude": 114.81535499813438,
        "latitude": 30.829087044753294
    },
    {
        "name": "天香宾馆",
        "longitude": 114.81802579847556,
        "latitude": 30.832713525432155
    },
    {
        "name": "金香",
        "longitude": 114.82072376810261,
        "latitude": 30.832990305752965
    },
    {
        "name": "梦缘宾馆(古衡路)",
        "longitude": 114.82126912803145,
        "latitude": 30.83301996675623
    },
    {
        "name": "锦绣天堂大酒店",
        "longitude": 114.80804514025667,
        "latitude": 30.848857952299305
    },
    {
        "name": "琴怡宾馆",
        "longitude": 114.81295929565428,
        "latitude": 30.836339426752883
    },
    {
        "name": "东风宾馆(武汉云梦店)",
        "longitude": 114.8146566740753,
        "latitude": 30.83604283294143
    },
    {
        "name": "满缘红宾馆",
        "longitude": 114.82136096438681,
        "latitude": 30.833532803783562
    },
    {
        "name": "桃源宾馆(衡州大道店)",
        "longitude": 114.81655139610322,
        "latitude": 30.836581345616395
    },
    {
        "name": "诚义商务酒店",
        "longitude": 114.65595007479422,
        "latitude": 30.594067883163152
    },
    {
        "name": "陶石钓鱼台",
        "longitude": 114.81076744861151,
        "latitude": 30.867934157486687
    },
    {
        "name": "衡洲宾馆",
        "longitude": 114.80549125300779,
        "latitude": 30.836741631328284
    },
    {
        "name": "武汉金鹤宾馆(齐安大道店)",
        "longitude": 114.81497081015723,
        "latitude": 30.83926853334121
    },
    {
        "name": "万欣商务酒店",
        "longitude": 114.82482344311795,
        "latitude": 30.832732868500905
    },
    {
        "name": "桂花山庄",
        "longitude": 114.73297592552986,
        "latitude": 30.835437292328436
    },
    {
        "name": "湘江花园酒店",
        "longitude": 114.57849201853506,
        "latitude": 30.667052288244758
    },
    {
        "name": "林特宾馆",
        "longitude": 114.81564390397031,
        "latitude": 30.845410564829017
    },
    {
        "name": "朋来旅馆(平江大道)",
        "longitude": 114.57538677845672,
        "latitude": 30.665062308054942
    },
    {
        "name": "府南旅馆",
        "longitude": 114.81674613321094,
        "latitude": 30.84147545395051
    },
    {
        "name": "新世界嘉源宾馆",
        "longitude": 114.81368287863242,
        "latitude": 30.84703181054605
    },
    {
        "name": "邾城花园公寓",
        "longitude": 114.81493959207398,
        "latitude": 30.83885569137392
    },
    {
        "name": "天浪宾馆",
        "longitude": 114.81628267683573,
        "latitude": 30.847314614745844
    },
    {
        "name": "康宏旅馆",
        "longitude": 114.8098425239613,
        "latitude": 30.84302539546668
    },
    {
        "name": "瑞福祥宾馆",
        "longitude": 114.81254717590865,
        "latitude": 30.833300426154207
    },
    {
        "name": "施岗服务区-宾馆",
        "longitude": 114.59669863349764,
        "latitude": 30.69537309610422
    },
    {
        "name": "梦你香旅社",
        "longitude": 114.57594809982312,
        "latitude": 30.663842368622007
    },
    {
        "name": "天浩旅社",
        "longitude": 114.57642886985423,
        "latitude": 30.66052969522061
    },
    {
        "name": "天缘旅社(钟南街)",
        "longitude": 114.57654193369693,
        "latitude": 30.660721612857195
    },
    {
        "name": "武汉邾城宾馆迎宾楼",
        "longitude": 114.81228555248471,
        "latitude": 30.8446862918053
    },
    {
        "name": "春圣招待所",
        "longitude": 114.61738165495177,
        "latitude": 30.84149176636664
    },
    {
        "name": "紫茗宾馆",
        "longitude": 114.57690367576859,
        "latitude": 30.66380123710064
    },
    {
        "name": "新洲政府招待所邾城宾馆道观分部",
        "longitude": 115.01421012271173,
        "latitude": 30.87678032131995
    },
    {
        "name": "安居客房",
        "longitude": 114.80936553032538,
        "latitude": 30.843021059068768
    },
    {
        "name": "白云旅社",
        "longitude": 114.57728230302376,
        "latitude": 30.663613499314952
    },
    {
        "name": "莲花住宿(汽发街)",
        "longitude": 114.57942221870273,
        "latitude": 30.661298574732744
    },
    {
        "name": "新港招待所",
        "longitude": 114.5700979333371,
        "latitude": 30.672723969163258
    },
    {
        "name": "浦东园招待所",
        "longitude": 114.57799369209937,
        "latitude": 30.664527512376285
    },
    {
        "name": "长禄源宾馆",
        "longitude": 114.8159639379272,
        "latitude": 30.840067472170123
    },
    {
        "name": "方园宾馆",
        "longitude": 114.57978661683612,
        "latitude": 30.66043041789196
    },
    {
        "name": "晋华宾馆",
        "longitude": 114.58813484453965,
        "latitude": 30.670130172213817
    },
    {
        "name": "泰绅酒店",
        "longitude": 114.33158974422977,
        "latitude": 30.64781753846672
    },
    {
        "name": "兴源宾馆",
        "longitude": 114.31414095442572,
        "latitude": 30.631240453385605
    },
    {
        "name": "安陆汉办招待所",
        "longitude": 114.29057682228469,
        "latitude": 30.600191916067057
    },
    {
        "name": "天鑫宾馆(武汉青岛路店)",
        "longitude": 114.31062949606891,
        "latitude": 30.58485613631096
    },
    {
        "name": "武汉马哥孛罗酒店",
        "longitude": 114.31378242606368,
        "latitude": 30.58855161101623
    },
    {
        "name": "鸿缘商务旅馆",
        "longitude": 114.30397043854055,
        "latitude": 30.585291809883753
    },
    {
        "name": "瑞祥宾馆(湖边坊店)",
        "longitude": 114.30421347689378,
        "latitude": 30.607423160871242
    },
    {
        "name": "江凌旅社",
        "longitude": 114.32342664033108,
        "latitude": 30.618572245116404
    },
    {
        "name": "云泰6+1酒店(永清店)",
        "longitude": 114.31215465935003,
        "latitude": 30.616268798920075
    },
    {
        "name": "九洲招待所",
        "longitude": 114.3123676389239,
        "latitude": 30.593180442042314
    },
    {
        "name": "君悦商务酒店",
        "longitude": 114.3088697193827,
        "latitude": 30.58931150654415
    },
    {
        "name": "隆馨时尚旅馆",
        "longitude": 114.31063246884172,
        "latitude": 30.61945955210104
    },
    {
        "name": "锦星宾馆(汉口三阳路店)",
        "longitude": 114.31759007939445,
        "latitude": 30.600488569167766
    },
    {
        "name": "江滩6+1假日宾馆(洞庭街店)",
        "longitude": 114.30839180216962,
        "latitude": 30.581298810083442
    },
    {
        "name": "武汉汇豪大酒店",
        "longitude": 114.29877359483818,
        "latitude": 30.58946497089682
    },
    {
        "name": "一日游旅业",
        "longitude": 114.30978313335106,
        "latitude": 30.59510366335968
    },
    {
        "name": "雷龙招待所",
        "longitude": 114.33813266716614,
        "latitude": 30.637384418333703
    },
    {
        "name": "舒鑫旅馆",
        "longitude": 114.33256509306516,
        "latitude": 30.630562862594065
    },
    {
        "name": "鑫洪源客房部",
        "longitude": 114.34291385333916,
        "latitude": 30.648841601859978
    },
    {
        "name": "董都宾馆",
        "longitude": 114.15681631700798,
        "latitude": 30.562851436132746
    },
    {
        "name": "华坤宾馆(武泰闸店)",
        "longitude": 114.32086591784119,
        "latitude": 30.524417351299913
    },
    {
        "name": "清江饭店",
        "longitude": 114.31099555955262,
        "latitude": 30.553050285110476
    },
    {
        "name": "新大地酒店",
        "longitude": 114.33662021248855,
        "latitude": 30.540587168003544
    },
    {
        "name": "舒心招待所",
        "longitude": 114.20087534365915,
        "latitude": 30.61440342663663
    },
    {
        "name": "江海楼大酒店",
        "longitude": 114.24710046425463,
        "latitude": 30.589773756380495
    },
    {
        "name": "滨江阁大酒店",
        "longitude": 114.25020659951538,
        "latitude": 30.58083125216567
    },
    {
        "name": "洪广大酒店",
        "longitude": 114.34558960986526,
        "latitude": 30.54805365846599
    },
    {
        "name": "武汉东鑫大酒店",
        "longitude": 114.22397868448195,
        "latitude": 30.56439099211908
    },
    {
        "name": "青年酒店",
        "longitude": 114.38146972246025,
        "latitude": 30.517945514745293
    },
    {
        "name": "如家快捷酒店(武汉光谷民族大道店)",
        "longitude": 114.41029127380644,
        "latitude": 30.499924829780543
    },
    {
        "name": "玲珑旭精品酒店(武汉站欢乐谷店)",
        "longitude": 114.39384709021583,
        "latitude": 30.620156795885784
    },
    {
        "name": "九龙大酒店(雄楚店)",
        "longitude": 114.35615415401121,
        "latitude": 30.514015579822363
    },
    {
        "name": "珞珈山宾馆",
        "longitude": 114.38587652213218,
        "latitude": 30.535459115040492
    },
    {
        "name": "水神客舍",
        "longitude": 114.39487948133345,
        "latitude": 30.52082505110125
    },
    {
        "name": "香格里拉大酒店",
        "longitude": 114.29503191219395,
        "latitude": 30.60580715700656
    },
    {
        "name": "金盾大酒店",
        "longitude": 114.2756027096704,
        "latitude": 30.60390807806514
    },
    {
        "name": "武汉新华诺富特大饭店",
        "longitude": 114.28060903998728,
        "latitude": 30.597332971885532
    },
    {
        "name": "葛洲坝大酒店",
        "longitude": 114.2632726244318,
        "latitude": 30.580067537987397
    },
    {
        "name": "佳佳住宿(武汉阳逻店)",
        "longitude": 114.5448859174441,
        "latitude": 30.71597997944623
    },
    {
        "name": "中油酒店(中北路店)",
        "longitude": 114.3639863812388,
        "latitude": 30.572009470534336
    },
    {
        "name": "武汉帅府饭店附楼",
        "longitude": 114.35950619739938,
        "latitude": 30.54034178978034
    },
    {
        "name": "循礼门饭店",
        "longitude": 114.29594978875957,
        "latitude": 30.58917571067431
    },
    {
        "name": "雅懿思聪旅店",
        "longitude": 114.33280243763056,
        "latitude": 30.52983215687706
    },
    {
        "name": "世纪家园酒店",
        "longitude": 114.22488866477505,
        "latitude": 30.564438810776664
    },
    {
        "name": "禧龙宾馆",
        "longitude": 114.42391687663705,
        "latitude": 30.500454562710935
    },
    {
        "name": "创意宾馆",
        "longitude": 114.31952442534426,
        "latitude": 30.623970130028724
    },
    {
        "name": "江城明珠豪生大酒店",
        "longitude": 114.31615820867106,
        "latitude": 30.59402188435059
    },
    {
        "name": "如家快捷酒店(武汉高雄路店)",
        "longitude": 114.29790826765361,
        "latitude": 30.604085530241143
    },
    {
        "name": "武汉万达嘉华酒店",
        "longitude": 114.35773064627354,
        "latitude": 30.556299339356336
    },
    {
        "name": "时代酒店公寓",
        "longitude": 114.31244756532953,
        "latitude": 30.559518365373773
    },
    {
        "name": "纽宾凯新宜国际酒店",
        "longitude": 114.32971250907151,
        "latitude": 30.542893223705978
    },
    {
        "name": "天一商务酒店",
        "longitude": 114.36198308514363,
        "latitude": 30.611072716402873
    },
    {
        "name": "安华酒店",
        "longitude": 114.32814232006528,
        "latitude": 30.53679062811609
    },
    {
        "name": "帅府饭店",
        "longitude": 114.35952118715805,
        "latitude": 30.540349912362124
    },
    {
        "name": "世纪花园大酒店",
        "longitude": 114.26168468071725,
        "latitude": 30.58788641407726
    },
    {
        "name": "新龙商务酒店",
        "longitude": 114.2188151045583,
        "latitude": 30.558487341805776
    },
    {
        "name": "V9假日酒店(武汉南湖店)",
        "longitude": 114.33246527625414,
        "latitude": 30.501017534397697
    },
    {
        "name": "武汉米莱创意酒店",
        "longitude": 114.42325589981562,
        "latitude": 30.487254708626164
    },
    {
        "name": "军悦假日酒店",
        "longitude": 114.38202330318904,
        "latitude": 30.53333997876323
    },
    {
        "name": "德加酒店(建设大道)",
        "longitude": 114.30364229964088,
        "latitude": 30.616924998486475
    },
    {
        "name": "武汉馨梦住宿",
        "longitude": 114.36491137357156,
        "latitude": 30.71819930184668
    },
    {
        "name": "武汉万达瑞华酒店",
        "longitude": 114.35921002092105,
        "latitude": 30.55628471964568
    },
    {
        "name": "格林豪泰酒店(湖北省武汉市武昌火车站东广场)",
        "longitude": 114.33503466849191,
        "latitude": 30.53530001427326
    },
    {
        "name": "瑞丰时代酒店",
        "longitude": 114.34521557690786,
        "latitude": 30.540453267466546
    },
    {
        "name": "亚洲大酒店(汉口店)",
        "longitude": 114.27323119837841,
        "latitude": 30.580948509645637
    },
    {
        "name": "武汉凤凰如家公寓",
        "longitude": 114.4361032751684,
        "latitude": 30.441266604114034
    },
    {
        "name": "汇悦宾馆",
        "longitude": 114.30287700183061,
        "latitude": 30.584460069573822
    },
    {
        "name": "耀明旅社",
        "longitude": 114.09289987981268,
        "latitude": 30.308588987703445
    },
    {
        "name": "中大189招待所",
        "longitude": 114.29228383599953,
        "latitude": 30.57604403367597
    },
    {
        "name": "素言印象假日酒店",
        "longitude": 114.09503720998556,
        "latitude": 30.312778178236094
    },
    {
        "name": "索菲斯时尚宾馆",
        "longitude": 114.10831311909963,
        "latitude": 30.46747531874205
    },
    {
        "name": "鸿程旅社",
        "longitude": 114.16139810803358,
        "latitude": 30.461012163420246
    },
    {
        "name": "晴川旅社",
        "longitude": 113.85346618459204,
        "latitude": 30.443751304360262
    },
    {
        "name": "武汉武晶酒店",
        "longitude": 114.31980644063034,
        "latitude": 30.56794769899198
    },
    {
        "name": "摩尔宾馆",
        "longitude": 114.20314719737036,
        "latitude": 30.53187501344234
    },
    {
        "name": "怡宾馆",
        "longitude": 114.16380167558849,
        "latitude": 30.509615379940676
    },
    {
        "name": "武汉今世缘住宿",
        "longitude": 114.14650516003074,
        "latitude": 30.47293859007672
    },
    {
        "name": "金珠大酒店",
        "longitude": 114.20319985212147,
        "latitude": 30.53332282683483
    },
    {
        "name": "汉庭酒店(武汉沌口开发区店)",
        "longitude": 114.16974463072246,
        "latitude": 30.48995522442648
    },
    {
        "name": "龙情旅馆",
        "longitude": 114.18046406685909,
        "latitude": 30.499689637536704
    },
    {
        "name": "武汉市蔡甸区侏儒街星云旅社",
        "longitude": 113.85940324831105,
        "latitude": 30.443756899160235
    },
    {
        "name": "金堡龙湾",
        "longitude": 114.10846498837375,
        "latitude": 30.466790274188867
    },
    {
        "name": "阳光丽锦酒店(奓山分店)",
        "longitude": 114.02855567964829,
        "latitude": 30.450315213816932
    },
    {
        "name": "诚缘商务宾馆",
        "longitude": 114.10855518202527,
        "latitude": 30.466139337410745
    },
    {
        "name": "盛宜家快捷旅馆",
        "longitude": 114.08329035265852,
        "latitude": 30.449489501752375
    },
    {
        "name": "龙凤住宿",
        "longitude": 114.08621994297643,
        "latitude": 30.443289090034167
    },
    {
        "name": "宾悦旅社",
        "longitude": 114.02909401042773,
        "latitude": 30.45327746391424
    },
    {
        "name": "群力旅社",
        "longitude": 114.02954717944147,
        "latitude": 30.453283253775968
    },
    {
        "name": "晴天旅馆",
        "longitude": 114.03139121214309,
        "latitude": 30.4533073039361
    },
    {
        "name": "鑫速7宾馆(江汉大学店)",
        "longitude": 114.17254777365135,
        "latitude": 30.511004214952333
    },
    {
        "name": "金霖旅馆",
        "longitude": 114.17300498224273,
        "latitude": 30.51120404312575
    },
    {
        "name": "711宾馆",
        "longitude": 114.17300498224273,
        "latitude": 30.51120404312575
    },
    {
        "name": "武汉世嘉公寓",
        "longitude": 114.1060859442842,
        "latitude": 30.462726386240966
    },
    {
        "name": "武汉航宇公寓",
        "longitude": 114.10651198880777,
        "latitude": 30.46492891163173
    },
    {
        "name": "武汉涛哥住宿",
        "longitude": 114.10785619259944,
        "latitude": 30.465806883115516
    },
    {
        "name": "武汉温馨客房",
        "longitude": 114.10369556587877,
        "latitude": 30.464917720596056
    },
    {
        "name": "武汉诚信客房",
        "longitude": 114.10785619490072,
        "latitude": 30.465810884671743
    },
    {
        "name": "建新宾馆(文兴路)",
        "longitude": 114.03872124548609,
        "latitude": 30.58657753715217
    },
    {
        "name": "武汉金怡家宾馆(经开万达店)",
        "longitude": 114.18826455842293,
        "latitude": 30.51099458420867
    },
    {
        "name": "祥根住宿",
        "longitude": 114.14652794921521,
        "latitude": 30.47264406403659
    },
    {
        "name": "东风城市旅店",
        "longitude": 114.16949076565156,
        "latitude": 30.496169611636198
    },
    {
        "name": "武汉沌口名致服务公寓",
        "longitude": 114.1704093424848,
        "latitude": 30.510335008709873
    },
    {
        "name": "好人家宾馆",
        "longitude": 114.1265660070418,
        "latitude": 30.554750156531142
    },
    {
        "name": "中地锦颐商务酒店",
        "longitude": 113.99698481864205,
        "latitude": 30.516177460148945
    },
    {
        "name": "军威宾馆",
        "longitude": 114.0198103675116,
        "latitude": 30.45773689711354
    },
    {
        "name": "华丰时尚旅馆",
        "longitude": 114.19480703528747,
        "latitude": 30.52273861287615
    },
    {
        "name": "迎宾招待所(郭蔡路)",
        "longitude": 114.16579137893989,
        "latitude": 30.49322773508893
    },
    {
        "name": "万事兴客栈",
        "longitude": 114.19061515534116,
        "latitude": 30.51718441532896
    },
    {
        "name": "健康乐旅馆",
        "longitude": 114.19092593177942,
        "latitude": 30.51701498879097
    },
    {
        "name": "米兰旅馆",
        "longitude": 114.14643600999084,
        "latitude": 30.472912739773793
    },
    {
        "name": "富远旅社",
        "longitude": 114.15196622152358,
        "latitude": 30.482864880114885
    },
    {
        "name": "艾菊旅社",
        "longitude": 114.15162934104654,
        "latitude": 30.482732133438383
    },
    {
        "name": "凯宾商务宾馆",
        "longitude": 114.1465889379382,
        "latitude": 30.472497965997245
    },
    {
        "name": "海之天宾馆",
        "longitude": 114.14675707658246,
        "latitude": 30.47229102417483
    },
    {
        "name": "莲池旅社",
        "longitude": 114.03448075488319,
        "latitude": 30.589611847844477
    },
    {
        "name": "华逸宾馆",
        "longitude": 114.07016371768292,
        "latitude": 30.45549573428066
    },
    {
        "name": "刀居然酒店(夜宴餐厅)",
        "longitude": 114.17509351411807,
        "latitude": 30.49671180462593
    },
    {
        "name": "武汉民宜旅店",
        "longitude": 114.16393848728634,
        "latitude": 30.50865449446759
    },
    {
        "name": "武汉卓越旅店",
        "longitude": 114.16398457182909,
        "latitude": 30.508668659478385
    },
    {
        "name": "悦己主题酒店",
        "longitude": 114.18731286025846,
        "latitude": 30.509060591567007
    },
    {
        "name": "宏海假日",
        "longitude": 114.17989379621073,
        "latitude": 30.502168286682068
    },
    {
        "name": "湖北中核国际酒店",
        "longitude": 114.0710068785502,
        "latitude": 30.567637786071185
    },
    {
        "name": "民众大酒店",
        "longitude": 113.85836490411715,
        "latitude": 30.444036244470123
    },
    {
        "name": "武汉鹦鹉住宿",
        "longitude": 113.8532467516724,
        "latitude": 30.44393083242883
    },
    {
        "name": "武汉宇辰旅馆",
        "longitude": 113.85562560472631,
        "latitude": 30.442297844983962
    },
    {
        "name": "红鑫出租屋",
        "longitude": 114.16487097782407,
        "latitude": 30.508567590674247
    },
    {
        "name": "喜来登出租屋",
        "longitude": 114.16471106971794,
        "latitude": 30.509344774452966
    },
    {
        "name": "798club沌口1店别墅轰趴派对聚会店",
        "longitude": 114.18856261348347,
        "latitude": 30.51648435513312
    },
    {
        "name": "名彩商务宾馆",
        "longitude": 114.17217850300094,
        "latitude": 30.506338479767066
    },
    {
        "name": "如家快捷酒店(武汉蔡姚路店)",
        "longitude": 114.04568513238043,
        "latitude": 30.577174675976934
    },
    {
        "name": "新7宾馆",
        "longitude": 114.16546933586714,
        "latitude": 30.470022933667355
    },
    {
        "name": "武汉长大招待所",
        "longitude": 114.03523460228791,
        "latitude": 30.54082783042857
    },
    {
        "name": "武汉佳兴旅馆",
        "longitude": 114.03768250194898,
        "latitude": 30.5842629411141
    },
    {
        "name": "红光住宿",
        "longitude": 114.14578638538427,
        "latitude": 30.47238928939984
    },
    {
        "name": "恒通住宿",
        "longitude": 114.1474152763429,
        "latitude": 30.473392302407422
    },
    {
        "name": "天天e家酒店",
        "longitude": 114.18796059476989,
        "latitude": 30.51111077230097
    },
    {
        "name": "凤凰1号",
        "longitude": 114.0220665501224,
        "latitude": 30.455173257472495
    },
    {
        "name": "武汉致家公寓酒店(经开万达店)",
        "longitude": 114.18728294677037,
        "latitude": 30.509047623665527
    },
    {
        "name": "啊星酒店",
        "longitude": 114.17909409118026,
        "latitude": 30.50266622930405
    },
    {
        "name": "武汉高元出租公寓",
        "longitude": 114.03959970683655,
        "latitude": 30.539785236025576
    },
    {
        "name": "幸福苑住宿",
        "longitude": 114.14638266355229,
        "latitude": 30.472623494941338
    },
    {
        "name": "汉芳旅社",
        "longitude": 114.02881705719979,
        "latitude": 30.45374932096278
    },
    {
        "name": "昊康旅店",
        "longitude": 114.028148410301,
        "latitude": 30.454462431595754
    },
    {
        "name": "馨悦旅社",
        "longitude": 114.02857133625837,
        "latitude": 30.454435780502966
    },
    {
        "name": "武汉徐工住宿",
        "longitude": 114.20834869537902,
        "latitude": 30.47504123039827
    },
    {
        "name": "阳光宾馆",
        "longitude": 114.04937051234978,
        "latitude": 30.580260176822026
    },
    {
        "name": "泰合住宿",
        "longitude": 114.1724169167902,
        "latitude": 30.50893822955254
    },
    {
        "name": "为民宾馆",
        "longitude": 114.03649886834211,
        "latitude": 30.58403963894015
    },
    {
        "name": "青青住宿",
        "longitude": 114.14632101792691,
        "latitude": 30.471991224937995
    },
    {
        "name": "6+1假日旅馆",
        "longitude": 114.2034570220061,
        "latitude": 30.53356496544119
    },
    {
        "name": "宏成旅馆",
        "longitude": 114.06892950283674,
        "latitude": 30.507153878315172
    },
    {
        "name": "宏祥宾馆",
        "longitude": 114.16798091937882,
        "latitude": 30.52501873832399
    },
    {
        "name": "红鼎住宿",
        "longitude": 114.13064982368586,
        "latitude": 30.555701781484565
    },
    {
        "name": "博晶宾馆",
        "longitude": 114.14054707711995,
        "latitude": 30.556241970622633
    },
    {
        "name": "汉庭快捷酒店",
        "longitude": 114.16071358795669,
        "latitude": 30.508834901206246
    },
    {
        "name": "星云宾馆",
        "longitude": 113.85940324831105,
        "latitude": 30.443756899160235
    },
    {
        "name": "武汉梦点旅社",
        "longitude": 114.03912357870121,
        "latitude": 30.53951232093765
    },
    {
        "name": "常福市场旅社",
        "longitude": 114.05637046064004,
        "latitude": 30.432729413565685
    },
    {
        "name": "大东旅社",
        "longitude": 114.04810043219227,
        "latitude": 30.457216932310114
    },
    {
        "name": "永安停车区-住宿",
        "longitude": 113.96153323396166,
        "latitude": 30.46198646659022
    },
    {
        "name": "武汉木林森宾馆(大集店)",
        "longitude": 114.06959188253452,
        "latitude": 30.503780254886042
    },
    {
        "name": "海友酒店(东风大道店)",
        "longitude": 114.19145776038388,
        "latitude": 30.518467669112606
    },
    {
        "name": "武汉郑华旅社",
        "longitude": 114.04413291682053,
        "latitude": 30.59103050425718
    },
    {
        "name": "星云大酒店",
        "longitude": 114.04130655362154,
        "latitude": 30.575107180779398
    },