[
{"name":"红丰酒店","longitude":"114.6645101","latitude":"30.80351173","address":"湖北省武汉市新洲区孔埠致富街车站黄色大楼房"}
,
{"name":"瑞峰酒店","longitude":"114.6672274","latitude":"30.80262","address":"湖北省武汉市新洲区036县道"}
,
{"name":"武汉新洲亚鑫宾馆","longitude":"114.7007569","latitude":"30.78273844","address":"湖北省武汉市新洲区汪集街汪集路52号"}
,
{"name":"联谊宾馆(商发街)","longitude":"114.7012971","latitude":"30.78167321","address":"湖北省武汉市新洲区汪集街路113号"}
,
{"name":"汉庭宾馆","longitude":"114.7018172","latitude":"30.78262994","address":"湖北省武汉市新洲区汪集街汪集路97号"}
,
{"name":"汪集涵大酒店","longitude":"114.7012022","latitude":"30.78175731","address":"湖北省武汉市新洲区商发街武汉市新洲区苗苗幼儿园(汪贤路)西侧约180米"}
,
{"name":"老三酒店","longitude":"114.7018381","latitude":"30.78267588","address":"湖北省武汉市新洲区商发街97号"}
,
{"name":"盛源出租房","longitude":"114.7003926","latitude":"30.78194241","address":"湖北省武汉市新洲区汪贤路汪集路72号"}
,
{"name":"汪集旅店","longitude":"114.7006671","latitude":"30.78248871","address":"湖北省武汉市新洲区111省道与商发街交叉口西北60米"}
,
{"name":"如家旅馆(商发街)","longitude":"114.7017832","latitude":"30.78255503","address":"湖北省武汉市新洲区汪集街路99号正福汤馆隔壁"}
,
{"name":"便民旅社","longitude":"114.7017113","latitude":"30.78307785","address":"湖北省武汉市新洲区汪集街85号"}
,
{"name":"武汉外度假酒店","longitude":"114.0259184","latitude":"30.7529611","address":"湖北省武汉市东西湖区东山镇鑫三江生态园"}
,
{"name":"纽宾凯酒店(武汉白沙洲大学城店)","longitude":"114.2659472","latitude":"30.44852637","address":"湖北省武汉市洪山区白沙洲中医药大学外事楼5-6F"}
,
{"name":"武汉阳逻开发区美居酒店","longitude":"114.5738851","latitude":"30.68395458","address":"湖北省武汉市新洲区阳逻街金色港湾74号"}
,
{"name":"Mercure HOTEL","longitude":"114.5739261","latitude":"30.68395962","address":"湖北省武汉市新洲区阳光大道半山逸品北侧约230米"}
,
{"name":"怡园住宿","longitude":"114.5880949","latitude":"30.70388549","address":"湖北省武汉市新洲区汉施路与109省道交叉口西南150米"}
,
{"name":"新港国际大酒店","longitude":"114.5647451","latitude":"30.7060786","address":"湖北省武汉市新洲区阳逻经济开发区余泊路特1号"}
,
{"name":"武汉佳阳宾馆","longitude":"114.5652318","latitude":"30.70725363","address":"湖北省武汉市新洲区佳阳国际小区2一1一19号门面"}
,
{"name":"如家快捷酒店","longitude":"114.564552","latitude":"30.71620643","address":"湖北省武汉市新洲区金阳大道与余泊大道交叉口东南约20米"}
,
{"name":"武汉新港快捷旅馆","longitude":"114.5664308","latitude":"30.7065464","address":"湖北省武汉市新洲区新港国际大酒店东200米"}
,
{"name":"永鑫旅馆","longitude":"114.5652839","latitude":"30.70714974","address":"湖北省武汉市新洲区佳阳国际2一1一21"}
,
{"name":"花园住宿","longitude":"114.5728729","latitude":"30.70683985","address":"湖北省武汉市新洲区1一26"}
,
{"name":"君安酒店","longitude":"114.5646039","latitude":"30.70597447","address":"湖北省武汉市新洲区阳逻经济开发区汉施公路余泊路1号(新港国际大酒店旁)"}
,
{"name":"新城旅社","longitude":"114.5655674","latitude":"30.70660135","address":"湖北省武汉市新洲区阳逻经济开发区佳阳国际小区物业旁(靠近新港国际大酒店 君安酒店)"}
,
{"name":"城市便捷酒店(武汉阳逻万达广场店)","longitude":"114.5974348","latitude":"30.69043982","address":"湖北省武汉市新洲区柴泊大道金茂逸墅一期R12商铺27号"}
,
{"name":"银湖旅社","longitude":"114.4173881","latitude":"30.78377598","address":"湖北省武汉市黄陂区银湖大道265号"}
,
{"name":"三里远方住宿","longitude":"114.4183276","latitude":"30.78322416","address":"湖北省武汉市黄陂区银湖大街253号"}
,
{"name":"住宿旅馆","longitude":"114.417366","latitude":"30.78376897","address":"湖北省武汉市黄陂区银湖大道251附1号"}
,
{"name":"旅馆","longitude":"114.417959","latitude":"30.78339272","address":"湖北省武汉市黄陂区银湖东街与繁花路交叉口东南约160米"}
,
{"name":"大谭永诚旅社","longitude":"114.4056257","latitude":"30.79508916","address":"湖北省武汉市黄陂区黄武公路甲山村"}
,
{"name":"花满城","longitude":"114.2428252","latitude":"30.33182797","address":"湖北省武汉市江夏区纸金路"}
,
{"name":"紫金客房","longitude":"114.256774","latitude":"30.33194702","address":"湖北省武汉市江夏区郑店中学旁边"}
,
{"name":"金富园酒店","longitude":"114.2543477","latitude":"30.33036826","address":"湖北省武汉市江夏区郑新路188号"}
,
{"name":"刘府饭庄","longitude":"113.8509879","latitude":"30.26310913","address":"湖北省武汉市汉南区湘口街绿荫路40号"}
,
{"name":"怡家旅社","longitude":"113.8494468","latitude":"30.26490554","address":"湖北省武汉市汉南区康泰路汉南小学北侧约240米"}
,
{"name":"老爷旅社","longitude":"113.8489977","latitude":"30.2638629","address":"湖北省武汉市汉南区康泰路汉南小学西北侧约150米"}
,
{"name":"逸悦旅社","longitude":"113.8495059","latitude":"30.26544759","address":"湖北省武汉市汉南区康泰路与晨曦路交叉口北约100米"}
,
{"name":"鑫阳春宾馆","longitude":"113.8495381","latitude":"30.2646567","address":"湖北省武汉市汉南区湘口街晨曦路66号"}
,
{"name":"晟翔宾馆","longitude":"113.8490879","latitude":"30.26476497","address":"湖北省武汉市汉南区康泰路东侧"}
,
{"name":"武汉骑行人公寓","longitude":"114.4480833","latitude":"30.54893795","address":"湖北省武汉市洪山区滨湖花园"}
,
{"name":"东湖绿道滨湖驿站","longitude":"114.4464283","latitude":"30.55139659","address":"湖北省武汉市洪山区东湖绿道滨湖花园二期10栋3单元3层302室"}
,
{"name":"武汉小皮度假别墅(通幽分店)","longitude":"114.4298822","latitude":"30.52798777","address":"湖北省武汉市洪山区马鞍山森林公园(珞喻路416号)"}
,
{"name":"武汉枫哥民宿","longitude":"114.2724549","latitude":"30.54787548","address":"湖北省武汉市汉阳区洲尾正街与拦江路交叉口东约60米"}
,
{"name":"武汉东湖小白民宿","longitude":"114.4293065","latitude":"30.53383704","address":"湖北省武汉市洪山区东湖生态旅游风景区吹笛社区山后毕村10号"}
,
{"name":"乐柚公寓(一号店)","longitude":"114.1839887","latitude":"30.48366944","address":"湖北省武汉市蔡甸区蔡甸经济开发区沌口街道江城大道538号一号车市D栋四楼"}
,
{"name":"晴川假日酒店","longitude":"114.2799238","latitude":"30.55971388","address":"湖北省武汉市汉阳区洗马长街88"}
,
{"name":"天翔大酒店","longitude":"113.8459403","latitude":"30.44339311","address":"湖北省武汉市蔡甸区平安路53号"}
,
{"name":"雲龙大酒店","longitude":"113.8441865","latitude":"30.44496679","address":"湖北省武汉市蔡甸区侏儒山街铁炉村四组"}
,
{"name":"星云宾馆","longitude":"113.8416508","latitude":"30.44323084","address":"湖北省武汉市蔡甸区蟹湖大道232号"}
,
{"name":"金汇大酒店","longitude":"113.8415382","latitude":"30.44700675","address":"湖北省武汉市蔡甸区侏儒山街铁炉村公交站旁"}
,
{"name":"快宝驿站","longitude":"113.8418933","latitude":"30.44482589","address":"湖北省武汉市蔡甸区平安路与蟹湖大道交叉口北约180米"}
,
{"name":"白塘九斤民宿","longitude":"114.3314918","latitude":"30.99162663","address":"湖北省武汉市黄陂区[]"}
,
{"name":"武汉快乐的萍儿客栈(3号店)","longitude":"114.3426191","latitude":"31.01769205","address":"湖北省武汉市黄陂区研梳路(联合村刘家大湾)"}
,
{"name":"大余湾坡上人家民宿","longitude":"114.3661377","latitude":"31.02891108","address":"湖北省武汉市黄陂区木兰乡双泉村大余湾4号"}
,
{"name":"大余湾尚书府酒店(暂停营业)","longitude":"114.3626541","latitude":"31.02675767","address":"湖北省武汉市黄陂区双泉村大余湾旅游景区"}
,
{"name":"大余湾耕读青年客栈","longitude":"114.3677465","latitude":"31.02733212","address":"湖北省武汉市黄陂区研子街大余湾(06号)"}
,
{"name":"武汉青曦·望云民宿","longitude":"114.4044311","latitude":"31.09400023","address":"湖北省武汉市黄陂区木兰文化生态旅游区木兰山风景区东"}
,
{"name":"悠家民宿(木兰古街店)","longitude":"114.3718272","latitude":"31.10876878","address":"湖北省武汉市黄陂区木兰山门楼商业街"}
,
{"name":"武汉樾和林泉民宿","longitude":"114.4037665","latitude":"31.09467564","address":"湖北省武汉市黄陂区木兰山风景区"}
,
{"name":"武汉裕和夫子山居","longitude":"114.3829203","latitude":"31.13485887","address":"湖北省武汉市黄陂区长轩岭街道冯家冲1号"}
,
{"name":"武汉木兰花谷云鼎公寓","longitude":"114.4181592","latitude":"31.10014973","address":"湖北省武汉市黄陂区木兰乡木兰大道木兰花谷景区内"}
,
{"name":"武汉木兰雅居","longitude":"114.3832393","latitude":"31.10020944","address":"湖北省武汉市黄陂区胜景大道木兰山小庙停车场东50米"}
,
{"name":"武汉花谷·湖畔度假酒店","longitude":"114.4209122","latitude":"31.10598133","address":"湖北省武汉市黄陂区木兰乡木兰大道木兰花谷景区内"}
,
{"name":"武汉木兰山一心闲老屋","longitude":"114.3826233","latitude":"31.10103435","address":"湖北省武汉市黄陂区木兰山风景区胜景路29号"}
,
{"name":"武汉黄陂俏木兰客栈","longitude":"114.370886","latitude":"31.09563696","address":"湖北省武汉市黄陂区木兰山风景区木兰山村张家冲下湾58"}
,
{"name":"湖北裕和生态农业旅游发展有限公司","longitude":"114.3823614","latitude":"31.13487819","address":"湖北省武汉市黄陂区长轩岭街道冯家冲1号"}
,
{"name":"木兰文化城大酒店","longitude":"114.391353","latitude":"31.09479914","address":"湖北省武汉市黄陂区胜景大道木兰山风景区内"}
,
{"name":"武汉漫橙山水酒店","longitude":"113.9868469","latitude":"30.68860351","address":"湖北省武汉市东西湖区新沟镇油纱路以北1号"}
,
{"name":"柏漫酒店(武汉东西湖店)","longitude":"113.983352","latitude":"30.69303195","address":"湖北省武汉市东西湖区新沟镇革新大道47号"}
,
{"name":"华丰旅社(油纱路店)","longitude":"113.9803915","latitude":"30.68519845","address":"湖北省武汉市东西湖区新沟镇街燕岭新村油纱路69号"}
,
{"name":"新华酒店(油纱路店)","longitude":"113.9805152","latitude":"30.68567686","address":"湖北省武汉市东西湖区燕岭新村油纱路60号"}
,
{"name":"大自然酒店(走马岭店)","longitude":"114.0047007","latitude":"30.66149175","address":"湖北省武汉市东西湖区兴工九路德晟(武汉)食品产业园1号办公楼"}
,
{"name":"丽枫酒店(东西湖走马岭店)","longitude":"114.0047785","latitude":"30.66154649","address":"湖北省武汉市东西湖区革新大道与兴工九路交叉口南约20米"}
,
{"name":"武汉紫薇都市田园民宿","longitude":"114.6073663","latitude":"30.81706039","address":"湖北省武汉市新洲区仓埠街仓阳路西乐寺村特1号(09省道)"}
,
{"name":"仓阳岗小院(民宿)","longitude":"114.6061441","latitude":"30.81536905","address":"湖北省武汉市新洲区仓埠街丰乐村刘重武118号"}
,
{"name":"武汉时见鹿民宿","longitude":"114.432748","latitude":"30.52120328","address":"湖北省武汉市洪山区珞瑜东路马鞍山森林公园西门驿站旁"}
,
{"name":"慢姑娘别墅聚会(武汉店)","longitude":"114.4335323","latitude":"30.5266668","address":"湖北省武汉市洪山区珞喻东路619号"}
,
{"name":"研究生工作部","longitude":"114.431195","latitude":"30.51618745","address":"湖北省武汉市洪山区华中科技大学"}
,
{"name":"东湖朴宿","longitude":"114.4250908","latitude":"30.57183722","address":"湖北省武汉市洪山区青王路落雁景区肖家咀157号"}
,
{"name":"全季酒店(武汉光谷生物城高新大道店)","longitude":"114.4651537","latitude":"30.48962973","address":"湖北省武汉市洪山区高新大道药监二路1附1号"}
,
{"name":"武汉地丰园客房部","longitude":"114.3412827","latitude":"30.86482759","address":"湖北省武汉市黄陂区前川街解放村138号"}
,
{"name":"武汉欣居蓝天公寓","longitude":"114.2224958","latitude":"30.73486967","address":"湖北省武汉市黄陂区盘龙城经济开发区巨龙大道航空总部地铁口蓝天小区13栋"}
,
{"name":"慕斯酒店(武汉天河机场店)","longitude":"114.2116864","latitude":"30.73233442","address":"湖北省武汉市黄陂区景星路特1号空港中心B座公寓楼"}
,
{"name":"武汉奥特莱斯佳海工业园旁客栈(景云路分店)","longitude":"114.2116984","latitude":"30.73234943","address":"湖北省武汉市黄陂区景云路空港中心"}
,
{"name":"武汉奥特莱斯佳海工业园旁公寓(庆云路分店)","longitude":"114.2229674","latitude":"30.73652921","address":"湖北省武汉市黄陂区庆云路与巨龙大道交叉口北240米"}
,
{"name":"武汉悦莱商务酒店","longitude":"114.5636625","latitude":"30.70348748","address":"湖北省武汉市新洲区汉施公路匠心城1楼(近阳逻开发区地铁站)"}
,
{"name":"丽枫酒店(武汉汉施大道阳逻地铁站店)","longitude":"114.5482679","latitude":"30.70499607","address":"湖北省武汉市新洲区平江大道166号平江壹号6号楼1单元"}
,
{"name":"华阳大酒店(开发区店)","longitude":"114.5636144","latitude":"30.70350241","address":"湖北省武汉市新洲区阳逻开发区阳逻开发区地铁站"}
,
{"name":"平江民宿","longitude":"114.5489367","latitude":"30.70407478","address":"湖北省武汉市新洲区阳逻街道平江大道166附14"}
,
{"name":"雅雅住宿","longitude":"114.5488035","latitude":"30.70277315","address":"湖北省武汉市新洲区平江大道雅斯特酒店(武汉阳逻平江路地铁站店)南侧约30米"}
,
{"name":"如家客栈","longitude":"114.5489046","latitude":"30.70376387","address":"湖北省武汉市新洲区阳逻开发区童院村3号(阳逻地铁站A口步行300米)"}
,
{"name":"鑫玉旅社","longitude":"114.5489015","latitude":"30.70453449","address":"湖北省武汉市新洲区21号线阳逻站A出口直行100米"}
,
{"name":"雅斯特酒店(武汉阳逻平江路地铁站店)","longitude":"114.5488776","latitude":"30.70322208","address":"湖北省武汉市新洲区阳逻经济开发区平江大道166号平江壹号旁(阳逻消防中队旁)童院公交站对面"}
,
{"name":"金沙湾酒店","longitude":"114.5486477","latitude":"30.70719173","address":"湖北省武汉市新洲区阳逻经济开发区新力金沙湾商铺8506号"}
,
{"name":"武汉豪泰尔酒店","longitude":"114.2101768","latitude":"30.80701337","address":"湖北省武汉市黄陂区河街天河道西特1号"}
,
{"name":"武汉盛鑫瑞隆宾馆","longitude":"114.2157234","latitude":"30.81073945","address":"湖北省武汉市黄陂区天河街中兴路1024号"}
,
{"name":"武汉馨悦小憩宾馆","longitude":"114.219746","latitude":"30.80655858","address":"湖北省武汉市黄陂区天河街中兴路204号"}
,
{"name":"天飞宾馆(武汉天河机场店)","longitude":"114.2178407","latitude":"30.80650086","address":"湖北省武汉市黄陂区天河街中兴路211号"}
,
{"name":"鑫天豪宾馆","longitude":"114.2230754","latitude":"30.80749784","address":"湖北省武汉市黄陂区天河街"}
,
{"name":"武汉梦湖墅民宿","longitude":"114.2109452","latitude":"30.80953389","address":"湖北省武汉市黄陂区天河街六层楼区51栋1单元502室(航天小学背后)"}
,
{"name":"武汉红之星宾馆","longitude":"114.2147856","latitude":"30.81169096","address":"湖北省武汉市黄陂区天河街道韩庙村中兴路1110号"}
,
{"name":"宜居宾馆(武汉天河机场店)","longitude":"114.2149319","latitude":"30.81140327","address":"湖北省武汉市黄陂区天河街道中兴路1092号(近天河国际机场)"}
,
{"name":"武汉逸家民宿(天河机场店)(暂停营业)","longitude":"114.2185919","latitude":"30.8077239","address":"湖北省武汉市黄陂区天河街中兴路350号"}
,
{"name":"旅馆","longitude":"114.3017923","latitude":"30.95518373","address":"湖北省武汉市黄陂区龙兴街与文华路交叉口北约160米"}
,
{"name":"馨客旅馆","longitude":"114.3018688","latitude":"30.95945609","address":"湖北省武汉市黄陂区龙兴街与富侧路交叉口北约140米"}
,
{"name":"招待所","longitude":"114.2308981","latitude":"30.93804018","address":"湖北省武汉市黄陂区古潭大道与古农街交叉口西南约140米"}
,
{"name":"武汉晴川七天旅馆","longitude":"114.537984","latitude":"30.38374723","address":"湖北省武汉市江夏区流芳街龙泉街玉屏村"}
,
{"name":"武汉仟禧名苑民宿","longitude":"114.5471953","latitude":"30.39146726","address":"湖北省武汉市江夏区玉屏大道龙泉镇晴川学院杨子泉村"}
,
{"name":"城南旅社","longitude":"114.7051263","latitude":"30.77792877","address":"湖北省武汉市新洲区生生路与荣生路交叉口东北约80米"}
,
{"name":"汪集中心宾馆","longitude":"114.7056504","latitude":"30.77918938","address":"湖北省武汉市新洲区汪兴路120号"}
,
{"name":"鸿鑫宾馆","longitude":"114.7053369","latitude":"30.77914783","address":"湖北省武汉市新洲区汪兴路109号"}
,
{"name":"武汉职工疗养院","longitude":"114.0821503","latitude":"30.52836406","address":"湖北省武汉市蔡甸区知音湖大道新农张家渡旁"}
,
{"name":"武汉慢姑娘观湖驿站度假别墅","longitude":"114.0795463","latitude":"30.53461339","address":"湖北省武汉市蔡甸区马鞍村观湖园D6-1栋"}
,
{"name":"武汉度假别墅小慢(知音湖大道分店)","longitude":"114.0780562","latitude":"30.53452334","address":"湖北省武汉市蔡甸区知音湖大道(观湖园)"}
,
{"name":"刚刚酒店","longitude":"113.9798469","latitude":"30.525892","address":"湖北省武汉市蔡甸区玉贤街53号"}
,
{"name":"南苑宾馆(纱帽正街)","longitude":"114.0779951","latitude":"30.31053235","address":"湖北省武汉市汉南区纱帽正街111号"}
,
{"name":"武汉心随情动情随伤逝公寓","longitude":"114.1659455","latitude":"30.56239935","address":"湖北省武汉市汉阳区米粮新家园"}
,
{"name":"武汉相约酒店","longitude":"114.0347888","latitude":"30.43472003","address":"湖北省武汉市蔡甸区奓山街常福社区千子山024号相约酒店"}
,
{"name":"武汉云尚精品酒店","longitude":"114.0315544","latitude":"30.43456096","address":"湖北省武汉市蔡甸区常福新城福兴社区三期三号楼48号商铺"}
,
{"name":"紫薇花宾馆","longitude":"114.0318116","latitude":"30.43716172","address":"湖北省武汉市蔡甸区玛瑙四路55附5"}
,
{"name":"汉庭酒店(武汉蔡甸经济开发区常福工业园店)","longitude":"114.0317447","latitude":"30.43765777","address":"湖北省武汉市蔡甸区玛瑙四路与常绿大街交叉路口"}
,
{"name":"枫尚酒店(常福工业园店)","longitude":"114.0323474","latitude":"30.43811617","address":"湖北省武汉市蔡甸区玛瑙四路"}
,
{"name":"果核公寓(沌口店)","longitude":"114.0924529","latitude":"30.46770533","address":"湖北省武汉市蔡甸区民营科技工业园七区"}
,
{"name":"城缘公寓接待处","longitude":"114.0910338","latitude":"30.46753442","address":"湖北省武汉市蔡甸区薛峰社区旁民营工业园七区2号倒班楼"}
,
{"name":"武汉达观公寓酒店","longitude":"114.0528786","latitude":"30.43416755","address":"湖北省武汉市蔡甸区常福工业园西牛一街23号"}
,
{"name":"昱峡招待所","longitude":"114.0482843","latitude":"30.43940376","address":"湖北省武汉市蔡甸区玛瑙一路与常禄大街交叉口北约200米"}
,
{"name":"武汉龙泰宾馆","longitude":"114.0908731","latitude":"30.46349048","address":"湖北省武汉市蔡甸区全力一路168号(薛峰社区东门)"}
,
{"name":"武汉城缘商务宾馆","longitude":"114.0906548","latitude":"30.46456322","address":"湖北省武汉市蔡甸区经济技术开发区薛峰社区正对面"}
,
{"name":"武汉索菲斯时尚连锁宾馆","longitude":"114.0904316","latitude":"30.46583991","address":"湖北省武汉市蔡甸区沌口经济开发区全力一路薛峰社区东二门对面"}
,
{"name":"武汉鑫鼎招待所","longitude":"114.0902504","latitude":"30.4667157","address":"湖北省武汉市蔡甸区全力一路民营科技工业园七区二号服务楼"}
,
{"name":"金堡龙湾酒店","longitude":"114.0904286","latitude":"30.46531705","address":"湖北省武汉市蔡甸区经济技术开发区民营工业园七区商铺3号"}
,
{"name":"亮洁客房","longitude":"114.0852359","latitude":"30.4646573","address":"湖北省武汉市蔡甸区全力二路薛峰社区14栋2单元102室"}
,
{"name":"住宿模牌","longitude":"114.0848556","latitude":"30.46716178","address":"湖北省武汉市蔡甸区全力北路观湖花园"}
,
{"name":"新鑫旅馆","longitude":"114.0842163","latitude":"30.46764888","address":"湖北省武汉市蔡甸区薛峰社区全力二路观湖花园s2栋34号门面"}
,
{"name":"观湖棋牌住宿","longitude":"114.0854047","latitude":"30.46802437","address":"湖北省武汉市蔡甸区经济开发区全力北路(全力二路)观湖花园内A2栋3单元"}
,
{"name":"冠寓(商学院店)","longitude":"114.090821","latitude":"30.46409433","address":"湖北省武汉市蔡甸区全力一路178号"}
,
{"name":"森林别墅房","longitude":"114.4998355","latitude":"30.5913283","address":"湖北省武汉市青山区白玉山街张公山寨景区内"}
,
{"name":"邱余陶酒店","longitude":"114.5626799","latitude":"30.65420792","address":"湖北省武汉市新洲区阳逻街汽渡路170号"}
,
{"name":"恒鑫住宿","longitude":"114.5634143","latitude":"30.65304139","address":"湖北省武汉市新洲区阳逻镇汽渡路恒鑫园三层(供电所对面)"}
,
{"name":"柏爱酒店","longitude":"114.4322214","latitude":"30.3988995","address":"湖北省武汉市江夏区环岛路104号"}
,
{"name":"武汉谜尚精致酒店","longitude":"114.4328538","latitude":"30.39948738","address":"湖北省武汉市江夏区经济开发区藏龙岛办事处藏龙岛环岛路88号体育学院对面"}
,
{"name":"蚂蚁电竞酒店","longitude":"114.4315129","latitude":"30.39829752","address":"湖北省武汉市江夏区环岛路栗庙社区120号(武汉体育科技学院对面)"}
,
{"name":"武汉恒萱宾馆","longitude":"114.4301912","latitude":"30.39728274","address":"湖北省武汉市江夏区体育学院体育科技学院斜对面环岛路东南侧"}
,
{"name":"武汉聚星汇酒店","longitude":"114.4317795","latitude":"30.39850589","address":"湖北省武汉市江夏区藏龙岛体育科技技术学院正对面"}
,
{"name":"武汉好邻居出租屋","longitude":"114.4318817","latitude":"30.39867702","address":"湖北省武汉市江夏区环岛路栗庙商业街111号"}
,
{"name":"古田民宿","longitude":"114.4276982","latitude":"30.3951916","address":"湖北省武汉市江夏区环岛路88号附122-123武汉外事外语学院斜对面"}
,
{"name":"武汉志翔旅馆","longitude":"114.4300609","latitude":"30.39716457","address":"湖北省武汉市江夏区环岛路栗庙社区160号商铺"}
,
{"name":"英飞旅馆","longitude":"114.4303805","latitude":"30.39745199","address":"湖北省武汉市江夏区江夏区经济开发区藏龙岛街道环岛路"}
,
{"name":"鑫磊住宿","longitude":"114.4282472","latitude":"30.39560928","address":"湖北省武汉市江夏区环岛路武汉体育学院(藏龙校区)南侧约30米"}
,
{"name":"仟喆公寓","longitude":"114.4292202","latitude":"30.39643349","address":"湖北省武汉市江夏区栗庙新村f-228仟喆公寓"}
,
{"name":"天天住宿","longitude":"114.4306271","latitude":"30.39758833","address":"湖北省武汉市江夏区武汉体育学院科技学院环岛路148号"}
,
{"name":"体院宾馆(湖北美术学院武汉体育学院藏龙岛校区店)","longitude":"114.4320481","latitude":"30.39881125","address":"湖北省武汉市江夏区武汉体院湖北城建学院对面商业街一号楼环岛路107号1-3层"}
,
{"name":"晏家山田园休闲农庄","longitude":"114.4789638","latitude":"30.38837176","address":"湖北省武汉市江夏区凤莲大道龙泉街红旗村"}
,
{"name":"武汉湖光情酒店","longitude":"114.2927196","latitude":"30.45650379","address":"湖北省武汉市洪山区黄家大湾501号"}
,
{"name":"武汉heng19900公寓","longitude":"114.289359","latitude":"30.47402443","address":"湖北省武汉市洪山区白沙四路毛坦港湾(12栋二单元)"}
,
{"name":"悦尔城市酒店(武汉白沙洲店)","longitude":"114.28843","latitude":"30.47440971","address":"湖北省武汉市洪山区白沙洲大道张家湾街烽胜路毛坦港湾A区6号楼"}
,
{"name":"广顺楼宾馆","longitude":"114.8169589","latitude":"30.77785383","address":"湖北省武汉市新洲区辛冲正街辛冲镇第一中学西南侧约90米"}
,
{"name":"曹湖宾馆","longitude":"114.81458","latitude":"30.77658607","address":"湖北省武汉市新洲区辛冲正街新洲区辛冲街卫生院东北侧约170米"}
,
{"name":"辛冲宾馆","longitude":"114.8170571","latitude":"30.77782802","address":"湖北省武汉市新洲区辛冲正街辛冲镇第一中学西南侧约70米"}
,
{"name":"唐宴酒店(武汉汉口学院武汉东湖学院店)","longitude":"114.3165503","latitude":"30.41951309","address":"湖北省武汉市江夏区金樱街268号"}
,
{"name":"武汉爱摩依民宿","longitude":"114.3159624","latitude":"30.41788155","address":"湖北省武汉市江夏区金樱街与文化大道交汇处菩提苑"}
,
{"name":"武汉江城123公寓","longitude":"114.3183884","latitude":"30.41819686","address":"湖北省武汉市江夏区文化大道汉口学院东湖学院旁菩提苑小区"}
,
{"name":"武汉萌萌哒民宿(大花岭街分店)","longitude":"114.316755","latitude":"30.41908479","address":"湖北省武汉市江夏区大桥新区办事处大花岭村(福志友缘1栋)"}
,
{"name":"木兰湖眼镜寨农庄","longitude":"114.4376756","latitude":"31.11545521","address":"湖北省武汉市黄陂区木兰乡眼镜寨"}
,
{"name":"开心公寓","longitude":"114.3718129","latitude":"30.53579692","address":"湖北省武汉市洪山区卓刀泉北路风光村60号"}
,
{"name":"珞珈山宾馆","longitude":"114.3709257","latitude":"30.53320767","address":"湖北省武汉市武昌区卓刀泉北路与八一路辅路交叉口北260米"}
,
{"name":"武汉万隆酒店公寓","longitude":"114.3709477","latitude":"30.5333626","address":"湖北省武汉市武昌区东湖风光村东湖南路18-28号(武汉大学后门)"}
,
{"name":"莱克晒酒店(武汉东湖路店)","longitude":"114.370586","latitude":"30.53260022","address":"湖北省武汉市武昌区珞珈山街办事处卓刀泉北路(镜湖楼超市边)"}
,
{"name":"武汉tanwencai公寓","longitude":"114.370158","latitude":"30.53608453","address":"湖北省武汉市武昌区环山南路与珞东一路交叉口东南约180米"}
,
{"name":"住宿","longitude":"114.3704182","latitude":"30.53223052","address":"湖北省武汉市武昌区卓刀泉北路武汉大学三环学生公寓"}
,
{"name":"开心公寓(武汉大学店)","longitude":"114.371706","latitude":"30.53568206","address":"湖北省武汉市武昌区卓刀泉北路风光村60号"}
,
{"name":"全季酒店(武汉大学东湖南路酒店)(装修中)","longitude":"114.3701001","latitude":"30.53563374","address":"湖北省武汉市武昌区东湖南路16号(风光村军休所内)"}
,
{"name":"武汉易尚居主题酒店","longitude":"114.3878912","latitude":"30.53261467","address":"湖北省武汉市洪山区东湖生态旅游风景区磨山凌角湖小区6栋二层"}
,
{"name":"东湖绿道宾馆","longitude":"114.3892781","latitude":"30.53602006","address":"湖北省武汉市洪山区沙湾村183号"}
,
{"name":"武汉学子之家公寓","longitude":"114.3967289","latitude":"30.52885616","address":"湖北省武汉市洪山区鲁磨路南望山西头村6号"}
,
{"name":"武汉森非公寓","longitude":"114.3940204","latitude":"30.53362878","address":"湖北省武汉市洪山区八一路中国地质大学北区北侧约70米"}
,
{"name":"湖边公寓","longitude":"114.3946475","latitude":"30.5339626","address":"湖北省武汉市洪山区八一路延长线沙湾村84号"}
,
{"name":"武汉阿心公寓(泡泡多肉植物馆分店)","longitude":"114.3901644","latitude":"30.53404844","address":"湖北省武汉市洪山区东湖风景区街道八一路沙湾村167号"}
,
{"name":"武汉秀艺轰趴馆","longitude":"114.3949907","latitude":"30.53394358","address":"湖北省武汉市洪山区沙湾村64号"}
,
{"name":"梦天湖东湖大酒店(东湖店)","longitude":"114.4121873","latitude":"30.53862722","address":"湖北省武汉市洪山区鲁磨路桥梁村"}
,
{"name":"武汉东湖静雅阁","longitude":"114.4173677","latitude":"30.53601024","address":"湖北省武汉市洪山区东湖风景区团山路付家村92号"}
,
{"name":"武汉绿道风生活馆","longitude":"114.4216305","latitude":"30.53701623","address":"湖北省武汉市洪山区团山路付家村117号东湖度假别墅2栋"}
,
{"name":"武汉东湖别墅度假公寓","longitude":"114.4218009","latitude":"30.53637463","address":"湖北省武汉市洪山区东湖风景区桥梁社区付家村117-1号"}
,
{"name":"东湖家旅游民宿渔光台","longitude":"114.4205937","latitude":"30.53788182","address":"湖北省武汉市洪山区东湖风景区付家村142号"}
,
{"name":"东湖家旅游民宿-白马亭","longitude":"114.4203864","latitude":"30.53704587","address":"湖北省武汉市洪山区东湖风景区付家村142号"}
,
{"name":"东湖家旅游民宿-磨山驿","longitude":"114.4203975","latitude":"30.53674998","address":"湖北省武汉市洪山区东湖风景区付家村142号"}
,
{"name":"武汉故里他乡生活馆","longitude":"114.4215484","latitude":"30.53700514","address":"湖北省武汉市洪山区鲁磨路桥梁社区付家村117号3栋"}
,
{"name":"武汉大鱼海棠轰趴别墅(鲁磨路分店)","longitude":"114.4111772","latitude":"30.53800775","address":"湖北省武汉市洪山区沿湖大道16号东湖风景区街道鲁磨路小李村88号"}
,
{"name":"傅家小居","longitude":"114.4163952","latitude":"30.5365062","address":"湖北省武汉市洪山区桥梁社区付家村60号"}
,
{"name":"湖光里","longitude":"114.4212197","latitude":"30.53797446","address":"湖北省武汉市洪山区东湖生态旅游风景区桥梁社区付家村121号"}
,
{"name":"晋梅小院","longitude":"114.4205106","latitude":"30.53710399","address":"湖北省武汉市洪山区团山路付家村东湖家63-3"}
,
{"name":"木兰瑞博酒店","longitude":"114.366843","latitude":"31.22007644","address":"湖北省武汉市黄陂区双龙路与百业街交叉口东约80米"}
,
{"name":"王毛子客栈","longitude":"114.3605139","latitude":"31.22100203","address":"湖北省武汉市黄陂区姚姚线附近"}
,
{"name":"双龙度假村","longitude":"114.358263","latitude":"31.22404875","address":"湖北省武汉市黄陂区解放村"}
,
{"name":"华宇宾馆(武昌大道)","longitude":"114.3035002","latitude":"30.4452444","address":"湖北省武汉市洪山区[]"}
,
{"name":"武汉新路城职民宿","longitude":"114.3089194","latitude":"30.44200035","address":"湖北省武汉市洪山区武昌大道武汉城市职业学院南校区教师公寓七栋一单元101"}
,
{"name":"武汉韵湖民宿","longitude":"114.3087318","latitude":"30.44013814","address":"湖北省武汉市洪山区洪山街道新路村(武汉城市职业学院南校区教师公寓6栋)"}
,
{"name":"东东包酒店","longitude":"114.3039165","latitude":"30.44577253","address":"湖北省武汉市洪山区武昌大道与致用大道交叉口北80米"}
,
{"name":"中意公寓(武昌大道)","longitude":"114.3031168","latitude":"30.44464822","address":"湖北省武汉市洪山区武昌大道与致用大道交叉口西南约60米"}
,
{"name":"爱家客房部(武汉城市职业学院店)","longitude":"114.3031747","latitude":"30.44483607","address":"湖北省武汉市洪山区武昌大道盘营墩5号 武汉城市职业学院南校区西一门斜对面"}
,
{"name":"龙门客栈(武汉城市职业学院南校区店)","longitude":"114.3033764","latitude":"30.44506066","address":"湖北省武汉市洪山区武昌大道熊家墩27号(近武汉城市职业学院南校区)"}
,
{"name":"武汉龙灵山森林房车营地","longitude":"114.1185214","latitude":"30.42559632","address":"湖北省武汉市蔡甸区龙灵山生态公园(枫树三路龙灵山绿道)"}
,
{"name":"武汉凤亭园商务宾馆","longitude":"114.0671636","latitude":"30.42722449","address":"湖北省武汉市蔡甸区经济开发区凤亭南路1号军山科技产业园1期"}
,
{"name":"军山科技园酒店","longitude":"114.0666628","latitude":"30.42739703","address":"湖北省武汉市蔡甸区经济开发区军山街凤亭南路1号"}
,
{"name":"豪私寓酒店","longitude":"114.3151938","latitude":"30.3925081","address":"湖北省武汉市江夏区海伦广场A栋(江夏客厅地铁站A口步行160米)"}
,
{"name":"武汉城市之光民宿","longitude":"114.3152177","latitude":"30.39249906","address":"湖北省武汉市江夏区经济开发区大桥新区街道文化大道A单元海伦广场A栋1808房"}
,
{"name":"武汉jenni家公寓(2号店)","longitude":"114.3154384","latitude":"30.39252163","address":"湖北省武汉市江夏区海伦广场B座内(江夏客厅地铁站A口步行120米)"}
,
{"name":"武汉海伦广场复式影院公寓","longitude":"114.3151658","latitude":"30.39253515","address":"湖北省武汉市江夏区文化大道海伦广场A栋"}
,
{"name":"曼天雨酒店(武汉文化大道江夏客厅地铁站店)","longitude":"114.3151718","latitude":"30.39262212","address":"湖北省武汉市江夏区海伦广场A栋27楼28楼(江夏客厅7号线A出口)"}
,
{"name":"依之朦宾馆(武汉江夏客厅地铁站清江泓景店)","longitude":"114.3165285","latitude":"30.39437021","address":"湖北省武汉市江夏区文化大道与红旗街交汇处北行150米路东"}
,
{"name":"520主题客栈","longitude":"114.33597","latitude":"30.38248247","address":"湖北省武汉市江夏区庙山街道金龙大街普安新村二期还建房21栋3号"}
,
{"name":"武汉兴旺旅馆","longitude":"114.3370703","latitude":"30.38209751","address":"湖北省武汉市江夏区纺织大学阳光校区东北门斜对面150米处"}
,
{"name":"忆阁小居","longitude":"114.3371891","latitude":"30.38231426","address":"湖北省武汉市江夏区阳光五路纺织大学阳光校区北门右200米(江夏区庙山小学西北50米)"}
,
{"name":"武汉梦缘旅馆","longitude":"114.335785","latitude":"30.37440923","address":"湖北省武汉市江夏区普安新村普安街"}
,
{"name":"武汉光谷皇冠假日酒店","longitude":"114.4735836","latitude":"30.48903996","address":"湖北省武汉市洪山区东湖新技术开发区高新大道668号"}
,
{"name":"宇林商务酒店","longitude":"114.4761951","latitude":"30.50092794","address":"湖北省武汉市洪山区东湖高新区九峰德新里西苑3栋楼下d25号"}
,
{"name":"宜尚酒店(武汉光谷生物城店)","longitude":"114.4787477","latitude":"30.49858997","address":"湖北省武汉市洪山区九峰明畅里社区商业街门面M9号"}
,
{"name":"U里冠寓(菁英城店)","longitude":"114.2693993","latitude":"30.49077728","address":"湖北省武汉市洪山区白沙洲八坦路菁英城二期11栋"}
,
{"name":"武汉客居民宿127377","longitude":"114.2796398","latitude":"30.51596471","address":"湖北省武汉市武昌区长江紫都紫兰苑(江盛西路)"}
,
{"name":"武汉途掌柜106639精品民宿","longitude":"114.2796408","latitude":"30.51596371","address":"湖北省武汉市武昌区长江紫都紫兰苑"}
,
{"name":"武汉欢乐花园JIAOYE的美屋公寓(武金堤路分店)","longitude":"114.2827081","latitude":"30.5164806","address":"湖北省武汉市武昌区武金堤路中大长江紫都紫境6期3号楼"}
,
{"name":"66酒店","longitude":"114.5772406","latitude":"30.88930187","address":"湖北省武汉市黄陂区甘棠大道新民街150号"}
,
{"name":"鑫悦宾馆","longitude":"114.5808414","latitude":"30.8831526","address":"湖北省武汉市黄陂区六指街甘棠大道54号"}
,
{"name":"枫林人家","longitude":"114.5836475","latitude":"30.88311291","address":"湖北省武汉市黄陂区甘棠大道与甘仓线交叉口西北约120米"}
,
{"name":"谈海住宿","longitude":"114.579221","latitude":"30.88341554","address":"湖北省武汉市黄陂区甘中街金蓓蕾幼儿园西侧约100米"}
,
{"name":"彩霞","longitude":"114.5632333","latitude":"30.91253341","address":"湖北省武汉市黄陂区六指街吾圆农庄"}
,
{"name":"武汉马跡山酒店","longitude":"114.4246503","latitude":"30.89836348","address":"湖北省武汉市黄陂区前川街火塔线双寨村匡家上湾"}
,
{"name":"武汉澜庭商务宾馆","longitude":"114.3629319","latitude":"30.67471421","address":"湖北省武汉市江岸区长江明珠后面"}
,
{"name":"武汉鑫锦之星酒店","longitude":"114.3288979","latitude":"30.75469687","address":"湖北省武汉市黄陂区滠口街海事学院对面"}
,
{"name":"船员之家(暂停营业)","longitude":"114.3319642","latitude":"30.75246022","address":"湖北省武汉市黄陂区滠口街冯树岭村龙泉院子13号"}
,
{"name":"武汉木兰三台山度假酒店","longitude":"114.4170525","latitude":"31.0110114","address":"湖北省武汉市黄陂区王家河街程富冲木兰三台山风景区内"}
,
{"name":"古坊酒店","longitude":"114.4164144","latitude":"31.01275482","address":"湖北省武汉市黄陂区王家河街程富冲"}
,
{"name":"武汉木兰三台山风景区度假酒店","longitude":"114.4170575","latitude":"31.0110174","address":"湖北省武汉市黄陂区武汉木兰三台山风景区"}
,
{"name":"武汉深航木兰阳光谷酒店","longitude":"114.4622615","latitude":"31.08208783","address":"湖北省武汉市黄陂区木兰乡湖畔塔耳镇"}
,
{"name":"武汉湖茂山庄","longitude":"114.4609609","latitude":"31.06258548","address":"湖北省武汉市黄陂区环湖线与环湖路交叉口南260米"}
,
{"name":"武汉梦涧MENGJIAN度假别墅","longitude":"114.4589008","latitude":"31.07671732","address":"湖北省武汉市黄陂区丰天大道木兰樾境8-28号"}
,
{"name":"木兰湖驿站","longitude":"114.443032","latitude":"31.07619697","address":"湖北省武汉市黄陂区环湖路北50米"}
,
{"name":"中天山庄","longitude":"114.4616844","latitude":"31.07304542","address":"湖北省武汉市黄陂区木兰乡"}
,
{"name":"武汉浅水湾度假村","longitude":"114.4562771","latitude":"31.06686444","address":"湖北省武汉市黄陂区夏家寺浅水湾"}
,
{"name":"木兰阳光度假公寓酒店(建设中)","longitude":"114.4563896","latitude":"31.06608815","address":"湖北省武汉市黄陂区环湖路与043县道交叉口西北200米"}
,
{"name":"武汉木兰水天花园度假别墅","longitude":"114.4611169","latitude":"31.07905859","address":"湖北省武汉市黄陂区木兰水天别墅区近丰天大道"}
,
{"name":"武汉卡拉多恩民宿之家(七星岛度假村分店)","longitude":"114.4610979","latitude":"31.07906354","address":"湖北省武汉市黄陂区木兰水天花园度假别墅"}
,
{"name":"武汉悅客之家度假别墅(七星岛度假村店)","longitude":"114.4594736","latitude":"31.07766022","address":"湖北省武汉市黄陂区度假别墅丰天大道"}
,
{"name":"武汉喜鹊湖生态农庄","longitude":"113.8183149","latitude":"30.2212845","address":"湖北省武汉市汉南区湘口街与五支沟西路交叉口西南角"}
,
{"name":"振兴宾馆(潘塘街店)","longitude":"114.9270543","latitude":"30.97789304","address":"湖北省武汉市新洲区潘塘街66号"}
,
{"name":"潘塘住宿","longitude":"114.8921891","latitude":"30.99800456","address":"湖北省武汉市新洲区紫荆路172号附近"}
,
{"name":"东湾住宿","longitude":"114.8922908","latitude":"31.00112076","address":"湖北省武汉市新洲区振兴街潘塘农贸市场东侧约110米"}
,
{"name":"宜家住宿","longitude":"114.8924639","latitude":"31.00107482","address":"湖北省武汉市新洲区振兴街潘塘村"}
,
{"name":"逢缘住宿","longitude":"114.8927141","latitude":"30.9981126","address":"湖北省武汉市新洲区紫荆路与潘东路交叉路口往南约60米"}
,
{"name":"鸿运住宿","longitude":"114.8894343","latitude":"31.00226738","address":"湖北省武汉市新洲区仁爱希望小学(振兴街东)"}
,
{"name":"潘塘住宿","longitude":"114.8924198","latitude":"31.00130168","address":"湖北省武汉市新洲区潘塘街道紫荆路145号"}
,
{"name":"幸福驿站","longitude":"114.4404966","latitude":"30.50114782","address":"湖北省武汉市洪山区光谷一路万科嘉园"}
,
{"name":"武汉春发旅馆","longitude":"114.5276818","latitude":"30.71378336","address":"湖北省武汉市新洲区阳逻街桥头村五组500号(味美思后面)"}
,
{"name":"爱情公寓","longitude":"114.5276435","latitude":"30.71511461","address":"湖北省武汉市新洲区桥头村513号"}
,
{"name":"天安住宿","longitude":"114.5290559","latitude":"30.71766995","address":"湖北省武汉市新洲区阳逻街武湖路桥头六组481号(近阳逻街武湖路 武生院后街上)"}
,
{"name":"西湖客舍校友之家","longitude":"114.5214515","latitude":"30.71905933","address":"湖北省武汉市新洲区武汉生物工程学院"}
,
{"name":"佳捷住宿","longitude":"114.1611405","latitude":"30.55189601","address":"湖北省武汉市汉阳区陈家嘴桥附近"}
,
{"name":"栖息地宾馆","longitude":"114.0066831","latitude":"30.45011126","address":"湖北省武汉市蔡甸区奓山街老街18号"}
,
{"name":"武汉东湖懒院度假别墅","longitude":"114.4243154","latitude":"30.57075266","address":"湖北省武汉市洪山区东湖风景区落雁景区大家峡肖家咀84号"}
,
{"name":"阿丽拉酒店(武汉东湖店)","longitude":"114.4002147","latitude":"30.55306832","address":"湖北省武汉市洪山区鲁磨路665号东湖风景区东湖东路"}
,
{"name":"绿水青山驿站(4号店)","longitude":"114.4013886","latitude":"30.5522728","address":"湖北省武汉市洪山区东湖东路"}
,
{"name":"武汉旭日度假别墅(2号店)","longitude":"114.4247422","latitude":"30.57120502","address":"湖北省武汉市洪山区东湖生态旅游风景区(导航东湖乐居民宿)"}
,
{"name":"武汉东湖落雁公馆度假别墅","longitude":"114.4243453","latitude":"30.57196925","address":"湖北省武汉市洪山区东湖风景区落雁景区肖家咀163号"}
,
{"name":"武汉东湖落雁路兰亭别墅落雁路李家大湾分店","longitude":"114.4169506","latitude":"30.57605989","address":"湖北省武汉市洪山区郊野道武汉华中艺术学校中小学部南侧"}
,
{"name":"湖滨客舍","longitude":"114.3700918","latitude":"30.56187478","address":"湖北省武汉市武昌区东湖听涛风景区"}
,
{"name":"亚洲棋院","longitude":"114.3703464","latitude":"30.56492342","address":"湖北省武汉市武昌区东湖风景区听涛景区(近省博物馆)"}
,
{"name":"弈心花园酒店","longitude":"114.3702484","latitude":"30.56492453","address":"湖北省武汉市武昌区东湖风景区听涛景区"}
,
{"name":"武汉东湖驿家特色民宿","longitude":"114.3895141","latitude":"30.56992625","address":"湖北省武汉市武昌区东湖生态旅游风景区(大李村)"}
,
{"name":"武汉亚洲棋院","longitude":"114.3703903","latitude":"30.56496336","address":"湖北省武汉市武昌区武汉东湖风景区听涛景区亚洲棋院 近省博物馆"}
,
{"name":"武汉羽化菲儿公寓","longitude":"114.4201494","latitude":"30.65838449","address":"湖北省武汉市青山区临江大道与工人村路交叉口西约20米"}
,
{"name":"恒丰客栈","longitude":"114.3864314","latitude":"30.75785554","address":"湖北省武汉市黄陂区环宇大道与军民路交叉口东约160米"}
,
{"name":"九宫招待所","longitude":"114.3882885","latitude":"30.75771186","address":"湖北省武汉市黄陂区环宇大道与环宇五路交叉口西约180米"}
,
{"name":"武汉帝元乡村休闲俱乐部","longitude":"114.6422682","latitude":"30.60704464","address":"湖北省武汉市新洲区阳逻阳大公路123号"}
,
{"name":"武汉帝元乡村酒店","longitude":"114.6422223","latitude":"30.60700773","address":"湖北省武汉市新洲区阳枫公路与周孟路交叉口"}
,
{"name":"雅特酒店","longitude":"114.5689016","latitude":"30.73030245","address":"湖北省武汉市新洲区阳逻镇余泊路99号华中国际产业园B15-1"}
,
{"name":"武汉京池商务宾馆","longitude":"114.572057","latitude":"30.72975384","address":"湖北省武汉市新洲区阳逻开发区阳逻港华中国际产业园B-S20号"}
,
{"name":"武汉德欣宾馆","longitude":"114.572042","latitude":"30.72893424","address":"湖北省武汉市新洲区阳逻经济开发区华中国际产业园B-S21-2"}
,
{"name":"招待所","longitude":"114.5688196","latitude":"30.72901601","address":"湖北省武汉市新洲区宁致一路与金发大道交叉口北240米"}
,
{"name":"新城旅馆","longitude":"114.5727128","latitude":"30.72990336","address":"湖北省武汉市新洲区阳逻开发区京东大道余集还建楼南区1栋1楼"}
,
{"name":"安逸居旅社","longitude":"114.5722504","latitude":"30.72821679","address":"湖北省武汉市新洲区京东大道与金发大道交叉口北约160米"}
,
{"name":"丹桂苑","longitude":"114.4111996","latitude":"30.54516637","address":"湖北省武汉市洪山区鲁磨路567号植物园旁武汉疗养院内"}
,
{"name":"东家西舍民宿","longitude":"114.4168844","latitude":"30.54238268","address":"湖北省武汉市洪山区东湖风景区桥梁大队东头村125号"}
,
{"name":"冶园居","longitude":"114.4207069","latitude":"30.54871729","address":"湖北省武汉市洪山区鲁磨路中国科学院武汉植物园内"}
,
{"name":"武汉那间房子度假别墅(3号店)","longitude":"114.4111315","latitude":"30.54451055","address":"湖北省武汉市洪山区那间房子文化交流中心(翠竹园斜对面)"}
,
{"name":"武汉一个搞聚会别墅的帅房东(店)","longitude":"114.4137058","latitude":"30.54419245","address":"湖北省武汉市洪山区植物园路武汉华中艺术学校东北侧约280米"}
,
{"name":"武汉那间房子民宿","longitude":"114.4110564","latitude":"30.54454049","address":"湖北省武汉市洪山区洪山东湖风景区植物园路大李村299号"}
,
{"name":"Gala旮旯民宿","longitude":"114.4072282","latitude":"30.54481829","address":"湖北省武汉市洪山区大李村235号"}
,
{"name":"武汉翩翩虚度民宿","longitude":"114.407972","latitude":"30.54405591","address":"湖北省武汉市洪山区东湖风景区鲁磨路大李文创村208号"}
,
{"name":"寻核舍民宿","longitude":"114.4090161","latitude":"30.54443132","address":"湖北省武汉市洪山区洪山区生态旅游风景区大李村258号"}
,
{"name":"东湖·归源居","longitude":"114.4100504","latitude":"30.54320532","address":"湖北省武汉市洪山区东湖风景区大李文创村273号"}
,
{"name":"武汉禾木民宿","longitude":"114.4090742","latitude":"30.54378557","address":"湖北省武汉市洪山区鲁磨路大李村254号"}
,
{"name":"武汉璞宿梦栖客栈","longitude":"114.40785","latitude":"30.54344105","address":"湖北省武汉市洪山区东湖生态旅游风景区鲁磨路大李文创村222号"}
,
{"name":"东湖八九间民宿","longitude":"114.4095548","latitude":"30.54326901","address":"湖北省武汉市洪山区东湖生态旅游风景区桥梁社区大里村151号"}
,
{"name":"MR.W民宿","longitude":"114.4078049","latitude":"30.54343303","address":"湖北省武汉市洪山区植物园路与访梅路交叉口东南260米"}
,
{"name":"武汉有时见别墅","longitude":"114.4076957","latitude":"30.54421672","address":"湖北省武汉市洪山区东湖风景区大李村205-207号"}
,
{"name":"东湖花满山居民宿","longitude":"114.404219","latitude":"30.55029823","address":"湖北省武汉市洪山区沿湖大道58号东湖生态旅游风景区内 北门直行100米"}
,
{"name":"武汉樱雨堂茶社民宿","longitude":"114.4074525","latitude":"30.5436328","address":"湖北省武汉市洪山区东湖生态旅游风景区大李村219号"}
,
{"name":"武汉东湖拾光记民宿","longitude":"114.4091473","latitude":"30.54439041","address":"湖北省武汉市洪山区植物园路大李村257号"}
,
{"name":"武汉东湖Mr·W度假别墅","longitude":"114.4077979","latitude":"30.54306515","address":"湖北省武汉市洪山区东湖生态旅游风景区鲁磨路大李村228号"}
,
{"name":"武汉两棵树田园民宿","longitude":"114.4075066","latitude":"30.54327494","address":"湖北省武汉市洪山区东湖生态旅游风景区桥梁社区大李村226号"}
,
{"name":"有时见花园民宿•咖啡馆","longitude":"114.4076287","latitude":"30.54429266","address":"湖北省武汉市洪山区大李村205号"}
,
{"name":"暮迟归居","longitude":"114.4087188","latitude":"30.54477405","address":"湖北省武汉市洪山区植物园路大李村245号"}
,
{"name":"墟里八九间民宿","longitude":"114.4095548","latitude":"30.54326901","address":"湖北省武汉市洪山区鲁磨路与湖山道交叉口北400米"}
,
{"name":"初一民宿","longitude":"114.4077388","latitude":"30.54370191","address":"湖北省武汉市洪山区东湖磨山风景区大李村216号"}
,
{"name":"大李肆民宿","longitude":"114.4085448","latitude":"30.54254471","address":"湖北省武汉市洪山区东湖风景区街道(洪山)东湖隧道旁前行100米大李村"}
,
{"name":"东湖驿家","longitude":"114.4088961","latitude":"30.54256589","address":"湖北省武汉市洪山区东湖风景区大李村133号"}
,
{"name":"武汉唐东林公寓","longitude":"114.4014813","latitude":"30.54517725","address":"湖北省武汉市洪山区磨山小区"}
,
{"name":"等烟雨","longitude":"114.4084275","latitude":"30.54465194","address":"湖北省武汉市洪山区桥梁社区大李村312号"}
,
{"name":"武汉梦璞栖宿","longitude":"114.4076988","latitude":"30.54356894","address":"湖北省武汉市洪山区植物园路与访梅路交叉口东南240米"}
,
{"name":"悠家民宿(植物园店)","longitude":"114.4083785","latitude":"30.54394315","address":"湖北省武汉市洪山区东湖风景区植物园路大李文创村194号"}
,
{"name":"Petrichor东湖·旮旯名宿","longitude":"114.4072132","latitude":"30.54483428","address":"湖北省武汉市洪山区大李村文创村235号"}
,
{"name":"武汉千色百家公寓(15号店)","longitude":"114.407937","latitude":"30.54405389","address":"湖北省武汉市洪山区植物园路(大李村)"}
,
{"name":"东湖香居客舍","longitude":"114.4075426","latitude":"30.54368482","address":"湖北省武汉市洪山区东湖生态风景区大李村209号"}
,
{"name":"武汉等I烟雨/Lilly&Lynn度假别墅(6号店)","longitude":"114.4078409","latitude":"30.5444767","address":"湖北省武汉市洪山区植物园路-道路(大李村)"}
,
{"name":"知住·东湖翠","longitude":"114.4101897","latitude":"30.54182987","address":"湖北省武汉市洪山区东湖生态风景区大李村91号"}
,
{"name":"GALA","longitude":"114.4071661","latitude":"30.54483026","address":"湖北省武汉市洪山区植物园路与访梅路交叉口东120米"}
,
{"name":"伴儿小院民宿(武汉东湖景区店)","longitude":"114.4080972","latitude":"30.54333721","address":"湖北省武汉市洪山区大李村184号伴儿小院"}
,
{"name":"武汉合伙人主题宾馆","longitude":"114.4249109","latitude":"30.58913255","address":"湖北省武汉市洪山区东湖风景区街道(洪山)落雁路先锋村特1号"}
,
{"name":"武汉玉锦商务酒店","longitude":"114.4199456","latitude":"30.58389887","address":"湖北省武汉市洪山区落雁路黄家大湾特1号"}
,
{"name":"武汉濮锦酒店","longitude":"114.4127852","latitude":"30.58373667","address":"湖北省武汉市洪山区雁中路黄家大湾"}
,
{"name":"爱家公寓","longitude":"114.4246014","latitude":"30.58779668","address":"湖北省武汉市洪山区落雁路先锋村57号"}
,
{"name":"方圆公寓","longitude":"114.4247578","latitude":"30.58723708","address":"湖北省武汉市洪山区落雁路与涂新路交叉口东北160米"}
,
{"name":"广源公寓","longitude":"114.4244662","latitude":"30.58776552","address":"湖北省武汉市洪山区落雁路武汉城市学院彭家岭车站对面"}
,
{"name":"武汉鑫凯宾馆","longitude":"114.4247786","latitude":"30.59004404","address":"湖北省武汉市洪山区彭家岭落雁路18号(近武汉城市学院东门)"}
,
{"name":"Hi电竞酒店","longitude":"114.4248859","latitude":"30.5891775","address":"湖北省武汉市洪山区落雁路与雁中路交叉口南120米"}
,
{"name":"武汉哎呀呀888公寓","longitude":"114.4190091","latitude":"30.58383894","address":"湖北省武汉市洪山区落雁路(武汉科技大学城市学院爱家超市对面)"}
,
{"name":"惠宾公寓(落雁路)","longitude":"114.4205396","latitude":"30.58374754","address":"湖北省武汉市洪山区东湖风景区街道武汉城市学院前街先锋村菜市场旁"}
,
{"name":"博学公寓","longitude":"114.421397","latitude":"30.58492303","address":"湖北省武汉市洪山区东湖风景区街道(洪山)东湖养生园武汉科技大学城市学院落雁路前街"}
,
{"name":"青春V公馆","longitude":"114.4170546","latitude":"30.58928702","address":"湖北省武汉市洪山区雁中路鑫盛驾校旁"}
,
{"name":"阳光鑫源公寓","longitude":"114.4197433","latitude":"30.58392665","address":"湖北省武汉市洪山区落雁路先锋商业街54号"}
,
{"name":"武汉格桑花公寓","longitude":"114.4190091","latitude":"30.58384294","address":"湖北省武汉市洪山区落雁路(武汉科技大学城市学院爱家超市对面)"}
,
{"name":"武汉王子公寓(暂停营业)","longitude":"114.4246946","latitude":"30.58749791","address":"湖北省武汉市洪山区东湖风景区街道(洪山)落雁路先锋村彭家岭19号"}
,
{"name":"金湖湾宾馆公寓","longitude":"114.4196782","latitude":"30.58365168","address":"湖北省武汉市洪山区落雁路58号"}
,
{"name":"迎宾公寓(武汉科技大学城院店)","longitude":"114.424894","latitude":"30.58820988","address":"湖北省武汉市洪山区武汉科技大学城市学院熊家湾13号"}
,
{"name":"武汉泽福公寓","longitude":"114.4248508","latitude":"30.58900353","address":"湖北省武汉市洪山区落雁路熊家湾19号(落雁路彭家岭天离美特广场旁)"}
,
{"name":"武汉青春公馆","longitude":"114.4171227","latitude":"30.58939005","address":"湖北省武汉市洪山区武汉城市学院后街雁中路鑫盛驾校旁"}
,
{"name":"尚客优连锁酒店(新兴路店)","longitude":"114.5387856","latitude":"30.46472733","address":"湖北省武汉市江夏区东湖高新区高新四路万年台社区1-14号(惠民超市楼上)"}
,
{"name":"武汉东湖新技术开发区鑫佳源酒店","longitude":"114.5429833","latitude":"30.46436254","address":"湖北省武汉市江夏区新技术开发区豹澥镇万年台社区1-46号"}
,
{"name":"曲水兰亭(建设中)","longitude":"114.4888602","latitude":"30.48053386","address":"湖北省武汉市洪山区光谷四路与神墩三路交叉口南260米"}
,
{"name":"一见倾心民宿","longitude":"114.5038342","latitude":"30.48826947","address":"湖北省武汉市洪山区三泰路以南神墩一路以北湖冠寓B单元3层75号"}
,
{"name":"龙湖冠寓(光谷五路新壹城店)","longitude":"114.503509","latitude":"30.48813954","address":"湖北省武汉市洪山区东湖新技术开发区神墩一路77号"}
,
{"name":"怡宝宾馆","longitude":"114.4607579","latitude":"30.01782982","address":"湖北省武汉市江夏区湖泗镇福桥街130号"}
,
{"name":"祝林轩酒店","longitude":"114.4571873","latitude":"30.01807794","address":"湖北省武汉市江夏区福桥街武汉市江夏区湖泗中学西南侧约50米"}
,
{"name":"武汉万翔度假别墅(细吴村分店)","longitude":"114.5868725","latitude":"30.3262673","address":"湖北省武汉市江夏区梁子湖升华码头螃蟹养殖基地"}
,
{"name":"武汉everyone度假别墅(2号店)","longitude":"114.5867715","latitude":"30.32626027","address":"湖北省武汉市江夏区梁子湖升华码头螃蟹养殖基地"}
,
{"name":"武汉清凉寨度假酒店","longitude":"114.2153361","latitude":"31.29516691","address":"湖北省武汉市黄陂区蔡店街清凉寨风景区"}
,
{"name":"木兰清凉寨集贤山舍","longitude":"114.2018426","latitude":"31.30372099","address":"湖北省武汉市黄陂区蔡店街刘家山村49号"}
,
{"name":"木兰清凉寨陌上逸品农庄","longitude":"114.2002982","latitude":"31.30000222","address":"湖北省武汉市黄陂区蔡店街道刘家山村123号"}
,
{"name":"清凉寨逸山民宿","longitude":"114.2033269","latitude":"31.30486062","address":"湖北省武汉市黄陂区清凉寨刘家山村刘家山17号"}
,
{"name":"东方宾馆","longitude":"114.2018426","latitude":"31.30372099","address":"湖北省武汉市黄陂区木兰山清凉寨刘家山村50号"}
,
{"name":"武汉树影行星民宿","longitude":"114.2167115","latitude":"31.29647778","address":"湖北省武汉市黄陂区清凉寨度假酒店山顶"}
,
{"name":"武汉清凉寨北欧居酒店","longitude":"114.2155795","latitude":"31.29549603","address":"湖北省武汉市黄陂区蔡店街清凉寨风景区出口旁"}
,
{"name":"新房子农家乐","longitude":"114.2016092","latitude":"31.30168145","address":"湖北省武汉市黄陂区蔡店街清凉寨刘家山村"}
,
{"name":"清凉寨刘意浓家乐","longitude":"114.2005147","latitude":"31.30069126","address":"湖北省武汉市黄陂区蔡店街刘家山村50号"}
,
{"name":"武汉银杏农家乐","longitude":"114.2018426","latitude":"31.30307324","address":"湖北省武汉市黄陂区蔡店乡刘家山村73号"}
,
{"name":"清凉寨云茶山庄","longitude":"114.203734","latitude":"31.3037606","address":"湖北省武汉市黄陂区刘家山村5号(清凉寨景区东门附近)"}
,
{"name":"武汉清凉寨山林人家客栈","longitude":"114.2007943","latitude":"31.30134341","address":"湖北省武汉市黄陂区蔡店乡刘家山45-1号"}
,
{"name":"木兰清凉寨优悠桃源别墅","longitude":"114.2161901","latitude":"31.29035468","address":"湖北省武汉市黄陂区清凉寨刘家山村56号 近六家山村村委会"}
,
{"name":"武汉清凉寨昊然居农家乐","longitude":"114.2006349","latitude":"31.30102231","address":"湖北省武汉市黄陂区蔡店街道刘家山114号"}
,
{"name":"木兰清凉寨乡里香味农家乐","longitude":"114.2016272","latitude":"31.30166548","address":"湖北省武汉市黄陂区清凉寨刘家山068号"}
,
{"name":"武汉竹园农家乐","longitude":"114.2009236","latitude":"31.30149354","address":"湖北省武汉市黄陂区蔡店街刘家山湾88号"}
,
{"name":"木兰清凉寨红光农家饭庄","longitude":"114.2016002","latitude":"31.30149751","address":"湖北省武汉市黄陂区蔡店街刘家山村139号(木兰清凉寨景区内)"}
,
{"name":"古龙山庄(天子山大道)","longitude":"114.3703716","latitude":"30.28682442","address":"湖北省武汉市江夏区乌龙泉街灵山村"}
,
{"name":"清欢亲子民宿","longitude":"114.399145","latitude":"30.28927777","address":"湖北省武汉市江夏区五里界街道办事处李家店村农家畈湾28号清欢亲子民宿"}
,
{"name":"方寸居","longitude":"114.3982144","latitude":"30.28939769","address":"湖北省武汉市江夏区五里界街李家店村农家畈21号"}
,
{"name":"赛道驿站","longitude":"114.420519","latitude":"30.2785702","address":"湖北省武汉市江夏区五里界群益村李家湾1号"}
,
{"name":"恒大酒店","longitude":"114.3747168","latitude":"30.31111254","address":"湖北省武汉市江夏区红莲湖旅游度假区恒大世纪旅游城"}
,
{"name":"云稼慢乡原宿","longitude":"114.4186428","latitude":"30.28055211","address":"湖北省武汉市江夏区五里界群益路谢家湾"}
,
{"name":"云稼慢乡湖榭里","longitude":"114.4202486","latitude":"30.27803897","address":"湖北省武汉市江夏区李家湾"}
,
{"name":"武汉武汉任我行度假别墅(暂停营业)","longitude":"114.3945908","latitude":"30.30056158","address":"湖北省武汉市江夏区武汉市江夏区五里界李家店村"}
,
{"name":"梁子湖新华农庄","longitude":"114.4427961","latitude":"30.2741926","address":"湖北省武汉市江夏区梁子湖风景区北咀(梁子湖大道东侧)"}
,
{"name":"沐楚客舍","longitude":"114.431862","latitude":"30.27810502","address":"湖北省武汉市江夏区小朱湾13号"}
,
{"name":"武汉品悦居","longitude":"114.4314031","latitude":"30.27760636","address":"湖北省武汉市江夏区五里界街道童周岭小朱湾18号"}
,
{"name":"萍水别院","longitude":"114.4320976","latitude":"30.27811138","address":"湖北省武汉市江夏区五里界街童周岭村七组小朱湾15号"}
,
{"name":"品悦居农庄","longitude":"114.4316055","latitude":"30.27765966","address":"湖北省武汉市江夏区五里界童周岭村小朱湾18号"}
,
{"name":"武汉花栖堂田园生活馆民宿","longitude":"114.4333153","latitude":"30.27793432","address":"湖北省武汉市江夏区梁子湖大道五里界街道童周岭村小朱湾七组特1号"}
,
{"name":"庆丰旅馆","longitude":"114.5200996","latitude":"30.70965924","address":"湖北省武汉市新洲区武汉生物工程学院武汉生物工程学院大门对面"}
,
{"name":"武汉霞芳旅社","longitude":"114.5197453","latitude":"30.710228","address":"湖北省武汉市新洲区武生院地铁站A口步行60米"}
,
{"name":"武汉恋巢主题宾馆","longitude":"114.5214271","latitude":"30.71117012","address":"湖北省武汉市新洲区汉施公路武汉东街B栋3层(武生院地铁站C口步行50米)"}
,
{"name":"霞芳旅社","longitude":"114.5197152","latitude":"30.7102469","address":"湖北省武汉市新洲区汉施公路武汉生物学院武湖村121号"}
,
{"name":"汉驿连锁旅店(武汉生物工程学院店)","longitude":"114.5213046","latitude":"30.71119378","address":"湖北省武汉市新洲区汉施公路1号 武汉生物工程学院南门右侧"}
,
{"name":"武汉秋酿小屋","longitude":"114.519926","latitude":"30.70996562","address":"湖北省武汉市新洲区武湖村77号(武生院地铁站A口步行80米)"}
,
{"name":"武汉投缘居旅馆","longitude":"114.5280027","latitude":"30.71472472","address":"湖北省武汉市新洲区阳逻街桥头村515号武汉生物工程学院侧门"}
,
{"name":"7天公寓(武汉生物工程学院店)","longitude":"114.5275073","latitude":"30.71300029","address":"湖北省武汉市新洲区阳逻街桥头村四组116号"}
,
{"name":"武汉小巷宾馆","longitude":"114.5274088","latitude":"30.7153179","address":"湖北省武汉市新洲区桥头村512号武汉生物工程学院后街文治网吧后门"}
,
{"name":"时信宾馆","longitude":"114.5283078","latitude":"30.7143027","address":"湖北省武汉市新洲区武汉阳逻桥头村185号"}
,
{"name":"武汉春和民宿","longitude":"114.5279946","latitude":"30.71599907","address":"湖北省武汉市新洲区阳逻街桥头村224号"}
,
{"name":"梵舍·影院式酒店","longitude":"114.5276024","latitude":"30.7151215","address":"湖北省武汉市新洲区桥头村六组513号(文志网咖旁巷内)"}
,
{"name":"云宿新洲店","longitude":"114.5279004","latitude":"30.71450956","address":"湖北省武汉市新洲区桥头村武生院后街酒吧巷内五十米云宿"}
,
{"name":"武汉阳光890招待所","longitude":"114.527426","latitude":"30.71351983","address":"湖北省武汉市新洲区阳逻街桥头村"}
,
{"name":"武汉皮卡多宾馆","longitude":"114.5278131","latitude":"30.71486816","address":"湖北省武汉市新洲区阳逻街桥头村511号"}
,
{"name":"武汉逅居主题公寓","longitude":"114.5277598","latitude":"30.71644125","address":"湖北省武汉市新洲区阳逻街武汉生物工程学院后街惠民市场4栋11号"}
,
{"name":"武汉华英主题宾馆","longitude":"114.5279777","latitude":"30.71468767","address":"湖北省武汉市新洲区阳逻街桥头村519号(武汉生物工程学院)附近"}
,
{"name":"小时代宾馆(武汉新洲店)","longitude":"114.5278432","latitude":"30.71499318","address":"湖北省武汉市新洲区阳逻街桥头村六组517号房"}
,
{"name":"天恒宾馆","longitude":"114.5273548","latitude":"30.71315682","address":"湖北省武汉市新洲区阳逻街桥头村440号"}
,
{"name":"武汉校园出租屋","longitude":"114.5302384","latitude":"30.70896917","address":"湖北省武汉市新洲区阳逻街桥头村后街文志网吧巷内"}
,
{"name":"星月小屋民宿","longitude":"114.5289098","latitude":"30.71389243","address":"湖北省武汉市新洲区桥头村185号"}
,
{"name":"迎宾住宿","longitude":"114.527742","latitude":"30.71313882","address":"湖北省武汉市新洲区阳逻开发区桥头村493号"}
,
{"name":"速8旅馆","longitude":"114.5282687","latitude":"30.71422564","address":"湖北省武汉市新洲区桥头村43"}
,
{"name":"聚香园","longitude":"114.5273658","latitude":"30.71350068","address":"湖北省武汉市新洲区阳逻街桥头村长河西路151号"}
,
{"name":"杰友住宿","longitude":"114.5277308","latitude":"30.71566556","address":"湖北省武汉市新洲区阳逻桥头村长河西路257号(武生院东门)"}
,
{"name":"雅居宾馆","longitude":"114.5273426","latitude":"30.7141563","address":"湖北省武汉市新洲区阳逻街桥头村515号"}
,
{"name":"华英招待所(长河港湾东)","longitude":"114.5281241","latitude":"30.71466606","address":"湖北省武汉市新洲区长河路与汉施大道交叉口北440米"}
,
{"name":"乡间住宿","longitude":"114.5281824","latitude":"30.71415745","address":"湖北省武汉市新洲区武汉生物工程学院后街慕臣便利店巷内50米"}
,
{"name":"武汉快乐时空旅馆","longitude":"114.5283238","latitude":"30.71436871","address":"湖北省武汉市新洲区武汉生物工程学院后街"}
,
{"name":"武汉IDO·罗曼假日酒店式公寓","longitude":"114.5283138","latitude":"30.71432271","address":"湖北省武汉市新洲区桥头村48号"}
,
{"name":"福洞天酒店","longitude":"114.5229012","latitude":"30.71047044","address":"湖北省武汉市新洲区阳逻街武湖村4组54-55号"}
,
{"name":"知音公寓(武汉阳逻店)(装修中)","longitude":"114.5310346","latitude":"30.71349195","address":"湖北省武汉市新洲区长河路与汉施大道交叉口东北480米"}
,
{"name":"武汉梁子湖龙湾半岛度假酒店","longitude":"114.453279","latitude":"30.24361057","address":"湖北省武汉市江夏区梁子湖大道特一号梁子湖北岸龙湾半岛"}
,
{"name":"武汉梁子湖龙湾半岛度假酒店大堂","longitude":"114.4534945","latitude":"30.244596","address":"湖北省武汉市江夏区[]"}
,
{"name":"迁客楼客栈","longitude":"114.4435131","latitude":"30.26235504","address":"湖北省武汉市江夏区梁子湖大道北咀新村40号"}
,
{"name":"夏蓝波湾酒店","longitude":"114.403395","latitude":"30.19592309","address":"湖北省武汉市江夏区蓝波湾水文化度假村"}
,
{"name":"郑氏民宿","longitude":"114.4555599","latitude":"30.26861102","address":"湖北省武汉市江夏区梁子湖风景区北新路郑家咀2号"}
,
{"name":"武汉鑫贵发商务宾馆","longitude":"114.4295221","latitude":"30.62312827","address":"湖北省武汉市青山区冶金大道387号一冶高新科技园5号楼"}
,
{"name":"美发酒店","longitude":"114.4297076","latitude":"30.62293562","address":"湖北省武汉市青山区技新巷与冶金大道交叉口北约40米"}
,
{"name":"武汉宏慧峰宾馆","longitude":"114.4293448","latitude":"30.62237033","address":"湖北省武汉市青山区冶金大道206号钢城华荣五金市场内876"}
,
{"name":"钢电宜家旅馆","longitude":"114.4622161","latitude":"30.63645893","address":"湖北省武汉市青山区二十一号公路与白玉路交叉口西约140米"}
,
{"name":"住宿","longitude":"114.462167","latitude":"30.63635085","address":"湖北省武汉市青山区二十一号公路与白玉路交叉口西约140米"}
,
{"name":"爱豪Hotel","longitude":"114.4313295","latitude":"30.61753325","address":"湖北省武汉市青山区青王路厂前桃山村59号附3号"}
,
{"name":"张店河西酒店","longitude":"114.7380752","latitude":"30.855422","address":"湖北省武汉市新洲区新李路新洲区李集街张店小学北侧约240米"}
,
{"name":"盛腾红勇酒店","longitude":"114.7365186","latitude":"30.8560621","address":"湖北省武汉市新洲区凤长路与新李路交叉口北约40米"}
,
{"name":"杨华客房部","longitude":"114.7379121","latitude":"30.85617162","address":"湖北省武汉市新洲区新李路武汉农村商业银行(张店支行)北侧约60米"}
,
{"name":"徐古新街70号菜鸟驿站","longitude":"114.9723813","latitude":"30.94601227","address":"湖北省武汉市新洲区徐夫路徐古中心卫生院南侧约190米"}
,
{"name":"颐年阁养生公寓","longitude":"114.9576996","latitude":"30.943687","address":"湖北省武汉市新洲区集发休闲农庄(新徐路南120米)"}
,
{"name":"新愿酒店","longitude":"114.9725094","latitude":"30.95076311","address":"湖北省武汉市新洲区徐古镇徐古大道117号"}
,
{"name":"梅园酒店(徐古大道店)","longitude":"114.9732901","latitude":"30.94676124","address":"湖北省武汉市新洲区徐古街50号"}
,
{"name":"青年公寓","longitude":"114.3455048","latitude":"30.09062612","address":"湖北省武汉市江夏区庙巷路与老街交叉口东北约20米"}
,
{"name":"辰星居民宿","longitude":"114.3456589","latitude":"30.08732587","address":"湖北省武汉市江夏区山坡农贸市场辰星居民宿"}
,
{"name":"红星住宿就餐","longitude":"114.3416705","latitude":"30.08921781","address":"湖北省武汉市江夏区１０７国道与庙巷路交叉口南约100米"}
,
{"name":"好巧嫂流动酒店(窑棚北路店)","longitude":"114.3416515","latitude":"30.08939184","address":"湖北省武汉市江夏区山坡街道窑棚北路49号"}
,
{"name":"鲁湖零碳小镇·米小君子园","longitude":"114.1748794","latitude":"30.26089737","address":"湖北省武汉市江夏区金口街白马头村段家湾10号"}
,
{"name":"消泗印象","longitude":"113.8068684","latitude":"30.32885269","address":"湖北省武汉市蔡甸区消泗乡罗汉村方向"}
,
{"name":"武汉吾喜记精品酒店","longitude":"114.5327851","latitude":"30.4965906","address":"湖北省武汉市江夏区东湖新技术开发区高新大道999号"}
,
{"name":"途瑞酒店","longitude":"114.5359303","latitude":"30.48937015","address":"湖北省武汉市江夏区东湖新技术开发区生物园路1号武汉国家生物电子商务中心2号楼601-610室"}
,
{"name":"武汉安朴悦庭","longitude":"114.5242794","latitude":"30.48915212","address":"湖北省武汉市江夏区高新大道188号高科医疗器械园B3栋"}
,
{"name":"武汉途家山水客栈","longitude":"114.533108","latitude":"30.49843984","address":"湖北省武汉市江夏区未来科技城山水年华S1一3商铺"}
,
{"name":"吾喜记精品酒店(武汉光谷科技会展中心店)","longitude":"114.5330259","latitude":"30.49647822","address":"湖北省武汉市江夏区东湖新技术开发区高新大道999号"}
,
{"name":"武汉光谷万豪酒店","longitude":"114.509799","latitude":"30.49267774","address":"湖北省武汉市洪山区高新大道797号"}
,
{"name":"全季酒店(武汉光谷之星酒店)","longitude":"114.5140625","latitude":"30.4930169","address":"湖北省武汉市洪山区高新大道801号中建光谷之星1栋"}
,
{"name":"武汉光谷中建星寓公寓","longitude":"114.5144931","latitude":"30.49238931","address":"湖北省武汉市洪山区东湖高新技术产业开发区801号I2栋1层、4-8层"}
,
{"name":"城市便捷酒店(武昌火车站店)","longitude":"114.2944261","latitude":"30.51894751","address":"湖北省武汉市武昌区白沙洲大道521号(湖北财税职业学院旁)"}
,
{"name":"汤池锦悦酒店(武汉武昌火车站店)","longitude":"114.2960138","latitude":"30.52246682","address":"湖北省武汉市武昌区白沙洲大道559号(武泰闸车站旁)"}
,
{"name":"月亮湾住宿(武汉市汉南区旅游局东北)","longitude":"114.0800828","latitude":"30.3154515","address":"湖北省武汉市汉南区银纱轩148号"}
,
{"name":"宜尚酒店(武汉汉南店)","longitude":"114.076255","latitude":"30.31221935","address":"湖北省武汉市汉南区纱帽正街139号"}
,
{"name":"武汉汉南公寓(育才路分店)","longitude":"114.0740063","latitude":"30.3114532","address":"湖北省武汉市汉南区纱帽街道汉南大道600号"}
,
{"name":"素言印象假日酒店","longitude":"114.076928","latitude":"30.31151696","address":"湖北省武汉市汉南区汉南大道武商量贩购物广场6楼(纱帽正街与汉南大道交叉口)"}
,
{"name":"麗枫酒店(武汉楚河汉街店)","longitude":"114.3330768","latitude":"30.55338609","address":"湖北省武汉市武昌区东湖西路114号景天楼"}
,
{"name":"武汉船坞创意青年旅舍","longitude":"114.3325534","latitude":"30.55579723","address":"湖北省武汉市武昌区公正路安顺家园菊坊2栋2单元1003"}
,
{"name":"船坞创意青年旅社","longitude":"114.3325884","latitude":"30.55573319","address":"湖北省武汉市武昌区楚河汉街安顺家园"}
,
{"name":"武汉趙四小姐的客栈","longitude":"114.3317586","latitude":"30.55629255","address":"湖北省武汉市武昌区楚河汉街安顺家园梅岭一号2单元17层1701"}
,
{"name":"荻岸美宿","longitude":"114.3341007","latitude":"30.55785761","address":"湖北省武汉市武昌区中北路安顺星苑9栋一单元101"}
,
{"name":"武汉安顺民宿","longitude":"114.3342535","latitude":"30.55739149","address":"湖北省武汉市武昌区中北路64号安顺星苑1栋4层"}
,
{"name":"暖窝窝民宿(武汉楚河汉街店)","longitude":"114.3340968","latitude":"30.55787661","address":"湖北省武汉市武昌区中北路安顺星苑9栋1单元"}
,
{"name":"星达青年旅社","longitude":"114.3337883","latitude":"30.55752931","address":"湖北省武汉市武昌区中北路115号安顺星苑2栋1单元902号"}
,
{"name":"武汉爱琴海青年公寓","longitude":"114.3334777","latitude":"30.55821965","address":"湖北省武汉市武昌区楚河汉街地铁C出口安顺星苑七栋303"}
,
{"name":"武汉小石榴呢公寓(公正路分店)","longitude":"114.3342425","latitude":"30.55804428","address":"湖北省武汉市武昌区中北路64号安顺星苑(楚河汉街地铁站C口步行450米)"}
,
{"name":"7天连锁酒店(武汉机场盘龙城店)","longitude":"114.2380235","latitude":"30.73617807","address":"湖北省武汉市黄陂区盘龙城佳海工业园宋岗三路P区2栋"}
,
{"name":"爱琴海宾馆","longitude":"114.2435631","latitude":"30.73517428","address":"湖北省武汉市黄陂区宋岗二路黄陂一中(盘龙校区)东侧约40米"}
,
{"name":"娄兰宾馆","longitude":"114.2381811","latitude":"30.73114463","address":"湖北省武汉市黄陂区佳海工业园宋岗路口"}
,
{"name":"武汉聚豪商务酒店","longitude":"114.2410484","latitude":"30.7334","address":"湖北省武汉市黄陂区宋岗二路建工产业园特1号"}
,
{"name":"武汉奥特莱斯佳海公园旁普通公寓","longitude":"114.2429718","latitude":"30.7339059","address":"湖北省武汉市黄陂区宋岗二路F 学府10栋406"}
,
{"name":"益红宾馆","longitude":"114.239837","latitude":"30.73763069","address":"湖北省武汉市黄陂区盘龙城经济开发区佳海工业园P区1-3(梦卓名对面)"}
,
{"name":"福源商务酒店(武汉盘龙城店)","longitude":"114.2374319","latitude":"30.73665068","address":"湖北省武汉市黄陂区佳海都市工业城宋岗三路166号(近宋岗三路佳海环形路公交站)"}
,
{"name":"江山宾馆","longitude":"114.1127976","latitude":"30.55393271","address":"湖北省武汉市蔡甸区汉阳大道"}
,
{"name":"天天客栈","longitude":"114.1128487","latitude":"30.55390676","address":"湖北省武汉市蔡甸区新天大道致成·雅阁东北侧约50米"}
,
{"name":"枫尚酒店(武汉中核世纪广场店)","longitude":"114.057006","latitude":"30.5677974","address":"湖北省武汉市蔡甸区凤凰路6号(凤凰路地铁站C口步行390米)"}
,
{"name":"武汉天一住宿","longitude":"114.0275772","latitude":"30.57855191","address":"湖北省武汉市蔡甸区蔡甸街树藩大街463号(武汉市公安局蔡甸分局交通巡警大队东侧)"}
,
{"name":"武汉长海旅社","longitude":"114.0276071","latitude":"30.57854684","address":"湖北省武汉市蔡甸区树藩大街465号"}
,
{"name":"武汉鑫鑫招待所","longitude":"114.025456","latitude":"30.57846351","address":"湖北省武汉市蔡甸区树潘大街453号(老税务局旁)"}
,
{"name":"武汉金鑫旅社","longitude":"114.0270908","latitude":"30.58398715","address":"湖北省武汉市蔡甸区蔡甸大街新福路16号"}
,
{"name":"惠雄旅社","longitude":"114.0272456","latitude":"30.58246332","address":"湖北省武汉市蔡甸区汉阳大街(幸福港湾)"}
,
{"name":"元亨宾馆","longitude":"114.0251812","latitude":"30.5831355","address":"湖北省武汉市蔡甸区汉阳大街101号"}
,
{"name":"武汉胡若娟公寓(2号店)","longitude":"114.3140204","latitude":"30.34863272","address":"湖北省武汉市江夏区文化大道大花岭南车花园"}
,
{"name":"武汉雅尚客栈","longitude":"114.3169356","latitude":"30.349902","address":"湖北省武汉市江夏区东港街57号"}
,
{"name":"爱尚主题客栈","longitude":"114.3168747","latitude":"30.34983912","address":"湖北省武汉市江夏区田田烧烤(东港街)对面"}
,
{"name":"武汉华兴宾馆","longitude":"114.3147372","latitude":"30.34958022","address":"湖北省武汉市江夏区兴新街82号第一初级中学对面中国银行旁"}
,
{"name":"东港住宿(武汉江夏一中纸坊大街地铁站店)","longitude":"114.3171683","latitude":"30.34969159","address":"湖北省武汉市江夏区东港街70号4楼 7号线纸坊大街A出口"}
,
{"name":"南八香宾馆","longitude":"114.3183115","latitude":"30.34937445","address":"湖北省武汉市江夏区纸坊兴新街13号南"}
,
{"name":"云天宾馆(武汉江夏一中纸坊大街地铁站店)","longitude":"114.3175705","latitude":"30.35108161","address":"湖北省武汉市江夏区东港街良种里51号(纸坊大街地铁站A口步行400米)"}
,
{"name":"京都旅馆","longitude":"114.2905807","latitude":"30.53145458","address":"湖北省武汉市武昌区紫阳街办事处解放桥望山门新都小区2楼"}
,
{"name":"武汉汉馨宾馆","longitude":"114.290342","latitude":"30.5309631","address":"湖北省武汉市武昌区解放路2号(人民医院附近)近易游天下国际旅行社"}
,
{"name":"百佳宾馆(武汉首义路店)","longitude":"114.2903361","latitude":"30.5303853","address":"湖北省武汉市武昌区紫阳街办事处巡司河街与解放路交界处"}
,
{"name":"鑫梦缘主题酒店","longitude":"114.2915367","latitude":"30.52989161","address":"湖北省武汉市武昌区巡司河街5附13、14、15号"}
,
{"name":"武汉顺顺宾馆","longitude":"114.2903401","latitude":"30.5303523","address":"湖北省武汉市武昌区巡司河街1号福星苑4栋2层1号"}
,
{"name":"明天旅馆","longitude":"114.290324","latitude":"30.53098312","address":"湖北省武汉市武昌区紫阳街街道解放路2号2层"}
,
{"name":"新兴旅社","longitude":"114.3464827","latitude":"30.08728947","address":"湖北省武汉市江夏区星明街185号"}
,
{"name":"住宿台球","longitude":"114.3432543","latitude":"30.08778203","address":"湖北省武汉市江夏区星明街与文苑街交叉口西约80米"}
,
{"name":"天缘住宿(解放路)","longitude":"114.2913304","latitude":"30.53637182","address":"湖北省武汉市武昌区解放路175号中信银行三楼(人民医院斜对面)"}
,
{"name":"武汉天成旅馆","longitude":"114.2920124","latitude":"30.53881295","address":"湖北省武汉市武昌区解放路242号"}
,
{"name":"武汉好运旅馆","longitude":"114.2909128","latitude":"30.53681132","address":"湖北省武汉市武昌区张之洞路80号(复兴路地铁站D口步行460米)"}
,
{"name":"广厦公寓(解放路)","longitude":"114.2920393","latitude":"30.53891587","address":"湖北省武汉市武昌区解放路246号"}
,
{"name":"蜜糖电竞酒店(公众店)","longitude":"114.2919644","latitude":"30.53956177","address":"湖北省武汉市武昌区解放路与楚康西路交叉口北约100米"}
,
{"name":"武汉sasa67公寓","longitude":"114.2912894","latitude":"30.53723959","address":"湖北省武汉市武昌区解放路紫阳之星(复兴路地铁站D口步行460米)"}
,
{"name":"谢家客栈","longitude":"114.2913983","latitude":"30.53618077","address":"湖北省武汉市武昌区解放路173号(省人民医院斜对面80米)"}
,
{"name":"武汉公众旅馆","longitude":"114.2920213","latitude":"30.53954869","address":"湖北省武汉市武昌区解放路247号"}
,
{"name":"武汉旭日旅馆","longitude":"114.2910507","latitude":"30.53673313","address":"湖北省武汉市武昌区解放路175号付2号(复兴路地铁站D口步行450米)"}
,
{"name":"帛尚中洋酒店(武汉黄鹤楼音乐学院店)","longitude":"114.2914012","latitude":"30.53812413","address":"湖北省武汉市武昌区解放路239号(武汉大学人民医院西门斜对面)"}
,
{"name":"放信旅社","longitude":"114.2911656","latitude":"30.53585224","address":"湖北省武汉市武昌区解放路165号"}
,
{"name":"雅斯特酒店(武汉黄鹤楼音乐学院店)","longitude":"114.2871199","latitude":"30.53832947","address":"湖北省武汉市武昌区张之洞路武船对面"}
,
{"name":"武汉88时光民宿","longitude":"114.3055829","latitude":"30.52888121","address":"湖北省武汉市武昌区张之洞路武汉万金国际公寓"}
,
{"name":"萨布拉酒店","longitude":"114.2907626","latitude":"30.55364185","address":"湖北省武汉市武昌区临江大道54号"}
,
{"name":"武汉乐舍公寓(都府堤路分店)","longitude":"114.2909473","latitude":"30.55408941","address":"湖北省武汉市武昌区中华路临江大道58号常阳丽江城(萨布拉酒店旁边)"}
,
{"name":"先施商务宾馆(噶尔店)","longitude":"114.2912491","latitude":"30.55264045","address":"湖北省武汉市武昌区解放路482号"}
,
{"name":"尚居酒店(武汉户部巷店)","longitude":"114.2902542","latitude":"30.55293387","address":"湖北省武汉市武昌区中华路与临江大道交叉口东约40米"}
,
{"name":"清凉山庄","longitude":"114.2923428","latitude":"30.55250979","address":"湖北省武汉市武昌区司门口户部巷中华路都府堤48号"}
,
{"name":"纽宾凯尚居酒店(黄鹤楼长江大桥店)","longitude":"114.2905229","latitude":"30.55293346","address":"湖北省武汉市武昌区中华路1附5"}
,
{"name":"锦江之星(武汉中华路黄鹤楼户部巷店)","longitude":"114.2910773","latitude":"30.55272269","address":"湖北省武汉市武昌区中华路街办事处自行车租赁点中华路31号"}
,
{"name":"武汉有梦Live民宿(临江大道分店)","longitude":"114.2991512","latitude":"30.56285","address":"湖北省武汉市武昌区临江大道与四马路交叉口西南约200米"}
,
{"name":"武汉客舍靑青公寓(启明路分店)","longitude":"114.4257704","latitude":"30.51019168","address":"湖北省武汉市洪山区启明路华中科技大学(东校区)"}
,
{"name":"武汉聚开心轰趴度假别墅(秦云路分店)","longitude":"114.4412858","latitude":"30.51066947","address":"湖北省武汉市洪山区葛洲坝卡尔顿庄园-D1幢"}
,
{"name":"武汉卡西屋别墅轰趴-(珞喻东路分店)","longitude":"114.4391203","latitude":"30.50992064","address":"湖北省武汉市洪山区葛洲坝卡尔顿庄园F1幢(导航卡尔顿庄园E7-3小区即可)"}
,
{"name":"武汉杨洋洋大姐度假别墅(秦云路分店)","longitude":"114.4409029","latitude":"30.50945311","address":"湖北省武汉市洪山区葛洲坝·卡尔顿庄园"}
,
{"name":"钻石6+1假日宾馆(武汉青山店)","longitude":"114.3638767","latitude":"30.62136721","address":"湖北省武汉市青山区和平大道建设一路三弓路10号"}
,
{"name":"尚客优品酒店(武汉洪山光谷森林公园店)","longitude":"114.4464986","latitude":"30.50402293","address":"湖北省武汉市洪山区关东园5路特1号"}
,
{"name":"武汉时尚格调酒店","longitude":"114.4466149","latitude":"30.50418913","address":"湖北省武汉市洪山区关东园五路特1号"}
,
{"name":"秦风酒店(青山店)","longitude":"114.3670266","latitude":"30.62542171","address":"湖北省武汉市青山区建设一路25号(建设二路地铁站D口步行350米)"}
,
{"name":"梦之岛主题影院酒店","longitude":"114.3692326","latitude":"30.6281141","address":"湖北省武汉市青山区建设二路3-6号1-2层商网"}
,
{"name":"武汉鑫宇宾馆","longitude":"114.2623547","latitude":"30.57963375","address":"湖北省武汉市硚口区利济北路151附1"}
,
{"name":"武汉汉口闹中取静高层公寓","longitude":"114.2649282","latitude":"30.57932601","address":"湖北省武汉市硚口区京汉大道辅路汉口·中心嘉园1栋汉口中心嘉园"}
,
{"name":"iu酒店(武汉广场利济北路地铁站店)","longitude":"114.2616428","latitude":"30.57877155","address":"湖北省武汉市硚口区京汉大道387号(利济北路地铁站D口步行390米)"}
,
{"name":"长江大酒店","longitude":"114.2600846","latitude":"30.58295995","address":"湖北省武汉市硚口区解放大道1131号"}
,
{"name":"武汉天禄华美达广场酒店(暂停营业)","longitude":"114.2599155","latitude":"30.58375576","address":"湖北省武汉市硚口区青年路5号"}
,
{"name":"天禄酒店(青年路)","longitude":"114.2603255","latitude":"30.58359457","address":"湖北省武汉市硚口区青年路3号(青年路地铁站B口步行400米)"}
,
{"name":"武汉华美达天禄酒店","longitude":"114.2601395","latitude":"30.58389957","address":"湖北省武汉市硚口区汉口青年路5号(青年路地铁站B口步行410米)"}
,
{"name":"RAMADA PLAZA WUHAN TIANLU","longitude":"114.2604635","latitude":"30.58397035","address":"湖北省武汉市硚口区青年路武汉天禄华美达广场酒店"}
,
{"name":"武汉路客民宿BI4760","longitude":"114.26565","latitude":"30.57922649","address":"湖北省武汉市硚口区京汉大道528号汉口中心嘉园"}
,
{"name":"武汉家家2公寓","longitude":"114.26574","latitude":"30.57922142","address":"湖北省武汉市硚口区京汉大道与武商路交叉口南约140米"}
,
{"name":"武汉京展宾馆","longitude":"114.2711127","latitude":"30.58228151","address":"湖北省武汉市江汉区京汉大道706号(滑坡路小学对面)"}
,
{"name":"天瑞国际酒店公寓(协和医院武展店)","longitude":"114.2691444","latitude":"30.58410169","address":"湖北省武汉市江汉区武展东路特一号SOGO B栋21层"}
,
{"name":"武汉江都商务宾馆","longitude":"114.2719552","latitude":"30.58267653","address":"湖北省武汉市江汉区京汉大道710号附5号(友谊路地铁站A口步行90米)"}
,
{"name":"武汉路客精品民宿AA9660","longitude":"114.2693883","latitude":"30.58389554","address":"湖北省武汉市江汉区解放大道天瑞国际"}
,
{"name":"雅斯特酒店(武汉解放大道中山公园地铁站店)","longitude":"114.2687616","latitude":"30.58410303","address":"湖北省武汉市江汉区解放大道武展东路游子乡大厦A座1层"}
,
{"name":"邻里驿站","longitude":"114.2711947","latitude":"30.58114386","address":"湖北省武汉市江汉区民意四路民意街道仁厚社区"}
,
{"name":"武汉朗庭公寓(4号店)","longitude":"114.2693823","latitude":"30.58394953","address":"湖北省武汉市江汉区解放大道718号"}
,
{"name":"7天连锁酒店(武汉国际会展中心店)","longitude":"114.270636","latitude":"30.58151226","address":"湖北省武汉市江汉区民意四路96号"}
,
{"name":"壹加壹宾馆(自治街店)","longitude":"114.2719634","latitude":"30.58105213","address":"湖北省武汉市江汉区自治街41号武汉市七十五中学旁(李文锁城旁)"}
,
{"name":"新育招待所","longitude":"114.2699881","latitude":"30.58397396","address":"湖北省武汉市江汉区武展东路与解放大道交叉口东200米"}
,
{"name":"平安住宿(武汉协和医院店)","longitude":"114.2697671","latitude":"30.58415509","address":"湖北省武汉市江汉区新育村27号2层(协和医院正对面)"}
,
{"name":"城市便捷酒店(武汉国际广场协和医院店)","longitude":"114.2688166","latitude":"30.58396204","address":"湖北省武汉市江汉区解放大道710号新崇光广场B座1楼"}
,
{"name":"鑫丽都酒店(武汉天河机场店)","longitude":"114.2066354","latitude":"30.77140613","address":"湖北省武汉市黄陂区天河国际机场T2航站楼8号门正对面"}
,
{"name":"武汉黄陂朋来客栈","longitude":"114.2297017","latitude":"30.87982145","address":"湖北省武汉市黄陂区祁家湾朋来客栈"}
,
{"name":"祁星旅馆","longitude":"114.2253287","latitude":"30.87817969","address":"湖北省武汉市黄陂区祁家湾齐发街26号"}
,
{"name":"武汉芒果水晶时尚酒店","longitude":"114.3448306","latitude":"30.5208046","address":"湖北省武汉市洪山区珞狮路158附2号(马房山地铁站A口步行200米)"}
,
{"name":"青榕宾馆(武汉理工大学店)","longitude":"114.3449094","latitude":"30.52153523","address":"湖北省武汉市洪山区珞狮路146号马房山理工大学学生公寓(近理工大、黄家湾公交站)"}
,
{"name":"武汉宁宁普通公寓","longitude":"114.3447267","latitude":"30.52189443","address":"湖北省武汉市洪山区珞狮南路147号5栋1204"}
,
{"name":"武汉真情民宿(建工路店)","longitude":"114.3435075","latitude":"30.52151167","address":"湖北省武汉市洪山区黎明村路与珞狮路入口交叉口西约140米"}
,
{"name":"武汉爱摩依民宿(建工路店)","longitude":"114.3435025","latitude":"30.52151268","address":"湖北省武汉市洪山区黎明村路与珞狮路入口交叉口西约160米"}
,
{"name":"如家华驿酒店(武汉理工大学珞狮路店)","longitude":"114.3448316","latitude":"30.52063465","address":"湖北省武汉市洪山区珞狮南路168号(马房山地铁站A口步行190米)"}
,
{"name":"武汉创业宾馆理工大店","longitude":"114.3450112","latitude":"30.52215186","address":"湖北省武汉市洪山区珞狮南路130号(理工大旁边)"}
,
{"name":"丛境酒店(武汉理工大学店)","longitude":"114.3450033","latitude":"30.521773","address":"湖北省武汉市洪山区珞狮南路138号(武汉理工大学西院)"}
,
{"name":"嘉园公寓","longitude":"114.3458101","latitude":"30.52190557","address":"湖北省武汉市洪山区虎全路99号附三(马房山地铁站D口步行400米)"}
,
{"name":"武汉温馨田园风格旅馆","longitude":"114.3457812","latitude":"30.52186663","address":"湖北省武汉市洪山区珞狮路181号(达达酒店旁)"}
,
{"name":"武汉未来城大酒店","longitude":"114.3475762","latitude":"30.52675305","address":"湖北省武汉市洪山区街道口珞狮南路147号未来城B座1楼"}
,
{"name":"未来城大酒店","longitude":"114.347033","latitude":"30.52650904","address":"湖北省武汉市洪山区街道口珞狮南路147号未来城(近马房山通道)"}
,
{"name":"武汉尚可宾馆","longitude":"114.3464278","latitude":"30.52659903","address":"湖北省武汉市洪山区珞狮南路120号(街道口地铁站J口步行80米)"}
,
{"name":"武汉大学国际酒店","longitude":"114.3476052","latitude":"30.52671101","address":"湖北省武汉市洪山区珞狮路147号未来城B座25层2507"}
,
{"name":"武汉大学国际酒店公寓","longitude":"114.34774","latitude":"30.52644587","address":"湖北省武汉市洪山区珞狮南路街道口14号未来城购物公园B座2507"}
,
{"name":"有间民宿","longitude":"114.3473086","latitude":"30.52655756","address":"湖北省武汉市洪山区珞狮南路未来城大酒店920号(街道口地铁站L口旁)"}
,
{"name":"VIENNA INTERNATIONAL HOTEL","longitude":"114.3466806","latitude":"30.52502411","address":"湖北省武汉市洪山区广场西一路与建材路交叉口东140米"}
,
{"name":"武汉君悦会公寓","longitude":"114.3472457","latitude":"30.52672361","address":"湖北省武汉市洪山区珞狮路辅路与群光南路交叉口东北约20米"}
,
{"name":"荔枝影院公寓(街道口地铁站店)","longitude":"114.3472657","latitude":"30.52662561","address":"湖北省武汉市洪山区珞狮路147号未来城B栋813室(街道口地铁站L口旁)"}
,
{"name":"天鹅恋主题酒店(武汉街道口店)","longitude":"114.3471539","latitude":"30.52540619","address":"湖北省武汉市洪山区珞狮路14号武汉理工大学孵化楼9楼"}
,
{"name":"武汉君信公寓","longitude":"114.3460853","latitude":"30.5266456","address":"湖北省武汉市洪山区珞狮路120号附12一栋一单元三楼"}
,
{"name":"武汉聚开心轰趴公寓(珞狮路分店)","longitude":"114.3469472","latitude":"30.52526058","address":"湖北省武汉市洪山区珞狮路辅路武汉理工大孵化楼-B座"}
,
{"name":"武汉丰齐公寓","longitude":"114.3481734","latitude":"30.52669107","address":"湖北省武汉市洪山区未来城A座"}
,
{"name":"飞洋公寓","longitude":"114.420641","latitude":"30.59259829","address":"湖北省武汉市洪山区[]"}
,
{"name":"武汉皇庭新时代酒店","longitude":"114.424489","latitude":"30.59089736","address":"湖北省武汉市洪山区落雁路先锋村公交站旁(武汉城市学院侧门)"}
,
{"name":"武汉皇庭商务酒店","longitude":"114.424512","latitude":"30.59078443","address":"湖北省武汉市洪山区落雁路先锋村先锋市场1号"}
,
{"name":"武汉飞洋住宿","longitude":"114.4204377","latitude":"30.59257408","address":"湖北省武汉市洪山区武汉科技大学(城市学院)后街特1号二楼"}
,
{"name":"白马驿站","longitude":"114.4196276","latitude":"30.60095699","address":"湖北省武汉市洪山区[]"}
,
{"name":"武汉可可or憨憨公寓","longitude":"114.4213723","latitude":"30.60290706","address":"湖北省武汉市洪山区青山区白马馨居(二期东区)"}
,
{"name":"武汉天悦快捷酒店","longitude":"114.4136717","latitude":"30.60191633","address":"湖北省武汉市洪山区欢乐大道白马馨居一期东区13-14"}
,
{"name":"武汉博雅旅馆(高铁店)","longitude":"114.4113217","latitude":"30.60271037","address":"湖北省武汉市洪山区欢乐大道白马馨居一期8-9-10"}
,
{"name":"武汉莫泰城市快捷公寓","longitude":"114.4129217","latitude":"30.60258751","address":"湖北省武汉市洪山区红钢城大街（建设十路）与欢乐大道辅路交叉口东北约60米"}
,
{"name":"武汉新联宾馆","longitude":"114.4128766","latitude":"30.60293734","address":"湖北省武汉市洪山区欢乐大道白马馨居一期东区11号楼(地铁4号线杨春湖站旁200米)"}
,
{"name":"武汉一休城市宾馆","longitude":"114.4117703","latitude":"30.60188199","address":"湖北省武汉市洪山区欢乐大道"}
,
{"name":"武汉钰祥酒店","longitude":"114.4143967","latitude":"30.60193388","address":"湖北省武汉市洪山区白马鑫居一期17栋02-03"}
,
{"name":"快乐老家时尚公寓","longitude":"114.4176724","latitude":"30.60228156","address":"湖北省武汉市洪山区白马馨居二期8栋2单元804室"}
,
{"name":"武汉昌都商务宾馆","longitude":"114.4114378","latitude":"30.60270345","address":"湖北省武汉市洪山区欢乐大道白马馨居一期8-06"}
,
{"name":"武汉东湖公寓","longitude":"114.4178877","latitude":"30.60250767","address":"湖北省武汉市洪山区和谐路与黄鹤路交叉口东南220米"}
,
{"name":"迷之宿酒店","longitude":"114.4113738","latitude":"30.60192171","address":"湖北省武汉市洪山区白马馨居一期西区7-9号"}
,
{"name":"二都商务宾馆","longitude":"114.4112246","latitude":"30.6027203","address":"湖北省武汉市洪山区和谐路白马馨居一期西区"}
,
{"name":"武汉玛雅城市民宿","longitude":"114.4171266","latitude":"30.6019052","address":"湖北省武汉市洪山区欢乐大道北100米白马馨居-二期"}
,
{"name":"武汉万玺酒店","longitude":"114.4173539","latitude":"30.60195239","address":"湖北省武汉市洪山区欢乐大道白马馨居二期西区11栋5号商铺"}
,
{"name":"福民公寓(武汉站店)","longitude":"114.4113787","latitude":"30.6027304","address":"湖北省武汉市洪山区和谐路白马馨居一期5栋1楼"}
,
{"name":"加亮公寓(武汉站店)","longitude":"114.4178217","latitude":"30.60206678","address":"湖北省武汉市洪山区和平街道欢乐大道白马馨居二期西区-12栋1单元703"}
,
{"name":"天悦酒店接待厅","longitude":"114.4130629","latitude":"30.60208681","address":"湖北省武汉市洪山区杨春湖路与欢乐大道辅路交叉口东60米"}
,
{"name":"武汉合意民宿","longitude":"114.4171276","latitude":"30.6019052","address":"湖北省武汉市洪山区白马馨居二期5栋601室"}
,
{"name":"武汉绿叶公寓","longitude":"114.4171286","latitude":"30.6019112","address":"湖北省武汉市洪山区欢乐大道辅路与清馨路交叉口东180米"}
,
{"name":"昌隆商务宾馆","longitude":"114.4114588","latitude":"30.60276244","address":"湖北省武汉市洪山区和谐西路与杨春湖路交叉口西南80米"}
,
{"name":"武汉玫瑰缘公寓","longitude":"114.4177585","latitude":"30.60214169","address":"湖北省武汉市洪山区白马馨居二期7栋1304"}
,
{"name":"7天公寓(武汉站店)","longitude":"114.4178217","latitude":"30.60206678","address":"湖北省武汉市洪山区和平街道欢乐大道白马馨居二期西区区-12栋"}
,
{"name":"武汉好如家高铁温馨公寓(2号店)","longitude":"114.4171266","latitude":"30.6019052","address":"湖北省武汉市洪山区和谐路白马馨居二期"}
,
{"name":"武汉7天快捷公寓武汉站店(5号店)","longitude":"114.4178236","latitude":"30.60211976","address":"湖北省武汉市洪山区白马馨居二期西区12栋"}
,
{"name":"武汉玛雅城市驿站(4号店)","longitude":"114.4171266","latitude":"30.6019052","address":"湖北省武汉市洪山区和谐路白马馨居(二期东区)"}
,
{"name":"武汉途掌柜106612精品民宿","longitude":"114.4171266","latitude":"30.6019062","address":"湖北省武汉市洪山区欢乐大道辅路与欢乐大道交叉口西北约40米"}
,
{"name":"武汉新宿公寓民宿","longitude":"114.4171416","latitude":"30.60200418","address":"湖北省武汉市洪山区白马馨居二期-西区"}
,
{"name":"v9时尚主题公寓(武汉站店)","longitude":"114.4148413","latitude":"30.60207418","address":"湖北省武汉市洪山区武汉火车站白马馨居二期3栋1201号"}
,
{"name":"武汉平凡的伟大公寓(7号店)","longitude":"114.4171266","latitude":"30.6019052","address":"湖北省武汉市洪山区欢乐大道辅路与欢乐大道交叉口西北约40米"}
,
{"name":"武汉平凡的伟大公寓(6号店)","longitude":"114.4171266","latitude":"30.6019062","address":"湖北省武汉市洪山区欢乐大道辅路与欢乐大道交叉口西北约40米"}
,
{"name":"武汉平凡的伟大公寓(5号店)","longitude":"114.4171266","latitude":"30.6019052","address":"湖北省武汉市洪山区欢乐大道辅路与欢乐大道交叉口西北约40米"}
,
{"name":"武汉平凡的伟大公寓(9号店)","longitude":"114.4171266","latitude":"30.6019062","address":"湖北省武汉市洪山区欢乐大道辅路与欢乐大道交叉口西北约40米"}
,
{"name":"武汉平凡的伟大公寓(8号店)","longitude":"114.4171266","latitude":"30.6019062","address":"湖北省武汉市洪山区欢乐大道辅路与欢乐大道交叉口西北约40米"}
,
{"name":"武汉如意居主题公寓(武汉站店)","longitude":"114.4130608","latitude":"30.60280653","address":"湖北省武汉市洪山区洪山区火车站白马馨居二期东区六号楼二单元1203"}
,
{"name":"武汉小文文之家公寓(12号店)","longitude":"114.4171266","latitude":"30.6019052","address":"湖北省武汉市洪山区欢乐大道辅路与欢乐大道交叉口西北约40米"}
,
{"name":"武汉小文文之家公寓(14号店)","longitude":"114.4171266","latitude":"30.6019052","address":"湖北省武汉市洪山区欢乐大道辅路与欢乐大道交叉口西北约40米"}
,
{"name":"武汉小文文之家公寓(11号店)","longitude":"114.4171266","latitude":"30.6019052","address":"湖北省武汉市洪山区欢乐大道辅路与欢乐大道交叉口西北约40米"}
,
{"name":"武汉小文文之家公寓(13号店)","longitude":"114.4171266","latitude":"30.6019052","address":"湖北省武汉市洪山区欢乐大道辅路与欢乐大道交叉口西北约40米"}
,
{"name":"武汉佳缘精品公寓(欢乐大道分店)","longitude":"114.4171266","latitude":"30.6019062","address":"湖北省武汉市洪山区白马馨居-二期(欢乐大道北100米)"}
,
{"name":"武汉7天快捷公寓武汉站店(4号店)","longitude":"114.4178236","latitude":"30.60212076","address":"湖北省武汉市洪山区白马馨居二期西区12栋"}
,
{"name":"武汉7天快捷公寓武汉站店(6号店)","longitude":"114.4178236","latitude":"30.60212076","address":"湖北省武汉市洪山区白马馨居二期西区12栋"}
,
{"name":"武汉欢乐家公寓","longitude":"114.4133182","latitude":"30.6030996","address":"湖北省武汉市洪山区白马馨居一期东区11栋5楼"}
,
{"name":"武汉jiaxl505公寓","longitude":"114.4131449","latitude":"30.60312046","address":"湖北省武汉市洪山区和谐路白马馨居二期"}
,
{"name":"金穗大酒店","longitude":"114.0269346","latitude":"30.58970539","address":"湖北省武汉市蔡甸区蝙蝠街145-4-1号"}
,
{"name":"武汉捷尚宾馆","longitude":"114.0276043","latitude":"30.58758345","address":"湖北省武汉市蔡甸区农家巷10附17号"}
,
{"name":"知音莲花湖酒店","longitude":"114.0221647","latitude":"30.58854758","address":"湖北省武汉市蔡甸区文正街172号"}
,
{"name":"悦来旅社","longitude":"114.0244684","latitude":"30.58754473","address":"湖北省武汉市蔡甸区义勇路阳光宝贝幼儿园(义勇路)西南侧约70米"}
,
{"name":"乐雅宾馆","longitude":"114.0219667","latitude":"30.6497321","address":"湖北省武汉市东西湖区市场路与岭通大道交叉口东北约140米"}
,
{"name":"武汉晶灿商务宾馆","longitude":"114.0224296","latitude":"30.65003071","address":"湖北省武汉市东西湖区走马岭市场路71号"}
,
{"name":"晶灿商务公寓","longitude":"114.0224476","latitude":"30.64989572","address":"湖北省武汉市东西湖区市场路与岭通大道交叉口东北约200米"}
,
{"name":"艾美公寓","longitude":"114.0230402","latitude":"30.65017699","address":"湖北省武汉市东西湖区走马岭市场路"}
,
{"name":"尚悦公寓","longitude":"114.0234252","latitude":"30.65076569","address":"湖北省武汉市东西湖区走马岭街道拉管厂宿舍58号"}
,
{"name":"华鑫宾馆","longitude":"114.0230322","latitude":"30.65024698","address":"湖北省武汉市东西湖区走马岭拉管厂宿舍69号"}
,
{"name":"武汉赛格商务宾馆","longitude":"114.0255164","latitude":"30.65045523","address":"湖北省武汉市东西湖区走马岭街道东西湖大道3940号"}
,
{"name":"武汉楼外楼公寓","longitude":"114.0253338","latitude":"30.65070561","address":"湖北省武汉市东西湖区东西湖大道还建楼1号楼3单元2楼中国石化对面"}
,
{"name":"寓见你智能酒店公寓","longitude":"114.3137781","latitude":"30.70272272","address":"湖北省武汉市黄陂区汉口北大道与汉口北二路交叉口东约160米"}
,
{"name":"悦程精品酒店(武汉汉口北店)","longitude":"114.3141487","latitude":"30.70049809","address":"湖北省武汉市黄陂区汉口北货运中心内"}
,
{"name":"汉口北汽车旅馆","longitude":"114.3154376","latitude":"30.70158413","address":"湖北省武汉市黄陂区盘龙城经济开发区汉口北大道88号汉口北批发第一城"}
,
{"name":"鑫发宾馆(中兴大街店)","longitude":"114.3463388","latitude":"30.71091814","address":"湖北省武汉市黄陂区中兴大街滠水春晓西侧约30米"}
,
{"name":"十堰宾馆(解放大道店)","longitude":"114.1791055","latitude":"30.60641528","address":"湖北省武汉市硚口区解放大道1号 近古田一路地铁站C出口"}
,
{"name":"武汉胡亨利公寓","longitude":"114.1758381","latitude":"30.60727095","address":"湖北省武汉市硚口区工农路与联工路交叉口东南约140米"}
,
{"name":"丽枫酒店(长丰大道店)","longitude":"114.1774562","latitude":"30.61345845","address":"湖北省武汉市硚口区长丰大道68号1-4层"}
,
{"name":"武汉警泰宾馆","longitude":"114.1963998","latitude":"30.60470431","address":"湖北省武汉市硚口区南泥湾大道与古乐路十字路口汉口西园6-2"}
,
{"name":"武汉99宾馆","longitude":"114.199703","latitude":"30.6149222","address":"湖北省武汉市硚口区长风路华生汉口城市广场南区C3栋1-2层9室"}
,
{"name":"武汉锦豪主题宾馆","longitude":"114.2012539","latitude":"30.61324812","address":"湖北省武汉市硚口区汉口城市广场D3栋1-2层"}
,
{"name":"精途酒店(武汉园博园店)","longitude":"114.2010222","latitude":"30.61473319","address":"湖北省武汉市硚口区华生城市广场南区(长风路与丰美路交叉口)"}
,
{"name":"武汉同济医院舒乐卧公寓","longitude":"114.2009875","latitude":"30.61048285","address":"湖北省武汉市硚口区宝康路宝康苑"}
,
{"name":"武汉碧涢宾馆","longitude":"114.2016748","latitude":"30.61375552","address":"湖北省武汉市硚口区华生汉口城市广场D2栋后3层"}
,
{"name":"武汉七日宾馆","longitude":"114.2023292","latitude":"30.61469706","address":"湖北省武汉市硚口区古田三路汉口华生城市广场"}
,
{"name":"源煌公寓","longitude":"114.3116705","latitude":"30.69062344","address":"湖北省武汉市黄陂区盘龙城经济开发区盘龙城开发区刘店村道贯泉"}
,
{"name":"武汉红黄绿旅馆","longitude":"114.3116745","latitude":"30.69062943","address":"湖北省武汉市黄陂区盘龙城经济开发区道贯泉"}
,
{"name":"卓尔悦玺酒店","longitude":"114.2923664","latitude":"30.70745704","address":"湖北省武汉市黄陂区巨龙大道第一企业社区迎宾路"}
,
{"name":"武汉尚融酒店","longitude":"114.291076","latitude":"30.70567691","address":"湖北省武汉市黄陂区桌尔企业J8栋"}
,
{"name":"爱尚宾馆(武汉黄家湖店)","longitude":"114.2577894","latitude":"30.4337432","address":"湖北省武汉市洪山区黄家湖西路福星惠誉东澜岸2-1-2"}
,
{"name":"武汉雅庭宾馆","longitude":"114.2577104","latitude":"30.43381722","address":"湖北省武汉市洪山区福星惠誉东澜岸一期二栋一层4 5号"}
,
{"name":"武汉拾壹民宿-石大头","longitude":"114.2580692","latitude":"30.43603953","address":"湖北省武汉市洪山区东澜岸·-1号楼"}
,
{"name":"武汉随遇民宿","longitude":"114.2580783","latitude":"30.4352687","address":"湖北省武汉市洪山区白沙洲大道6号"}
,
{"name":"武汉蔡ceci公寓","longitude":"114.2580783","latitude":"30.4352687","address":"湖北省武汉市洪山区黄家湖西路东澜岸广场"}
,
{"name":"武汉EASON民宿","longitude":"114.2580623","latitude":"30.43470884","address":"湖北省武汉市洪山区白沙洲黄家湖大学城福星惠誉东澜岸2栋"}
,
{"name":"武汉月橘公寓","longitude":"114.2581264","latitude":"30.43411994","address":"湖北省武汉市洪山区东澜岸3号楼2109"}
,
{"name":"酒店公寓","longitude":"114.2578972","latitude":"30.43576868","address":"湖北省武汉市洪山区黄家湖西路与黄家湖四街交叉口南约120米"}
,
{"name":"武汉布鹿blue公寓","longitude":"114.2581133","latitude":"30.43514571","address":"湖北省武汉市洪山区黄家湖四街福星惠誉东澜岸11号"}
,
{"name":"红霞住宿","longitude":"114.2527905","latitude":"30.43369829","address":"湖北省武汉市洪山区红霞名苑路红霞名苑C16-1单元"}
,
{"name":"十二月酒店公寓","longitude":"114.2580753","latitude":"30.4352707","address":"湖北省武汉市洪山区白沙洲大道福星惠誉东澜岸1号楼1510室"}
,
{"name":"Sunshine酒店公寓(东澜岸店)","longitude":"114.2581682","latitude":"30.43598849","address":"湖北省武汉市洪山区黄家湖西路与黄家湖四街交叉口东南约120米"}
,
{"name":"橙谊连锁酒店(东澜岸店)","longitude":"114.2581652","latitude":"30.43604348","address":"湖北省武汉市洪山区青菱街道福星惠誉东澜岸1号楼27楼"}
,
{"name":"爱智慧时尚公寓","longitude":"114.2580533","latitude":"30.43480682","address":"湖北省武汉市洪山区黄家湖西路与黄家湖五街交叉口东北160米"}
,
{"name":"拾壹民宿(武汉科技大学黄家湖校区武汉交通职业学院店)","longitude":"114.2579153","latitude":"30.43416104","address":"湖北省武汉市洪山区青菱乡红霞村福星惠誉东澜岸一期1栋12层9室"}
,
{"name":"武汉初客民宿(黄家湖西路分店)","longitude":"114.2580333","latitude":"30.43526772","address":"湖北省武汉市洪山区白沙洲大道6号"}
,
{"name":"武汉路客BD6870精品民宿","longitude":"114.2577552","latitude":"30.43608768","address":"湖北省武汉市洪山区白沙洲福星惠誉东澜岸一期"}
,
{"name":"武汉楚文旅居公寓(白沙洲大道分店)","longitude":"114.2581543","latitude":"30.43524167","address":"湖北省武汉市洪山区东澜岸2号楼(福星惠誉东澜岸)"}
,
{"name":"绅宝客栈","longitude":"114.2465479","latitude":"30.43388754","address":"湖北省武汉市洪山区红霞一路鄂旅投·书院世家北侧约150米"}
,
{"name":"如家酒店(黄家湖西路店)","longitude":"114.2568535","latitude":"30.4426296","address":"湖北省武汉市洪山区黄家湖西路与杏林南路交叉口西南约20米"}
,
{"name":"帝豪宾馆(武汉黄家湖店)","longitude":"114.2550074","latitude":"30.44143269","address":"湖北省武汉市洪山区白沙洲大道武科大对面园艺文化街8-1"}
,
{"name":"腾跃商务酒店(武汉红霞物流园武汉科技大学黄家湖校区店)","longitude":"114.2551026","latitude":"30.43857332","address":"湖北省武汉市洪山区白沙洲大道13号红霞物流园B区"}
,
{"name":"华坤宾馆(青山和平二店)","longitude":"114.3669717","latitude":"30.62431723","address":"湖北省武汉市青山区和平大道1244附6号"}
,
{"name":"武汉卡拉曼达电竞酒店","longitude":"114.3690131","latitude":"30.62482971","address":"湖北省武汉市青山区和平大道吾行里2栋1506室"}
,
{"name":"曼巴电竞影院酒店","longitude":"114.3689292","latitude":"30.6248278","address":"湖北省武汉市青山区和平大道建设二路吾行里2栋10楼1006号"}
,
{"name":"武汉RuiLin公寓","longitude":"114.3688582","latitude":"30.62500181","address":"湖北省武汉市青山区建设一路与和平大道交叉口东约160米"}
,
{"name":"武汉曼巴电竞公寓","longitude":"114.369089","latitude":"30.62474966","address":"湖北省武汉市青山区吾行里2栋1006(建设二路地铁站A口步行260米)"}
,
{"name":"鑫皇朝酒店","longitude":"114.3678041","latitude":"30.62439224","address":"湖北省武汉市青山区和平大道1244号(建设二路地铁站A口步行410米)"}
,
{"name":"武汉X-time拾光纪公寓","longitude":"114.3690441","latitude":"30.62469873","address":"湖北省武汉市青山区52街智绘城吾行里2号楼12层22号"}
,
{"name":"武汉玖悦小筑民宿","longitude":"114.369082","latitude":"30.62478265","address":"湖北省武汉市青山区和平大道955号吾行里二号楼401室"}
,
{"name":"吾行里拾光纪公寓式酒店","longitude":"114.369102","latitude":"30.62503852","address":"湖北省武汉市青山区建设一路与和平大道交叉口东180米"}
,
{"name":"奈伽电竞酒店(武汉高铁众圆广场店)","longitude":"114.3688132","latitude":"30.6249009","address":"湖北省武汉市青山区和平大道52街坊智绘城2号楼2号楼单元6层号房"}
,
{"name":"原本民宿(武汉众圆广场店)","longitude":"114.369097","latitude":"30.62470167","address":"湖北省武汉市青山区和平大道吾行里2栋15楼1505(优居酒店楼上)"}
,
{"name":"玖悦影院酒店式公寓","longitude":"114.3689971","latitude":"30.62480174","address":"湖北省武汉市青山区建设一路与和平大道交叉口东约180米"}
,
{"name":"吾行里民宿","longitude":"114.3688122","latitude":"30.62511381","address":"湖北省武汉市青山区建设一路与和平大道交叉口东160米"}
,
{"name":"优居酒店(武汉高铁众圆广场店)","longitude":"114.3690271","latitude":"30.62470574","address":"湖北省武汉市青山区武汉市青山区和平大道955号建设二路吾行里"}
,
{"name":"呦西拾光纪酒店式公寓(青山众圆广场店)","longitude":"114.36918","latitude":"30.6246396","address":"湖北省武汉市青山区吾行里(和平大道建设二路路公交站)"}
,
{"name":"天伦酒店","longitude":"114.3678949","latitude":"30.62565462","address":"湖北省武汉市青山区和平大道949号(建设二路地铁站D口步行250米)"}
,
{"name":"7天连锁酒店(武汉台北一路店)","longitude":"114.2724029","latitude":"30.59501338","address":"湖北省武汉市江岸区台北一路38号"}
,
{"name":"武汉云山居酒店公寓","longitude":"114.2724867","latitude":"30.59660468","address":"湖北省武汉市江岸区台北一路9号云林公馆(取水楼地铁站E口步行480米)"}
,
{"name":"武汉Uuuushy公寓","longitude":"114.272083","latitude":"30.59637318","address":"湖北省武汉市江岸区云林街71号"}
,
{"name":"武汉刘元皓公寓(19号店)","longitude":"114.2721699","latitude":"30.59612719","address":"湖北省武汉市江岸区云林街观湖铂金公寓"}
,
{"name":"武汉大牌公寓(11号店)","longitude":"114.272084","latitude":"30.59637518","address":"湖北省武汉市江岸区云林街与台北一路交叉口西北约160米"}
,
{"name":"武汉本树家酒店","longitude":"114.272087","latitude":"30.59644415","address":"湖北省武汉市江岸区云林街与台北一路交叉口西北约160米"}
,
{"name":"武汉刘元皓公寓(17号店)","longitude":"114.272083","latitude":"30.59637318","address":"湖北省武汉市江岸区云林街与台北一路交叉口西北约160米"}
,
{"name":"武汉汉口江汉路步行街商圈/万松园美食街湖景房公寓(3号店)","longitude":"114.2733294","latitude":"30.59488347","address":"湖北省武汉市江岸区台北一路52号"}
,
{"name":"观湖铂金酒店","longitude":"114.2819612","latitude":"30.59321292","address":"湖北省武汉市江岸区台北路与解放大道交叉口西北140米"}
,
{"name":"雅斯特酒店(武汉台北路循礼门地铁站店)","longitude":"114.282169","latitude":"30.59366447","address":"湖北省武汉市江岸区台北路6号"}
,
{"name":"单洞旅社","longitude":"114.2805235","latitude":"30.59211119","address":"湖北省武汉市江岸区解放大道与解放大道辅路交叉口西北约180米"}
,
{"name":"武汉金鹏旅社","longitude":"114.2792437","latitude":"30.59067734","address":"湖北省武汉市江岸区西马路渣家路132号(田师傅香辣蟹旁)"}
,
{"name":"佳时得·逸酒店(武汉江汉路步行街店)","longitude":"114.2837897","latitude":"30.59083239","address":"湖北省武汉市江岸区黄石路101号(循礼门地铁站G口步行440米)"}
,
{"name":"武汉武汉佳寓先生公寓","longitude":"114.2838737","latitude":"30.59067834","address":"湖北省武汉市江岸区黄石路101号(循礼门地铁站G口步行430米)"}
,
{"name":"武汉鑫锐时尚旅馆","longitude":"114.2856638","latitude":"30.59223426","address":"湖北省武汉市江岸区安静后街13附3号(大智路地铁站G口步行440米)"}
,
{"name":"佳缘出租屋","longitude":"114.2845859","latitude":"30.59092327","address":"湖北省武汉市江岸区京汉大道与黄石路交汇处国药中医馆旁边"}
,
{"name":"武汉青隐趣公寓(京汉大道分店)","longitude":"114.2857987","latitude":"30.59115948","address":"湖北省武汉市江岸区京汉大道与瑞祥路交叉口西南约60米"}
,
{"name":"易捷优选连锁酒店(武汉大智路店)","longitude":"114.285547","latitude":"30.59122481","address":"湖北省武汉市江岸区京汉大道952附4金色未来"}
,
{"name":"广发租房","longitude":"114.2827333","latitude":"30.59603281","address":"湖北省武汉市江岸区台东路台中新居91号"}
,
{"name":"金苹果酒店","longitude":"114.2803874","latitude":"30.59490629","address":"湖北省武汉市江岸区台北街办事处台北路68号(台东路1号)"}
,
{"name":"维也纳3好酒店(台北路店)","longitude":"114.2818163","latitude":"30.59380788","address":"湖北省武汉市江岸区台北路12号"}
,
{"name":"城市便捷酒店(武汉台北路青少年宫店)","longitude":"114.2804124","latitude":"30.59524513","address":"湖北省武汉市江岸区台北路70号"}
,
{"name":"武汉时尚出租屋","longitude":"114.2815713","latitude":"30.59576044","address":"湖北省武汉市江岸区高雄路1号(高雄一号1楼102 103)"}
,
{"name":"平底锅电竞酒店(武汉台北路店)","longitude":"114.2801066","latitude":"30.59513656","address":"湖北省武汉市江岸区台北路70号"}
,
{"name":"怡莱酒店(武汉香港路地铁站店)","longitude":"114.2747023","latitude":"30.60930633","address":"湖北省武汉市江汉区香江路17号(香港路地铁站F口步行420米)"}
,
{"name":"优墨公寓","longitude":"114.2742307","latitude":"30.60812632","address":"湖北省武汉市江汉区香江路20号(菱角湖地铁站C口步行410米)"}
,
{"name":"兆瑞国际大酒店","longitude":"114.2792634","latitude":"30.60533161","address":"湖北省武汉市江岸区高雄路160号"}
,
{"name":"如家酒店","longitude":"114.2803877","latitude":"30.60326103","address":"湖北省武汉市江岸区花莲里10号"}
,
{"name":"城市便捷酒店(武汉儿童医院香港路地铁站店)","longitude":"114.2817584","latitude":"30.60472569","address":"湖北省武汉市江岸区香港路153号(香港路地铁站B口步行240米)"}
,
{"name":"青睐旅店","longitude":"114.280029","latitude":"30.60356136","address":"湖北省武汉市江岸区台北街办事处高雄路花莲里13号"}
,
{"name":"怡园宾馆(儿童医院)","longitude":"114.2810269","latitude":"30.60550833","address":"湖北省武汉市江岸区香港路175-4号(儿童医院对面)"}
,
{"name":"佳翔客房部","longitude":"114.2791606","latitude":"30.60401626","address":"湖北省武汉市江岸区西马街办事处高雄路155号"}
,
{"name":"武汉然逅民宿(港澳台风情街店)","longitude":"114.2792534","latitude":"30.60593639","address":"湖北省武汉市江岸区高雄路156-2号附近(香港路地铁站B口步行110米)"}
,
{"name":"武汉民宿风大居室公寓","longitude":"114.2837057","latitude":"30.60355356","address":"湖北省武汉市江岸区香港路90号综合楼农行综合大楼"}
,
{"name":"武汉路客民宿BI6410","longitude":"114.2825687","latitude":"30.60398292","address":"湖北省武汉市江岸区香港路63号华美国际公寓"}
,
{"name":"武汉漫·寓公寓(宝岛公园分店)","longitude":"114.2829204","latitude":"30.60350064","address":"湖北省武汉市江岸区香港路117号华美国际817室"}
,
{"name":"7天连锁酒店(武汉澳门路儿童医院店)","longitude":"114.282984","latitude":"30.60787482","address":"湖北省武汉市江岸区澳门路272号"}
,
{"name":"唯度国际青年酒店(武汉儿童医院店)","longitude":"114.2839201","latitude":"30.60829139","address":"湖北省武汉市江岸区开明路特44号"}
,
{"name":"来旺达轻居酒店(武汉儿童医院香港路地铁站店)","longitude":"114.2848852","latitude":"30.60774728","address":"湖北省武汉市江岸区澳门路金冠大厦1层 5层 6层"}
,
{"name":"武汉龙港商务酒店","longitude":"114.2071405","latitude":"30.55217596","address":"湖北省武汉市汉阳区芳草路十里景秀对面"}
,
{"name":"泊濠大酒店(装修中)","longitude":"114.2055783","latitude":"30.54943088","address":"湖北省武汉市汉阳区龙兴东街22号"}
,
{"name":"武汉talent公寓","longitude":"114.2369471","latitude":"30.53136275","address":"湖北省武汉市汉阳区新城·春天里12栋"}
,
{"name":"华诚食尚酒店(江堤中路店)","longitude":"114.2424164","latitude":"30.53721678","address":"湖北省武汉市汉阳区江堤中路江腾苑C区特1号"}
,
{"name":"武汉汉阳玖玖商务酒店","longitude":"114.2426557","latitude":"30.53565231","address":"湖北省武汉市汉阳区江堤中路7附13号"}
,
{"name":"玺尔精品酒店(武汉国博店)","longitude":"114.2421884","latitude":"30.53454564","address":"湖北省武汉市汉阳区三里坡路附近"}
,
{"name":"一间森林青年客栈","longitude":"114.2428209","latitude":"30.53432675","address":"湖北省武汉市汉阳区马鹦路189号(广电·兰亭熙园小区旁)"}
,
{"name":"青橙酒店(武汉国际博览中心动物园店)","longitude":"114.2428389","latitude":"30.53436674","address":"湖北省武汉市汉阳区江堤中路新城丽景A区510栋门面"}
,
{"name":"楚天住宿","longitude":"114.3584768","latitude":"30.86451396","address":"湖北省武汉市黄陂区向阳大街11号"}
,
{"name":"楚天日租房","longitude":"114.3585088","latitude":"30.86447494","address":"湖北省武汉市黄陂区向阳大街汇贤雅苑南侧约70米"}
,
{"name":"武汉健康乐旅馆","longitude":"114.1731644","latitude":"30.51612425","address":"湖北省武汉市蔡甸区沌口经济技术开发区华苑大酒店旁富民路14号"}
,
{"name":"华苑大酒店","longitude":"114.1728374","latitude":"30.51661549","address":"湖北省武汉市蔡甸区经济技术开发区东风大道79号"}
,
{"name":"台湾人家别墅聚会轰趴","longitude":"114.1695199","latitude":"30.51658629","address":"湖北省武汉市蔡甸区东风大道金色港湾一期栖湖居10号"}
,
{"name":"万事兴客栈","longitude":"114.1729518","latitude":"30.51623782","address":"湖北省武汉市蔡甸区沌口街新民社区富民路4号、近华苑大酒店"}
,
{"name":"雅之家商务宾馆","longitude":"114.1720462","latitude":"30.51561132","address":"湖北省武汉市蔡甸区沌口东风大道71号附79号奥林花园"}
,
{"name":"豪仕宾馆(武汉奥林花园店)","longitude":"114.1719731","latitude":"30.51541925","address":"湖北省武汉市蔡甸区东风大道奥林花园商网5-7号"}
,
{"name":"武汉富民招待所","longitude":"114.1732928","latitude":"30.51605251","address":"湖北省武汉市蔡甸区富民路12号(三角湖地铁站A口步行350米)"}
,
{"name":"武汉张先生度假别墅","longitude":"114.1704735","latitude":"30.51784369","address":"湖北省武汉市蔡甸区金色港湾一期"}
,
{"name":"武汉李洁公寓","longitude":"114.1732665","latitude":"30.51907652","address":"湖北省武汉市蔡甸区太子湖北路与东风大道交叉口西约80米"}
,
{"name":"怡莱酒店(武汉三角湖地铁站店)","longitude":"114.1737069","latitude":"30.51754382","address":"湖北省武汉市蔡甸区东风大道71号奥林花园4栋商铺19号"}
,
{"name":"武汉朱雳度假别墅(2号店)","longitude":"114.1694928","latitude":"30.51697512","address":"湖北省武汉市蔡甸区金色港湾"}
,
{"name":"武汉砰砰砰公寓(新民村分店)","longitude":"114.169232","latitude":"30.51709059","address":"湖北省武汉市蔡甸区东风大道与富民路交叉口西北280米"}
,
{"name":"武汉别墅聚会轰趴派对(玩bar沌口店)","longitude":"114.1696182","latitude":"30.51640853","address":"湖北省武汉市蔡甸区武汉沌口开发区东风大道68号金色港湾一期"}
,
{"name":"雅之家商务宾馆-3号线三角湖站(A出口)","longitude":"114.1721385","latitude":"30.51562849","address":"湖北省武汉市蔡甸区东风大道71附79号(三角湖地铁站A口步行370米)"}
,
{"name":"城市便捷酒店(武汉汉阳三角湖地铁站店)","longitude":"114.1735693","latitude":"30.51911008","address":"湖北省武汉市蔡甸区沌口经济技术开发区东风大道66号三角湖地铁站D出口"}
,
{"name":"武汉别墅轰趴蛋老板(东风大道分店)","longitude":"114.1733633","latitude":"30.52458197","address":"湖北省武汉市蔡甸区金色港湾3期"}
,
{"name":"武汉绿色街区公寓(博学路分店)","longitude":"114.1468499","latitude":"30.52000655","address":"湖北省武汉市蔡甸区博学路与博研路交叉口东北约160米"}
,
{"name":"艳阳天酒店(宝丰店)","longitude":"114.2444873","latitude":"30.57790859","address":"湖北省武汉市硚口区宝丰路185号(硚口轻轨旁)"}
,
{"name":"武汉葛洲坝美爵酒店","longitude":"114.2458791","latitude":"30.57887118","address":"湖北省武汉市硚口区解放大道558号"}
,
{"name":"华坤精选酒店(武汉同济医院店)","longitude":"114.2470316","latitude":"30.58063442","address":"湖北省武汉市硚口区宝丰路1号"}
,
{"name":"武汉葛洲坝美居酒店","longitude":"114.2461863","latitude":"30.57884017","address":"湖北省武汉市硚口区解放大道558号"}
,
{"name":"武汉晶士达酒店","longitude":"114.2461473","latitude":"30.5779555","address":"湖北省武汉市硚口区硚口路185号(硚口路地铁站A口步行460米)"}
,
{"name":"哈啰轻主题酒店(武汉硚口路地铁站店)","longitude":"114.2468747","latitude":"30.57783548","address":"湖北省武汉市硚口区硚口路166号特1号6楼"}
,
{"name":"红宝旅社","longitude":"114.2450165","latitude":"30.57985585","address":"湖北省武汉市硚口区宝丰路营房后街付63号"}
,
{"name":"武汉圆梦住宿","longitude":"114.2457539","latitude":"30.58046859","address":"湖北省武汉市硚口区秀云家常菜(宝丰路店)兰州拉面旁"}
,
{"name":"都乐旅馆","longitude":"114.2458119","latitude":"30.58078747","address":"湖北省武汉市硚口区营房路十三号"}
,
{"name":"如家酒店(武汉同济医院解放大道店)","longitude":"114.2461381","latitude":"30.58003973","address":"湖北省武汉市硚口区解放大道1005号"}
,
{"name":"武汉梦行者电竞民宿连锁公寓(痣缘宫分店)","longitude":"114.2473449","latitude":"30.57854916","address":"湖北省武汉市硚口区武汉城市广场停车场(南出入口)"}
,
{"name":"蓝天宾馆","longitude":"114.2492766","latitude":"30.58097796","address":"湖北省武汉市硚口区解放大道1049号"}
,
{"name":"武汉Launki公寓","longitude":"114.2488306","latitude":"30.57957656","address":"湖北省武汉市硚口区解放大道辅路与宝丰一路交叉口东南120米"}
,
{"name":"武汉万盏星宾馆","longitude":"114.2494788","latitude":"30.57986234","address":"湖北省武汉市硚口区解放大道586号同馨花园二期3层(同济医院斜对面)"}
,
{"name":"维也纳国际酒店解放大道店(正门)","longitude":"114.2486455","latitude":"30.57937267","address":"湖北省武汉市硚口区解放大道辅路与硚口路辅路交叉口东南约120米"}
,
{"name":"武汉途掌柜106633精品民宿","longitude":"114.2503133","latitude":"30.57792287","address":"湖北省武汉市硚口区同馨花园-雍豪府"}
,
{"name":"维也纳国际酒店(解放大道同济医学院店)-会议厅","longitude":"114.2485725","latitude":"30.57937268","address":"湖北省武汉市硚口区解放大道中御广场"}
,
{"name":"宝丰宾馆","longitude":"114.2489614","latitude":"30.58217857","address":"湖北省武汉市硚口区宝丰二路14号"}
,
{"name":"蓝天宾馆北楼","longitude":"114.2491315","latitude":"30.58140583","address":"湖北省武汉市硚口区解放大道1049号"}
,
{"name":"香溢大酒店(宝丰一路)","longitude":"114.248046","latitude":"30.58203477","address":"湖北省武汉市硚口区宝丰路6号"}
,
{"name":"武汉万顺出租屋","longitude":"114.2485633","latitude":"30.58153388","address":"湖北省武汉市硚口区宝丰二路4号"}
,
{"name":"秋果酒店(武汉解放大道同济医院店)","longitude":"114.2497916","latitude":"30.58364386","address":"湖北省武汉市硚口区宝丰二路22号"}
,
{"name":"武汉海缘商务酒店公寓","longitude":"114.247996","latitude":"30.5811641","address":"湖北省武汉市硚口区宝丰一路与宝丰二路交叉口东南约40米"}
,
{"name":"三合宾馆(武汉宝丰路店)","longitude":"114.2472946","latitude":"30.58224479","address":"湖北省武汉市硚口区宝丰路31号"}
,
{"name":"轻住·金泉精选(宝丰路同济医院店)","longitude":"114.2472946","latitude":"30.58177697","address":"湖北省武汉市硚口区宝丰一路57号(高架桥下)"}
,
{"name":"武汉修伍旅馆","longitude":"114.2454245","latitude":"30.58199604","address":"湖北省武汉市硚口区营房路营房一村10号(近同济医院、武汉肺科医院)"}
,
{"name":"运7酒店(武汉解放大道同济医院店)","longitude":"114.2455337","latitude":"30.5810244","address":"湖北省武汉市硚口区解放大道营房路19号"}
,
{"name":"武汉阆苑美宿子淇特色民宿(营房侧路分店)","longitude":"114.2464151","latitude":"30.58176506","address":"湖北省武汉市硚口区宝丰路23号时代天骄"}
,
{"name":"武汉梅园宾馆","longitude":"114.2527519","latitude":"30.58090009","address":"湖北省武汉市硚口区汉口解放大道1091号(同济医院旁)"}
,
{"name":"军休招待所","longitude":"114.2512504","latitude":"30.58053167","address":"湖北省武汉市硚口区解放大道1063号空后大院"}
,
{"name":"梅园宾馆西院","longitude":"114.2521597","latitude":"30.58092027","address":"湖北省武汉市硚口区解放大道1091号"}
,
{"name":"梅园宾馆东院","longitude":"114.2533711","latitude":"30.58087489","address":"湖北省武汉市硚口区解放大道1091号"}
,
{"name":"百果园(梅园宾馆店)","longitude":"114.2533481","latitude":"30.58043407","address":"湖北省武汉市硚口区解放大道1091附1号"}
,
{"name":"城市便捷酒店(武汉航空路同济医院店)","longitude":"114.2534152","latitude":"30.57945341","address":"湖北省武汉市硚口区解放大道610号"}
,
{"name":"武汉万家都市宾馆","longitude":"114.2769055","latitude":"30.59034727","address":"湖北省武汉市江岸区江汉北路渣家村1号(二十八中学对面)"}
,
{"name":"武汉花花的公寓(武汉九龙宫陵园分店)","longitude":"114.2759053","latitude":"30.58849312","address":"湖北省武汉市江汉区循礼门循礼社区85号"}
,
{"name":"77连锁酒店(武汉循礼门单洞街花市店)","longitude":"114.2784816","latitude":"30.5874465","address":"湖北省武汉市江汉区解放大道910号(循礼门地铁站A口步行110米)"}
,
{"name":"武汉莫凡的家","longitude":"114.2743193","latitude":"30.58982036","address":"湖北省武汉市江汉区江汉北路83号东方时空31层3103室"}
,
{"name":"武汉localbao武汉店公寓(4号店)","longitude":"114.2747209","latitude":"30.5904187","address":"湖北省武汉市江汉区江汉北路与渣家左路交叉口西约160米"}
,
{"name":"武汉路客BF3320精品民宿","longitude":"114.2747209","latitude":"30.5904147","address":"湖北省武汉市江汉区江汉北路江都仕嘉"}
,
{"name":"湖北民航大酒店(暂停营业)","longitude":"114.2742182","latitude":"30.59094105","address":"湖北省武汉市江汉区江汉北路109号"}
,
{"name":"武汉大米爱家公寓","longitude":"114.2734716","latitude":"30.5918315","address":"湖北省武汉市江岸区江汉北路34号九运大厦"}
,
{"name":"丽枫酒店(武汉江汉路循礼门地铁站店)","longitude":"114.2735635","latitude":"30.59198135","address":"湖北省武汉市江岸区江汉北路34号九运大厦"}
,
{"name":"武汉大米民宿(3号店)","longitude":"114.2734806","latitude":"30.59194445","address":"湖北省武汉市江岸区江汉北路与精武三路交叉口北约40米"}
,
{"name":"如家酒店(武汉循礼门地铁站江汉北路店)","longitude":"114.2770692","latitude":"30.59189048","address":"湖北省武汉市江岸区渣家左路296号"}
,
{"name":"武汉摄影师Lana公寓","longitude":"114.278817","latitude":"30.59069786","address":"湖北省武汉市江岸区金茂大楼(江汉北路)(循礼门地铁站E口步行390米)"}
,
{"name":"企家公寓循礼门店","longitude":"114.2755464","latitude":"30.59086362","address":"湖北省武汉市江岸区江汉北路14号"}
,
{"name":"德诚旅馆","longitude":"114.2755784","latitude":"30.5908206","address":"湖北省武汉市江岸区江汉北路14号"}
,
{"name":"爱尔主题酒店","longitude":"114.6153825","latitude":"30.49209509","address":"湖北省武汉市洪山区九龙湖街左岭新城二期11号商铺"}
,
{"name":"A.酒店","longitude":"114.6153845","latitude":"30.4920351","address":"湖北省武汉市洪山区九龙湖街左岭街祥龙社区"}
,
{"name":"武汉张美荣公寓","longitude":"114.6136081","latitude":"30.49158482","address":"湖北省武汉市洪山区吴家桥路与杨家咀路交叉口东约160米"}
,
{"name":"武汉柏菲主题酒店","longitude":"114.6196612","latitude":"30.49192985","address":"湖北省武汉市洪山区东湖新技术开发区左岭新城一期商铺A005号"}
,
{"name":"武汉欧漫优选酒店","longitude":"114.6196672","latitude":"30.4920748","address":"湖北省武汉市洪山区高新大道左岭新城黄陂岭社区一期16栋商铺A007号"}
,
{"name":"武汉洪泰宾馆","longitude":"114.6198798","latitude":"30.494089","address":"湖北省武汉市洪山区新东湖技术开发区左岭新城黄陂岭社区C区14号楼2层"}
,
{"name":"武汉悦享嘉快捷宾馆","longitude":"114.6196612","latitude":"30.4928146","address":"湖北省武汉市洪山区东湖新技术开发区左岭新城一期商铺A019-021-023号"}
,
{"name":"亚季商旅酒店","longitude":"114.6169329","latitude":"30.49374613","address":"湖北省武汉市洪山区九龙湖街左岭街道星芯社区"}
,
{"name":"优居商旅酒店","longitude":"114.6185363","latitude":"30.49351358","address":"湖北省武汉市洪山区高新大道左岭新城一期商铺B038-B052"}
,
{"name":"翰林轩商务酒店","longitude":"114.618792","latitude":"30.49346933","address":"湖北省武汉市洪山区左岭新城一期商铺B028、B030、B032、B034(二楼)"}
,
{"name":"世纪商务酒店(武汉左岭新城店)","longitude":"114.6194663","latitude":"30.49403745","address":"湖北省武汉市洪山区高新大道光谷左岭新城A区8栋中百超市正对面"}
,
{"name":"武汉和之宾馆","longitude":"114.6177551","latitude":"30.49325946","address":"湖北省武汉市洪山区科技二路左岭新城二社区B-43商铺"}
,
{"name":"米兰精品酒店(武汉左岭新城店)","longitude":"114.6199477","latitude":"30.49430886","address":"湖北省武汉市洪山区东湖新技术开发区左岭新城一社区14栋A-036号"}
,
{"name":"泰宁商务宾馆(武汉左岭新城店)","longitude":"114.6192396","latitude":"30.49328991","address":"湖北省武汉市洪山区高新大道左岭新城1社区17号楼商B005 华星光电集团旁"}
,
{"name":"婧彧公寓","longitude":"114.6143333","latitude":"30.49294379","address":"湖北省武汉市洪山区科技二路与九龙湖街交叉口西南140米"}
,
{"name":"柏菲主题酒店","longitude":"114.6150767","latitude":"30.49299411","address":"湖北省武汉市洪山区科技二路与九龙湖街交叉口西南80米"}
,
{"name":"精途酒店(武汉左岭新城店)","longitude":"114.615906","latitude":"30.49261845","address":"湖北省武汉市洪山区高新大道左岭新城商铺一期B区左岭商城三楼"}
,
{"name":"精途酒店(武汉极地海洋常青城地铁站店)","longitude":"114.2550326","latitude":"30.66041765","address":"湖北省武汉市东西湖区将军四路9号"}
,
{"name":"墨凡电竞酒店","longitude":"114.2140174","latitude":"30.65839405","address":"湖北省武汉市东西湖区汀香北路武汉轻工大学(金银湖校区)西北侧约80米"}
,
{"name":"沿海城市连锁酒店(武汉轻工大店)","longitude":"114.2140154","latitude":"30.65842603","address":"湖北省武汉市东西湖区马池中路9号汉口印象11栋(轻工大学后门)"}
,
{"name":"荣盛精品酒店","longitude":"114.2096922","latitude":"30.66432148","address":"湖北省武汉市东西湖区环湖路73号附7(银湖水榭公交站旁)"}
,
{"name":"丁香酒店","longitude":"114.2100751","latitude":"30.66297554","address":"湖北省武汉市东西湖区环湖路73号银湖水榭"}
,
{"name":"宜居酒店(武汉文化大道北华街地铁站店)","longitude":"114.3187597","latitude":"30.36087882","address":"湖北省武汉市江夏区纸坊街北华街24号与文化大道交汇处商贸物流中心乙区4层"}
,
{"name":"党校宾馆(武汉江夏客运站北华街地铁站店)","longitude":"114.3154251","latitude":"30.36159605","address":"湖北省武汉市江夏区北华街30号(江夏客运中心西侧)"}
,
{"name":"7天住宿(兴新街)","longitude":"114.327723","latitude":"30.35009533","address":"湖北省武汉市江夏区纸坊街长塘叶湾锶业小区109号"}
,
{"name":"迷她主题酒店","longitude":"114.3284409","latitude":"30.34951804","address":"湖北省武汉市江夏区纸坊新兴街武汉工程科技学院西门"}
,
{"name":"武汉吉祥公寓","longitude":"114.3282852","latitude":"30.34921539","address":"湖北省武汉市江夏区纸坊大街锶业里149号楼"}
,
{"name":"武汉驿旅阳光民宿","longitude":"114.3284018","latitude":"30.35212772","address":"湖北省武汉市江夏区纸坊兴新街长塘叶3号"}
,
{"name":"武汉千寻公寓","longitude":"114.3283929","latitude":"30.35068096","address":"湖北省武汉市江夏区兴新街锶业小区120号楼2楼"}
,
{"name":"武汉福利彩票公寓","longitude":"114.3283639","latitude":"30.35093098","address":"湖北省武汉市江夏区长塘叶湾303号 武汉工程科技学院西门419号"}
,
{"name":"ADC电竞酒店公寓(武汉工程科技学院店)(暂停营业)","longitude":"114.3283599","latitude":"30.35092899","address":"湖北省武汉市江夏区学府路长塘叶湾409号"}
,
{"name":"武汉美硕商务宾馆","longitude":"114.3287283","latitude":"30.35105627","address":"湖北省武汉市江夏区长塘叶399号"}
,
{"name":"武汉橡树湾主题公寓","longitude":"114.3279038","latitude":"30.34926311","address":"湖北省武汉市江夏区纸坊兴新街锶业里158号"}
,
{"name":"武汉蔷薇快捷旅店","longitude":"114.3281913","latitude":"30.34959551","address":"湖北省武汉市江夏区纸坊街锶业里140号武汉工程科技学院西门蔷薇网咖楼上"}
,
{"name":"武汉四季民宿","longitude":"114.3278868","latitude":"30.34956809","address":"湖北省武汉市江夏区纸坊街道地大西门锶业里138号"}
,
{"name":"武汉幸福住宿","longitude":"114.3285876","latitude":"30.35108553","address":"湖北省武汉市江夏区兴新街203号(中国地质大学江城学院西门)"}
,
{"name":"宏兴住宿(兴新街)","longitude":"114.327729","latitude":"30.35013331","address":"湖北省武汉市江夏区兴新街与长塘叶交叉口西100米"}
,
{"name":"武汉学缘住宿","longitude":"114.3282382","latitude":"30.35064426","address":"湖北省武汉市江夏区纸坊街道武汉工程科技学院西门50米处"}
,
{"name":"武汉江城荟酒店","longitude":"114.3282323","latitude":"30.34952244","address":"湖北省武汉市江夏区新兴街锶业里132号(武汉工程科技学院西门口蔷薇网咖对门)"}
,
{"name":"花晨月夕民宿","longitude":"114.3279108","latitude":"30.34912511","address":"湖北省武汉市江夏区新兴街学府路锶业里145楼"}
,
{"name":"金地公寓","longitude":"114.328345","latitude":"30.351007","address":"湖北省武汉市江夏区长塘叶405号"}
,
{"name":"枫林晚宾馆","longitude":"114.3285706","latitude":"30.35057864","address":"湖北省武汉市江夏区纸坊街道新兴街学府路83号蜜雪冰城4楼"}
,
{"name":"FUSN公寓","longitude":"114.3276779","latitude":"30.3521411","address":"湖北省武汉市江夏区纸坊街城关村长塘叶湾441号武汉工程科技学院西门旁"}
,
{"name":"七日主题旅店","longitude":"114.327773","latitude":"30.35024321","address":"湖北省武汉市江夏区兴新街锶业小区109号"}
,
{"name":"C·椿宿","longitude":"114.3288271","latitude":"30.35144002","address":"湖北省武汉市江夏区纸坊大街长塘叶479号"}
,
{"name":"武汉心语住宿","longitude":"114.3288082","latitude":"30.35125308","address":"湖北省武汉市江夏区兴新街长塘叶湾392号 近地大江城学院西门"}
,
{"name":"鑫缘住宿(任家巷)","longitude":"114.3279268","latitude":"30.34925106","address":"湖北省武汉市江夏区ID舞蹈工作室蔷薇网吧旁"}
,
{"name":"武汉金鑫时尚公寓","longitude":"114.3284527","latitude":"30.35171769","address":"湖北省武汉市江夏区工程科技学院西门长塘叶483号"}
,
{"name":"千寻民宿","longitude":"114.3276422","latitude":"30.34972554","address":"湖北省武汉市江夏区兴新街中国地质大学江城学院西门锶业小区105号"}
,
{"name":"武汉夜归人住宿","longitude":"114.3279827","latitude":"30.34957691","address":"湖北省武汉市江夏区锶业小区139号"}
,
{"name":"吉祥宾馆(武汉工程科技学院店)","longitude":"114.3286045","latitude":"30.35110849","address":"湖北省武汉市江夏区长塘叶湾397"}
,
{"name":"武汉吉祥公寓(熊廷弼街江广农贸市场分店)","longitude":"114.3287533","latitude":"30.35095723","address":"湖北省武汉市江夏区纸坊街长塘叶湾397号(武汉工程科技学院西门)"}
,
{"name":"舒心住宿(武汉工程科技学院店)","longitude":"114.327767","latitude":"30.35026522","address":"湖北省武汉市江夏区学府路130号 临近华莱士"}
,
{"name":"阳光宾馆(武汉工程科技学院店)","longitude":"114.3286654","latitude":"30.35107338","address":"湖北省武汉市江夏区纸坊街长塘叶湾398号地质大学江城学院西门"}
,
{"name":"学友宾馆(武汉工程科技学院湖北生态工程职业学院店)","longitude":"114.3286774","latitude":"30.35067842","address":"湖北省武汉市江夏区纸坊街长塘叶416号"}
,
{"name":"C·椿宿酒店(工程科技学院湖北生态工程职业技术学院店)","longitude":"114.328873","latitude":"30.35168789","address":"湖北省武汉市江夏区工程科技学院西门长塘叶480号"}
,
{"name":"仙桃人家宾馆(武汉工程科技学院店)","longitude":"114.3288232","latitude":"30.35075313","address":"湖北省武汉市江夏区兴新街长塘叶湾397号(距武汉工程科技学院西门10米)"}
,
{"name":"宏兴公寓(武汉工程科技学院湖北生态工程职业学院店)","longitude":"114.327729","latitude":"30.35013331","address":"湖北省武汉市江夏区纸坊街锶业里106号"}
,
{"name":"好家公寓(武汉工程科技学院湖北生态工程职业技术学院店)","longitude":"114.3279167","latitude":"30.35015995","address":"湖北省武汉市江夏区兴新街锶业小区107号"}
,
{"name":"宜佳园宾馆(武汉工程科技学院湖北生态工程职业学院店)","longitude":"114.3284987","latitude":"30.3510867","address":"湖北省武汉市江夏区兴新街长塘叶湾400号"}
,
{"name":"瑞祥旅社","longitude":"113.9426428","latitude":"30.69890676","address":"湖北省武汉市东西湖区纺新街武汉市新沟中学南侧约150米"}
,
{"name":"群仙酒店","longitude":"113.941997","latitude":"30.69549567","address":"湖北省武汉市东西湖区后街31号"}
,
{"name":"田园农家酒店","longitude":"113.942513","latitude":"30.69829531","address":"湖北省武汉市东西湖区新沟镇荷新路8号"}
,
{"name":"武汉吉祥商务宾馆","longitude":"114.2908053","latitude":"30.54472684","address":"湖北省武汉市武昌区黄鹤楼街办事处彭刘杨路113号"}
,
{"name":"如家快捷酒店(武汉户部巷店)","longitude":"114.293983","latitude":"30.55055886","address":"湖北省武汉市武昌区解放路457号"}
,
{"name":"如家酒店(武汉粮道街司门口黄鹤楼地铁站店)","longitude":"114.2942077","latitude":"30.55049352","address":"湖北省武汉市武昌区解放路457号(司门口黄鹤楼地铁站C口步行300米)"}
,
{"name":"武汉自由城客栈","longitude":"114.2949199","latitude":"30.5498096","address":"湖北省武汉市武昌区中华路街自由路122号"}
,
{"name":"龙洋大酒店","longitude":"114.294798","latitude":"30.54979481","address":"湖北省武汉市武昌区司门口户部巷对面江汉环球影楼二三楼"}
,
{"name":"自由城际宾馆(武汉黄鹤楼户部巷店)","longitude":"114.294798","latitude":"30.54979481","address":"湖北省武汉市武昌区自由路户部巷大门正对面(环球电影城旁)"}
,
{"name":"凯莱熙酒店","longitude":"114.2951064","latitude":"30.55181161","address":"湖北省武汉市武昌区解放路456号(司门口黄鹤楼地铁站C口步行330米)"}
,
{"name":"成开青年酒店","longitude":"114.2947889","latitude":"30.55114536","address":"湖北省武汉市武昌区解放路450号(司门口黄鹤楼地铁站C口步行380米)"}
,
{"name":"武汉易捷城市酒店(解放路店)","longitude":"114.2950266","latitude":"30.55142088","address":"湖北省武汉市武昌区解放路454号(司门口黄鹤楼地铁站C口步行420米)"}
,
{"name":"武汉好梦青年旅行酒店","longitude":"114.2946631","latitude":"30.55085166","address":"湖北省武汉市武昌区解放路448号(司门口黄鹤楼地铁站C口步行350米)"}
,
{"name":"英若宾馆","longitude":"114.2953101","latitude":"30.55228212","address":"湖北省武汉市武昌区解放路486号电影院4楼"}
,
{"name":"哈啰轻酒店（武汉户部巷店）","longitude":"114.2949936","latitude":"30.55144492","address":"湖北省武汉市武昌区解放路454附201号"}
,
{"name":"成开宾馆(解放路)","longitude":"114.294755","latitude":"30.55108043","address":"湖北省武汉市武昌区中华路街办事处解放路司门口"}
,
{"name":"戴丁连锁影院客栈(户部巷店)","longitude":"114.2952872","latitude":"30.55223817","address":"湖北省武汉市武昌区解放路458号2层"}
,
{"name":"武汉楚材旅馆(黄鹤楼户部巷店)","longitude":"114.2960923","latitude":"30.55085832","address":"湖北省武汉市武昌区司门口粮道街楚材小区10栋(老1栋)1层1号"}
,
{"name":"武汉新成开商务宾馆(户部巷司门口店)","longitude":"114.2947979","latitude":"30.55114534","address":"湖北省武汉市武昌区解放路482号(司门口黄鹤楼地铁站C口步行390米)"}
,
{"name":"清能清江饭店(武汉黄鹤楼店)","longitude":"114.2936353","latitude":"30.55213487","address":"湖北省武汉市武昌区中华路57号"}
,
{"name":"武汉武昌悦来客栈","longitude":"114.293054","latitude":"30.55146303","address":"湖北省武汉市武昌区都府堤48号"}
,
{"name":"武昌饭店","longitude":"114.2943345","latitude":"30.55091517","address":"湖北省武汉市武昌区解放路户部巷社区(司门口黄鹤楼地铁站C口步行350米)"}
,
{"name":"武汉品游酒店","longitude":"114.2929472","latitude":"30.55127926","address":"湖北省武汉市武昌区中华路街道户部巷都府堤44号1-1"}
,
{"name":"武汉金凯旋宾馆","longitude":"114.2634273","latitude":"30.47780776","address":"湖北省武汉市洪山区白沙洲大道白沙五路湘龙鑫城2-14"}
,
{"name":"武汉湘龙宾馆","longitude":"114.2632263","latitude":"30.47824379","address":"湖北省武汉市洪山区白沙洲大道白沙五路湘龙鑫城2-25号"}
,
{"name":"武汉城市精品酒店","longitude":"114.2621663","latitude":"30.47928823","address":"湖北省武汉市洪山区白沙五路湘龙鑫城15栋16号"}
,
{"name":"金色世家棋牌宾馆","longitude":"114.2599164","latitude":"30.48029337","address":"湖北省武汉市洪山区白沙洲街办事处白沙洲大道白沙五路观庭金色世家门面店BO23"}
,
{"name":"武汉宜家王姐姐民宿","longitude":"114.2425932","latitude":"30.65621069","address":"湖北省武汉市东西湖区金银潭大道辅路(凯旋名居小区)"}
,
{"name":"武汉路客民宿BD9630","longitude":"114.2074658","latitude":"30.67249403","address":"湖北省武汉市东西湖区环湖中路18号奥林匹克花园"}
,
{"name":"武汉慢姑娘奥林匹克花园别墅","longitude":"114.2058029","latitude":"30.67557148","address":"湖北省武汉市东西湖区奥林匹克花园3期10栋3号"}
,
{"name":"明德酒店(三角湖路)","longitude":"114.1558398","latitude":"30.51130634","address":"湖北省武汉市蔡甸区经济技术开发区三角湖路8号"}
,
{"name":"万国缘宾馆","longitude":"114.054004","latitude":"30.62756806","address":"湖北省武汉市东西湖区万国街与高桥四路交叉口西约180米"}
,
{"name":"如家快捷酒店","longitude":"114.1517039","latitude":"30.49116174","address":"湖北省武汉市蔡甸区沌阳大道55号二楼(沌阳大道地铁站A口旁)"}
,
{"name":"武汉经开希尔顿欢朋酒店","longitude":"114.1517641","latitude":"30.49056502","address":"湖北省武汉市蔡甸区武汉经济开发区沌阳大道411号"}
,
{"name":"武汉车都金盾大酒店","longitude":"114.1536301","latitude":"30.49312966","address":"湖北省武汉市蔡甸区经济技术开发区东风大道199号"}
,
{"name":"车都丽景酒店","longitude":"114.1505353","latitude":"30.49449869","address":"湖北省武汉市蔡甸区沌口开发区联城路阳光丽景小区"}
,
{"name":"丽曼宾馆","longitude":"114.1505514","latitude":"30.49449272","address":"湖北省武汉市蔡甸区联城路与联城西路交叉口北约40米"}
,
{"name":"这李好酒店","longitude":"114.1536301","latitude":"30.49302069","address":"湖北省武汉市蔡甸区创业路10号(沌阳大道地铁站B口步行290米)"}
,
{"name":"光明招待所(联城路店)","longitude":"114.1480095","latitude":"30.49199995","address":"湖北省武汉市蔡甸区武汉经济技术开发区沌阳大街郭蔡路68号"}
,
{"name":"武汉晶晶招待所","longitude":"114.1479443","latitude":"30.49226076","address":"湖北省武汉市蔡甸区经济开发区郭蔡路56号"}
,
{"name":"武汉观澜商务酒店","longitude":"114.1474848","latitude":"30.49477923","address":"湖北省武汉市蔡甸区沌阳大道世纪阳光花园404附39"}
,
{"name":"武汉友红招待所","longitude":"114.1482913","latitude":"30.49203343","address":"湖北省武汉市蔡甸区经济技术开发区沌阳街联城路50号"}
,
{"name":"迎宾招待所(郭蔡路店)","longitude":"114.1479864","latitude":"30.49206589","address":"湖北省武汉市蔡甸区武汉经济技术开发区郭徐岭郭蔡路66号"}
,
{"name":"东顺招待所","longitude":"114.1486472","latitude":"30.49274185","address":"湖北省武汉市蔡甸区郭蔡路郭徐岭广场西北侧约100米"}
,
{"name":"汉鑫旅社","longitude":"114.1473275","latitude":"30.49347033","address":"湖北省武汉市蔡甸区经济技术开发区郭蔡路23号"}
