[
{"name":"金穗大酒店","address":"蝙蝠街55附1","longitude":"114.032581","latitude":"30.587293","count":""}
,
{"name":"元亨客房棋牌","address":"汉阳大街101附1号","longitude":"114.030914","latitude":"30.580664","count":""}
,
{"name":"武汉元亨宾馆","address":"汉阳大街101附1号","longitude":"114.03073","latitude":"30.580855","count":""}
,
{"name":"金鑫旅社","address":"新福路16号(莲花湖中学对面)","longitude":"114.032981","latitude":"30.581753","count":""}
,
{"name":"金芒果酒店","address":"蔡姚路13号(原棉花大楼)","longitude":"114.033221","latitude":"30.573693","count":""}
,
{"name":"新运招待所(蔡张二路)","address":"蔡甸街蔡张二路49号","longitude":"114.025389","latitude":"30.590503","count":""}
,
{"name":"中山宾馆(蔡正街店)","address":"蔡正街86附2号","longitude":"114.028983","latitude":"30.583952","count":""}
,
{"name":"赤眼峰宾馆","address":"文兴路99号3栋","longitude":"114.023663","latitude":"30.579795","count":""}
,
{"name":"风荷园宾馆","address":"老屋台11号","longitude":"114.021217","latitude":"30.535696","count":""}
,
{"name":"如家旅社","address":"姚家林村58号","longitude":"114.020428","latitude":"30.535296","count":""}
,
{"name":"迎宾旅馆(同心店)","address":"汉阳大街劳保里36号近同心路","longitude":"114.037758","latitude":"30.577126","count":""}
,
{"name":"知音出租房","address":"姚家林村50号,长江大学旁","longitude":"114.023514","latitude":"30.536699","count":""}
,
{"name":"怡然旅社(工农路)","address":"汉阳大街122号","longitude":"114.041399","latitude":"30.575018","count":""}
,
{"name":"鑫鑫旅馆(树藩大街)","address":"树潘大街453号(老税务局旁)","longitude":"114.031165","latitude":"30.576126","count":""}
,
{"name":"天一旅社","address":"蔡甸街树藩大街463号(武汉市公安局蔡甸分局交通巡警大队东侧)","longitude":"114.033293","latitude":"30.576167","count":""}
,
{"name":"长海旅社(安全巷)","address":"树藩大街465号","longitude":"114.033305","latitude":"30.576164","count":""}
,
{"name":"武汉市回家宾馆","address":"蔡甸街跃进社区(汉阳大街与新福路交汇路口建新市场里)","longitude":"114.030903","latitude":"30.579398","count":""}
,
{"name":"达梦住宿","address":"树潘大街398号","longitude":"114.020478","latitude":"30.580462","count":""}
,
{"name":"百威酒店","address":"新福路与汉阳大街交叉口东南150米","longitude":"114.032514","latitude":"30.579473","count":""}
,
{"name":"广城旅馆","address":"劳保里29号","longitude":"114.037015","latitude":"30.577206","count":""}
,
{"name":"广场宾馆","address":"汉阳大街劳保里28号(近同心路)","longitude":"114.037111","latitude":"30.577193","count":""}
,
{"name":"建新宾馆客房部","address":"汉阳大街458","longitude":"114.026794","latitude":"30.582842","count":""}
,
{"name":"茂林岗住宿","address":"汉阳大街幸福港湾小区7号楼","longitude":"114.032912","latitude":"30.580512","count":""}
,
{"name":"商业城宾馆(汉阳大街店)","address":"汉阳大街77附1号2层","longitude":"114.02699","latitude":"30.583522","count":""}
,
{"name":"心岛招待所","address":"茂源街15附39号","longitude":"114.038769","latitude":"30.574731","count":""}
,
{"name":"金顺会所","address":"文正街98附5号","longitude":"114.026993","latitude":"30.584309","count":""}
,
{"name":"中心旅社(临嶂大道)","address":"树藩大街614号近汉阳大街","longitude":"114.035331","latitude":"30.575927","count":""}
,
{"name":"国兴旅社(临嶂大道店)","address":"长寿里55号","longitude":"114.035428","latitude":"30.575783","count":""}
,
{"name":"知音苑","address":"大学路111号长江大学校内三号宿舍楼","longitude":"114.028346","latitude":"30.532748","count":""}
,
{"name":"九坤时尚主题酒店","address":"蔡甸大街186号九坤翰林院5号楼","longitude":"114.018091","latitude":"30.573821","count":""}
,
{"name":"世平旅店","address":"蔡姚路88号(六小对面)","longitude":"114.033924","latitude":"30.571295","count":""}
,
{"name":"吉祥住宿(蔡姚路)","address":"蔡姚路84号","longitude":"114.033836","latitude":"30.571477","count":""}
,
{"name":"扬帆住宿","address":"蔡甸街道长江大学姚家林商业街1号","longitude":"114.024731","latitude":"30.535407","count":""}
,
{"name":"武汉长大公寓","address":"大学路姚家林村老屋台108号(近长江大学)","longitude":"114.024205","latitude":"30.535918","count":""}
,
{"name":"开心50","address":"连通路长江大学商业街A-17号门面","longitude":"114.02556","latitude":"30.535378","count":""}
,
{"name":"爱尚宾馆","address":"华林公寓52号","longitude":"114.027373","latitude":"30.535592","count":""}
,
{"name":"直宸商务","address":"蔡姚路","longitude":"114.034569","latitude":"30.568941","count":""}
,
{"name":"鑫朝宾馆","address":"莲花湖大道莲花小区","longitude":"114.033516","latitude":"30.568315","count":""}
,
{"name":"龙鼎旅馆","address":"菜甸街小龚家岭114号蔡江路","longitude":"114.026955","latitude":"30.589271","count":""}
,
{"name":"7天酒店(武汉蔡甸摩天逸品店)","address":"蔡甸大街208号摩天逸品小区","longitude":"114.030431","latitude":"30.570991","count":""}
,
{"name":"尚客优连锁酒店(武汉蔡甸莲花湖大道店)","address":"莲花湖大道名流仕家售楼处旁","longitude":"114.030207","latitude":"30.568742","count":""}
,
{"name":"尚品连锁宾馆(武汉长江大学店)","address":"姚家林商业街C-14(距长江大学武汉学院30米)","longitude":"114.025428","latitude":"30.534715","count":""}
,
{"name":"佳兴旅社(文兴路)","address":"文心路建设二村59号(南湖畔网吧对面)","longitude":"114.024554","latitude":"30.580349","count":""}
,
{"name":"城市便捷酒店(武汉蔡甸广场店)","address":"汉阳大街155号","longitude":"114.041659","latitude":"30.575869","count":""}
,
{"name":"武汉市友好宾馆","address":"汉阳大街155号同馨花园(城市便捷背后)","longitude":"114.041355","latitude":"30.575804","count":""}
,
{"name":"中旅假日","address":"汉阳大街151附8号","longitude":"114.040985","latitude":"30.575704","count":""}
,
{"name":"梦之恋主题酒店(蔡甸广场店)","address":"蔡甸街同心村(汉阳大街155号)","longitude":"114.041647","latitude":"30.575857","count":""}
,
{"name":"捷尚宾馆(武汉蔡甸新福路店)","address":"农家巷10附17号","longitude":"114.033221","latitude":"30.585323","count":""}
,
{"name":"建新宾馆(文兴路店)","address":"蔡甸大街文兴路1附1号(精英学校对面)","longitude":"114.026546","latitude":"30.583056","count":""}
,
{"name":"武汉新奥住宿一店","address":"斗笠湾13号","longitude":"114.023024","latitude":"30.579192","count":""}
,
{"name":"车站旅社(武汉文兴路店)","address":"文兴路3号2楼","longitude":"114.026362","latitude":"30.582903","count":""}
,
{"name":"文兴住宿","address":"文兴路79号","longitude":"114.024127","latitude":"30.580361","count":""}
,
{"name":"六毛客栈","address":"文兴路81号6层","longitude":"114.024087","latitude":"30.580313","count":""}
,
{"name":"知音莲花湖酒店","address":"文正街172号","longitude":"114.027894","latitude":"30.586127","count":""}
,
{"name":"同城旅社","address":"蔡甸街姚家林村小屋台56号","longitude":"114.025116","latitude":"30.536322","count":""}
,
{"name":"如家出租屋(武汉长江大学店)","address":"姚家林村小屋台64号","longitude":"114.024923","latitude":"30.53612","count":""}
,
{"name":"武汉为民宾馆(文兴路店)","address":"文兴路73号(陈记炸酱面馆旁)近汉阳大街","longitude":"114.02434","latitude":"30.58054","count":""}
,
{"name":"航海旅社","address":"蔡甸大道鑫泰苑小区197号","longitude":"114.025627","latitude":"30.573212","count":""}
,
{"name":"宏源宾馆(蔡甸大街店)","address":"蔡甸大街191附15号","longitude":"114.024156","latitude":"30.573855","count":""}
,
{"name":"阳泉旅馆","address":"蔡甸街文正路小龚家岭115号","longitude":"114.026997","latitude":"30.589198","count":""}
,
{"name":"宜尚酒店(武汉蔡甸大街店)","address":"蔡甸大街九坤翰林院186号","longitude":"114.018986","latitude":"30.575071","count":""}
,
{"name":"振业国际酒店","address":"莲花湖大道229号","longitude":"114.039231","latitude":"30.569566","count":""}
,
{"name":"华坤宾馆(蔡甸店)","address":"蔡甸大道210号交通局大楼9至14层","longitude":"114.030841","latitude":"30.57147","count":""}
,
{"name":"武汉莱特精品酒店","address":"万龙广场","longitude":"114.02919","latitude":"30.58203","count":""}
,
{"name":"橘子家商务宾馆","address":"连通路长江大学商业街D01号","longitude":"114.026735","latitude":"30.534826","count":""}
,
{"name":"如家住宿","address":"枫树二路78号附近","longitude":"114.126792","latitude":"30.463988","count":""}
,
{"name":"褀程精品酒店","address":"枫树二路白金公馆88号城市便捷酒店7层","longitude":"114.125433","latitude":"30.465998","count":""}
,
{"name":"城市便捷酒店(武汉枫树二路白金公馆店)","address":"沌口开发区枫树二路88号","longitude":"114.125425","latitude":"30.466019","count":""}
,
{"name":"怡园公寓","address":"后官湖大道146号附近","longitude":"114.121676","latitude":"30.471077","count":""}
,
{"name":"红方住宿副食复印","address":"海天汽配大世界西20栋148室","longitude":"114.134028","latitude":"30.468873","count":""}
,
{"name":"幸福苑住宿","address":"经济技术开发区东风大道海天汽配城西区24栋98号","longitude":"114.134272","latitude":"30.468802","count":""}
,
{"name":"骏怡连锁酒店(武汉蔡甸海天汽配城店)","address":"海天汽配大世界西16栋28号1层","longitude":"114.134007","latitude":"30.469198","count":""}
,
{"name":"世纪商务酒店(龙源映象店)","address":"东风大道504号龙源映象营销中心","longitude":"114.126824","latitude":"30.468046","count":""}
,
{"name":"海之天宾馆(枫树一路店)","address":"海天汽配大世界西区29栋","longitude":"114.134664","latitude":"30.468484","count":""}
,
{"name":"凯宾商务住宿","address":"武汉经济技术开发区海天汽配大世界西区24栋","longitude":"114.134387","latitude":"30.468523","count":""}
,
{"name":"米兰旅馆(市场路)","address":"海天汽配大世界西区20栋98号,近枫树一路","longitude":"114.134278","latitude":"30.469045","count":""}
,
{"name":"武汉豪生国际酒店","address":"武汉经济技术开发区珠山湖大道220号","longitude":"114.132342","latitude":"30.463021","count":""}
,
{"name":"武汉豪生五星级酒店式公寓","address":"经济开发区沌口街道沌口开发区朱山湖大道220号","longitude":"114.132389","latitude":"30.463019","count":""}
,
{"name":"武汉市万友宾馆","address":"市场路海天汽配城西区15栋38号","longitude":"114.133213","latitude":"30.46909","count":""}
,
{"name":"新澳龙旅馆","address":"东风大道与西三路交叉口东南150米","longitude":"114.13346","latitude":"30.468717","count":""}
,
{"name":"武汉市平安住宿","address":"市场路海天汽配38栋58号","longitude":"114.13483","latitude":"30.467948","count":""}
,
{"name":"天虹住宿","address":"蔡甸经济开发区沌口办事处海天汽配大世界西区38栋","longitude":"114.134756","latitude":"30.467816","count":""}
,
{"name":"吉祥客栈","address":"经济开发区沌口办事处武汉经济技术开发区海天汽配大世界西区33栋","longitude":"114.134313","latitude":"30.467961","count":""}
,
{"name":"泓谷酒店","address":"海天汽配城西7栋18室","longitude":"114.132515","latitude":"30.469095","count":""}
,
{"name":"祥根住宿","address":"西三路海天汽配城西区22栋","longitude":"114.133393","latitude":"30.46842","count":""}
,
{"name":"阳光旅馆(西三路)","address":"经济开发区沌口办事处海天汽配城西区18栋","longitude":"114.133131","latitude":"30.468552","count":""}
,
{"name":"大众住宿","address":"东风大道海天汽配城西区26栋108-118号","longitude":"114.133582","latitude":"30.468165","count":""}
,
{"name":"迎宾住宿","address":"海天汽配城西区29栋","longitude":"114.133722","latitude":"30.467942","count":""}
,
{"name":"武汉今世缘住宿","address":"汉阳经济技术开发区海天汽配城西区33栋128-188号","longitude":"114.134064","latitude":"30.467756","count":""}
,
{"name":"武汉市蓝天住宿","address":"经济技术开发区市场路海天汽配城西区27栋158-168号","longitude":"114.134056","latitude":"30.468159","count":""}
,
{"name":"武汉珊瑚居雅宾馆","address":"沌口经济技术开发区珠山湖大道220号","longitude":"114.132914","latitude":"30.462754","count":""}
,
{"name":"7天优品酒店(武汉蔡甸广场店)","address":"蔡甸广场238号","longitude":"114.043958","latitude":"30.572848","count":""}
,
{"name":"湖北中核国际酒店(中核世纪广场)","address":"凤凰路特1号中核世纪广场B1层","longitude":"114.059731","latitude":"30.564515","count":""}
,
{"name":"江汉假日酒店","address":"京珠高速湖北武汉段蔡甸出口处","longitude":"114.043917","latitude":"30.572875","count":""}
,
{"name":"OYO玥玖宾馆(汉水阳湾博奇路店)","address":"博奇路汉水阳湾1-2层","longitude":"114.045968","latitude":"30.577173","count":""}
,
{"name":"香江商务会馆","address":"工农路81号附3号","longitude":"114.043278","latitude":"30.577355","count":""}
,
{"name":"万龙1号酒店","address":"蔡甸街独山村茂兴路5号万龙中央公园","longitude":"114.04145","latitude":"30.568787","count":""}
,
{"name":"厨乡门弟酒店","address":"茂兴路万龙中央公园7栋1楼8号","longitude":"114.041718","latitude":"30.568014","count":""}
,
{"name":"枫尚酒店(中核世纪广场店)","address":"凤凰路6号","longitude":"114.062748","latitude":"30.565232","count":""}
,
{"name":"红光招待所(中共凤凰山红光村支部委员会西北)","address":"104省道东150米","longitude":"114.054912","latitude":"30.567077","count":""}
,
{"name":"大拇指精品酒店","address":"汉阳大街大拇指广场4-8层","longitude":"114.056325","latitude":"30.565538","count":""}
,
{"name":"武汉清禾驿栈loft","address":"大拇指精品酒店(loft公寓)","longitude":"114.056366","latitude":"30.56539","count":""}
,
{"name":"成功大酒店","address":"318国道武汉农村商业银行(成功支行)附近","longitude":"113.717187","latitude":"30.401353","count":""}
,
{"name":"鸿兴楼酒店","address":"","longitude":"113.72043","latitude":"30.404479","count":""}
,
{"name":"腾飞宾馆","address":"成功现代都市农业发展区管理委员会","longitude":"113.720325","latitude":"30.404352","count":""}
,
{"name":"欢欢宾馆","address":"西河街119号","longitude":"113.719138","latitude":"30.405918","count":""}
,
{"name":"凯锐宾馆","address":"北河西街成功中学西南200米","longitude":"113.720702","latitude":"30.408376","count":""}
,
{"name":"万豪商务酒店","address":"马北路与318国道交叉口东北100米","longitude":"113.752606","latitude":"30.422941","count":""}
,
{"name":"武汉麦豪斯聚会别墅","address":"知音湖大道特1号世茂龙湾二期别墅","longitude":"114.0932","latitude":"30.488709","count":""}
,
{"name":"武汉麦斯豪聚会别墅(2号店)","address":"世茂龙湾二期131栋","longitude":"114.089623","latitude":"30.48871","count":""}
,
{"name":"宾馆","address":"","longitude":"114.060434","latitude":"30.501976","count":""}
,
{"name":"木林森宾馆(大集店)","address":"大集街泊龙路011","longitude":"114.057322","latitude":"30.500438","count":""}
,
{"name":"泊龙湾宾馆(泊龙路)","address":"大集商业街泊龙路32号","longitude":"114.056695","latitude":"30.501388","count":""}
,
{"name":"朋来旅社","address":"车站街92号","longitude":"114.05169","latitude":"30.503856","count":""}
,
{"name":"云来宾馆","address":"车站路58附","longitude":"114.050335","latitude":"30.503454","count":""}
,
{"name":"宏成旅馆(大沌公路店)","address":"大沌公路10号","longitude":"114.056301","latitude":"30.503008","count":""}
,
{"name":"鸿盛宾馆(大集正街店)","address":"大集正街70附近","longitude":"114.047636","latitude":"30.505474","count":""}
,
{"name":"大全宾馆","address":"大集街大集村聚盛晶尚2栋2层1-7室","longitude":"114.051677","latitude":"30.501314","count":""}
,
{"name":"观湖客栈","address":"天鹅湖大道湖墅观止金街3幢14号","longitude":"114.122751","latitude":"30.518052","count":""}
,
{"name":"668商务旅馆","address":"大沌公路18号","longitude":"114.052339","latitude":"30.502352","count":""}
,
{"name":"武汉花海花茶别墅单间","address":"花博汇花博汇花海·花茶(花神咖啡隔壁)","longitude":"114.076198","latitude":"30.491779","count":""}
,
{"name":"海眠民宿","address":"天星村1号武汉花博汇内","longitude":"114.075009","latitude":"30.490867","count":""}
,
{"name":"武汉花博汇好时光民宿","address":"天星村1号武汉花博汇内","longitude":"114.076421","latitude":"30.491245","count":""}
,
{"name":"叠水里21-5号","address":"人信·千年美丽(北区)","longitude":"114.106774","latitude":"30.514782","count":""}
,
{"name":"武汉蔡甸天鹅湖大道世茂龙湾三期小复式独享整套复式","address":"天鹅湖大道","longitude":"114.088889","latitude":"30.502528","count":""}
,
{"name":"武汉世茂龙湾聚会别墅","address":"大集街道世茂龙湾二期二期72栋6号","longitude":"114.091929","latitude":"30.48746","count":""}
,
{"name":"泊龙湾大酒店","address":"天鹅湖大道111附近","longitude":"114.05736","latitude":"30.503961","count":""}
,
{"name":"祥和宾馆(天鹅湖大道店)","address":"天鹅湖大道与泊龙路交叉口东北50米","longitude":"114.056603","latitude":"30.503862","count":""}
,
{"name":"房车酒店","address":"天鹅湖大道南50米","longitude":"114.08394","latitude":"30.507066","count":""}
,
{"name":"壹径·法式花园","address":"知音湖大道花博汇小周湾E118栋2层","longitude":"114.077343","latitude":"30.487974","count":""}
,
{"name":"武汉hamis home独栋别墅","address":"沌口开发区天星村1号武汉花博汇弗洛伊小镇A118","longitude":"114.078612","latitude":"30.488534","count":""}
,
{"name":"武汉城市便捷酒店(蔡甸大集店)","address":"大集街新生活广场3楼","longitude":"114.052744","latitude":"30.503006","count":""}
,
{"name":"鸿盛宾馆","address":"钟陵路44号东南70米","longitude":"114.050632","latitude":"30.503008","count":""}
,
{"name":"小平宾馆","address":"大集正街与钟陵路交叉口北50米","longitude":"114.049961","latitude":"30.504959","count":""}
,
{"name":"武汉新华招待所","address":"升官渡公交站旁20m处","longitude":"114.190859","latitude":"30.530554","count":""}
,
{"name":"龙情假日招待所","address":"宁康路58号A10栋附20","longitude":"114.168278","latitude":"30.496406","count":""}
,
{"name":"百合花宾馆(车城北路店)","address":"车城北路湘隆时代广场B区5栋1-5层","longitude":"114.167028","latitude":"30.498833","count":""}
,
{"name":"61号客栈","address":"曹庄路61号附近","longitude":"114.177547","latitude":"30.466012","count":""}
,
{"name":"路客精品民宿","address":"经开万达广场","longitude":"114.173765","latitude":"30.505247","count":""}
,
{"name":"成龙旅社(武汉沌口二店)","address":"沌口街办事处武汉经济技术开发区沌口建华社区B区斜对面沌口路432号","longitude":"114.193173","latitude":"30.461401","count":""}
,
{"name":"城市便捷酒店(体育中心店)","address":"宁康路58号","longitude":"114.166446","latitude":"30.498499","count":""}
,
{"name":"维也纳酒店(武汉体育中心店)","address":"创业路10号","longitude":"114.163382","latitude":"30.493025","count":""}
,
{"name":"jimmy哥公寓","address":"沌口开发区和居名爵","longitude":"114.15407","latitude":"30.480268","count":""}
,
{"name":"武汉保和皇冠假日酒店","address":"武汉经济技术开发区东风大道101号","longitude":"114.175168","latitude":"30.509117","count":""}
,
{"name":"武汉金狐公寓","address":"经开万达广场B区S5-1幢27层B1-3号","longitude":"114.174638","latitude":"30.50648","count":""}
,
{"name":"武汉鑫皓之家公寓(2号店)","address":"体育路(经开万达)","longitude":"114.175434","latitude":"30.507","count":""}
,
{"name":"尚柠酒店","address":"万达广场g138号(锦江都城隔壁)","longitude":"114.174928","latitude":"30.505702","count":""}
,
{"name":"武汉徐建鑫公寓","address":"体育路(万达广场B4栋)","longitude":"114.17483","latitude":"30.505561","count":""}
,
{"name":"武汉长不胖的瘦子公寓","address":"体育路(经开万达B4座10楼)","longitude":"114.176351","latitude":"30.506735","count":""}
,
{"name":"武汉LULUHOUSE公寓","address":"万达广场(经开店)(沌口体育中心)","longitude":"114.173971","latitude":"30.506921","count":""}
,
{"name":"武汉JasmineHouse公寓(2号店)","address":"经开万达写字楼B4号楼","longitude":"114.175341","latitude":"30.507513","count":""}
,
{"name":"武汉万达天天时尚公寓","address":"经开万达广场","longitude":"114.175255","latitude":"30.506731","count":""}
,
{"name":"三月天宾馆(武汉湘隆时代广场店)","address":"宁康路58号8栋附13号","longitude":"114.168607","latitude":"30.496898","count":""}
,
{"name":"武汉超哥精品民宿(10号店)","address":"东风大道159号-c4栋-附30(湘隆时代大公馆)","longitude":"114.164367","latitude":"30.496447","count":""}
,
{"name":"武汉胡超普通公寓(金凯商业街店)","address":"宁康路58号湘隆时代广场C区4栋","longitude":"114.16403","latitude":"30.496709","count":""}
,
{"name":"武汉疯思思公寓(3号店)","address":"湘隆·时代大公馆","longitude":"114.165198","latitude":"30.498082","count":""}
,
{"name":"安和宾馆","address":"东风大道湘隆公馆C4栋1-7室(金凯酒店旁)","longitude":"114.164336","latitude":"30.496717","count":""}
,
{"name":"亚特假日酒店","address":"沌口路369号","longitude":"114.185892","latitude":"30.462613","count":""}
,
{"name":"成龙旅社-住宿","address":"沌口路434号附近","longitude":"114.193293","latitude":"30.461291","count":""}
,
{"name":"正朝阳大酒店","address":"沌口路450号","longitude":"114.19224","latitude":"30.461703","count":""}
,
{"name":"武汉奥思卡影院民宿","address":"体育路经开万达广场B区S5-4栋6层","longitude":"114.173633","latitude":"30.506923","count":""}
,
{"name":"武汉A梦民宿","address":"经开万达","longitude":"114.173634","latitude":"30.506923","count":""}
,
{"name":"新7宾馆","address":"兴华路77号洪山家园4层","longitude":"114.153648","latitude":"30.466547","count":""}
,
{"name":"红璞公寓(洪山家园店)","address":"兴华路洪山家园6栋7栋","longitude":"114.153577","latitude":"30.465705","count":""}
,
{"name":"优粒芒果公寓(兴华路)","address":"沌口经济开发区兴华路77号","longitude":"114.153082","latitude":"30.466306","count":""}
,
{"name":"金凯雅曼人才公寓","address":"沌口车城大道218号金凯公寓E栋","longitude":"114.163181","latitude":"30.479272","count":""}
,
{"name":"康泰酒店","address":"车城大道222号","longitude":"114.161335","latitude":"30.479183","count":""}
,
{"name":"武汉香约公寓","address":"体育路经开万达广场B区S5-1栋23层B1-17室","longitude":"114.1759","latitude":"30.507729","count":""}
,
{"name":"金怡家宾馆(经开万达店)","address":"万达广场B5栋S26号","longitude":"114.175903","latitude":"30.507713","count":""}
,
{"name":"豪泰酒店(体育路)","address":"东风大道111号经开万达广场B5栋S23","longitude":"114.175858","latitude":"30.50786","count":""}
,
{"name":"锦江都城酒店(武汉沌口店)","address":"东风大道111号经开万达广场107-150","longitude":"114.17488","latitude":"30.505769","count":""}
,
{"name":"居然酒店(安然店)","address":"神龙大道117号中信银行旁边","longitude":"114.162111","latitude":"30.494644","count":""}
,
{"name":"聚乐园旅店","address":"经济技术开发区沌口路280号近汉纸东路","longitude":"114.2001","latitude":"30.460085","count":""}
,
{"name":"君融时尚酒店","address":"沌口路君融天湖599号(近汤湖公园)","longitude":"114.17302","latitude":"30.465428","count":""}
,
{"name":"康宁商务宾馆(沌口分店)","address":"宁康路58号11栋附14号","longitude":"114.168079","latitude":"30.496286","count":""}
,
{"name":"博花缘宾馆","address":"宁康路58号20栋附1-2层","longitude":"114.167811","latitude":"30.495768","count":""}
,
{"name":"澜诗国际酒店","address":"立业路16号武汉华港财富广场B座","longitude":"114.161421","latitude":"30.492897","count":""}
,
{"name":"啊星酒店","address":"宁康路宁康路58号16栋附近","longitude":"114.166872","latitude":"30.499527","count":""}
,
{"name":"明星酒店(沌口分店)","address":"宁康路58号湘隆时代广场B7栋","longitude":"114.166801","latitude":"30.499374","count":""}
,
{"name":"明月旅馆","address":"宁康路58号19栋附23-2层","longitude":"114.167852","latitude":"30.496016","count":""}
,
{"name":"巴布特宾馆","address":"宁康园湘隆时代广场A3栋1-2号3层","longitude":"114.168436","latitude":"30.497478","count":""}
,
{"name":"希尔曼宾馆(体育中心店)","address":"宁康路58号6栋附4号3层","longitude":"114.168978","latitude":"30.497271","count":""}
,
{"name":"五佳宾馆","address":"东风大道湘隆广场A区10栋(宁康路公交站对面)","longitude":"114.168259","latitude":"30.496375","count":""}
,
{"name":"可比特宾馆(沌口店)","address":"宁康路附58-13号","longitude":"114.168811","latitude":"30.497678","count":""}
,
{"name":"神话快捷酒店","address":"宁康路58号湘隆时代商业中心a8-9号","longitude":"114.168319","latitude":"30.497614","count":""}
,
{"name":"雅斯特酒店(武汉沌口体育中心店)","address":"湘隆时代广场商业中心B区6栋17号(地铁3、6号线东风公司站E2出口)","longitude":"114.167606","latitude":"30.498849","count":""}
,
{"name":"格莱美假日酒店(宁康路)","address":"经济技术开发区宁康路湘隆时代广场A5栋4-5层","longitude":"114.169137","latitude":"30.497444","count":""}
,
{"name":"卡希尔商务宾馆","address":"宁康路69附13号","longitude":"114.169213","latitude":"30.496758","count":""}
,
{"name":"锦江之星酒店(武汉经济技术开发区店)","address":"神龙大道66号(神龙大道与安康路交叉口)","longitude":"114.166203","latitude":"30.494134","count":""}
,
{"name":"武汉小壹公寓(宁康路分店)","address":"沌口街道宁康路98-附15(宁康路与神龙大道交叉口)","longitude":"114.166866","latitude":"30.493882","count":""}
,
{"name":"壹间·金湖店","address":"宁康路与神龙大道交叉口北100米","longitude":"114.166934","latitude":"30.493766","count":""}
,
{"name":"盛世锦江大酒店","address":"武汉经济技术开发区湘隆时代广场B4栋","longitude":"114.16601","latitude":"30.498901","count":""}
,
{"name":"武汉中铁商旅民宿","address":"经开万达广场B区S5-1幢23层B1-1号房","longitude":"114.175486","latitude":"30.505858","count":""}
,
{"name":"武汉美时-根町服务公寓","address":"沌口开发区万达广场","longitude":"114.175482","latitude":"30.505858","count":""}
,
{"name":"武汉捌零玖零后公寓","address":"东风大道经开万达广场写字楼1栋11楼1104室","longitude":"114.175482","latitude":"30.505858","count":""}
,
{"name":"栖岸酒店(武汉经开万达店)","address":"东风大道111号经开万达广场B1栋","longitude":"114.175502","latitude":"30.505872","count":""}
,
{"name":"武汉文人雅士之家公寓(6号店)","address":"经开万达SOHO公寓(经开万达soho)","longitude":"114.17546","latitude":"30.505808","count":""}
,
{"name":"武汉市优选智慧酒店","address":"东风大道111号经开万达广场B1栋13层1304室","longitude":"114.175504","latitude":"30.506146","count":""}
,
{"name":"优居自助湖景酒店(武汉经开万达店)","address":"经济开发区东风大道111号经开万达广场B1栋13楼","longitude":"114.175515","latitude":"30.505835","count":""}
,
{"name":"武汉地铁3号线6号线体育中心-优居之家酒店式公寓","address":"体育路万达广场B1栋","longitude":"114.175486","latitude":"30.505858","count":""}
,
{"name":"武汉沐睿籽精品民宿(5号店)","address":"沌口开发区东风大道103号武汉经开万达广场B4写字楼","longitude":"114.173903","latitude":"30.506695","count":""}
,
{"name":"武汉外面的世界公寓","address":"万达广场(经开店)(万达广场楼上)","longitude":"114.173923","latitude":"30.506699","count":""}
,
{"name":"武汉非洲猫公寓","address":"经开万达广场(万达,体育馆,江汉大学,3号地铁站)","longitude":"114.17386","latitude":"30.506716","count":""}
,
{"name":"武汉冬至酱公寓","address":"万达广场(经开店)","longitude":"114.173737","latitude":"30.506823","count":""}
,
{"name":"武汉用户6571公寓","address":"东风大道万达广场","longitude":"114.173737","latitude":"30.506823","count":""}
,
{"name":"武汉沐一家公寓(2号店)","address":"开发区经开万达广场B3栋","longitude":"114.173845","latitude":"30.50671","count":""}
,
{"name":"武汉玖九民宿(体育北路分店)","address":"万达广场(经开店)","longitude":"114.173737","latitude":"30.506823","count":""}
,
{"name":"武汉摩羯呆狗公寓(东风大道分店)","address":"万达广场(经开店)","longitude":"114.173737","latitude":"30.506823","count":""}
,
{"name":"武汉宁康公寓","address":"沌口开发区宁康路湘隆时代广场6栋","longitude":"114.168318","latitude":"30.498409","count":""}
,
{"name":"速8酒店(武汉经开万达广场店)","address":"东风大道111号B5栋S29号","longitude":"114.176005","latitude":"30.507762","count":""}
,
{"name":"源宿居然酒店","address":"经济技术开发区万达广场B4栋1楼","longitude":"114.176093","latitude":"30.507299","count":""}
,
{"name":"武汉伊诺公寓(2号店)","address":"经开万达广场B区","longitude":"114.175681","latitude":"30.506324","count":""}
,
{"name":"武汉伊诺公寓(3号店)","address":"经开万达广场B区","longitude":"114.175681","latitude":"30.506324","count":""}
,
{"name":"武汉X-TIME凡尘公寓(7号店)","address":"经济开发区体育路万达广场B4栋1909室","longitude":"114.175681","latitude":"30.506324","count":""}
,
{"name":"武汉阳光民宿","address":"沌口经开万达写字楼B4栋2701","longitude":"114.176229","latitude":"30.506531","count":""}
,
{"name":"鑫居公寓","address":"经开万达广场B4栋1117号","longitude":"114.176048","latitude":"30.50729","count":""}
,
{"name":"武汉万义娥公寓","address":"经开万达写字楼","longitude":"114.176272","latitude":"30.507256","count":""}
,
{"name":"武汉北欧影院大床房普通公寓","address":"东风大道111号经开万达广场","longitude":"114.175809","latitude":"30.507965","count":""}
,
{"name":"武汉大城小爱主题酒店(经开万达店)","address":"沌口经济开发区经开万达广场B5栋S30(近3号线体育中心站B出口)","longitude":"114.17603","latitude":"30.507977","count":""}
,
{"name":"武汉PaPa主题酒店","address":"经济开发区体育路G138号(锦江都城酒店旁)","longitude":"114.175785","latitude":"30.507831","count":""}
,
{"name":"天天e家酒店(沌口经开万达店)","address":"东风大道111号经开万达广场B5栋S25号","longitude":"114.175842","latitude":"30.507708","count":""}
,
{"name":"武汉遇见公寓(店)","address":"经开万达","longitude":"114.17607","latitude":"30.50609","count":""}
,
{"name":"武汉伊诺公寓酒店","address":"经开万达广场b2写字楼4楼421","longitude":"114.176077","latitude":"30.506085","count":""}
,
{"name":"武汉伊诺公寓酒店","address":"经开万达广场B2栋421","longitude":"114.176176","latitude":"30.505957","count":""}
,
{"name":"武汉榴莲公寓","address":"东风大道103号经开万达广场B2栋922室","longitude":"114.176193","latitude":"30.506049","count":""}
,
{"name":"武汉庭然酒店","address":"沌口开发区东风大道经开万达广场B2栋13楼(近体育路)","longitude":"114.176163","latitude":"30.506029","count":""}
,
{"name":"武汉有·间公寓","address":"体育路(经开万达SOHO公寓)","longitude":"114.176121","latitude":"30.506075","count":""}
,
{"name":"武汉伊诺公寓(4号店)","address":"经开万达广场B2栋421","longitude":"114.176169","latitude":"30.505951","count":""}
,
{"name":"武汉遇见12公寓(2号店)","address":"经开万达","longitude":"114.176071","latitude":"30.506098","count":""}
,
{"name":"武汉市小吴大叔的民宿(江汉大学店)","address":"经开万达SOHO公寓经开万达soho","longitude":"114.17601","latitude":"30.50604","count":""}
,
{"name":"武汉倾城小酒馆公寓(体育路分店)","address":"经开万达SOHO公寓(经开万达soho)","longitude":"114.176141","latitude":"30.506053","count":""}
,
{"name":"武汉江汉大学体育中心经开万达公寓","address":"体育路(经开万达)","longitude":"114.176121","latitude":"30.506098","count":""}
,
{"name":"武汉随心概念公寓(经开万达广场店)","address":"体育路万达广场公寓B2栋15楼1521室","longitude":"114.176155","latitude":"30.505944","count":""}
,
{"name":"武汉奈思公寓","address":"东风大道经开万达B3栋23楼","longitude":"114.173907","latitude":"30.506889","count":""}
,
{"name":"武汉PaPa主题酒店","address":"沌口经济开发区经开万达soho写字楼b1座2906","longitude":"114.175206","latitude":"30.506097","count":""}
,
{"name":"武汉希悦之家酒店式公寓","address":"东风大道万达广场B2栋1310","longitude":"114.175953","latitude":"30.50714","count":""}
,
{"name":"武汉即刻家公寓(经开万达店)","address":"东风大道万达广场B4栋","longitude":"114.175971","latitude":"30.507266","count":""}
,
{"name":"万泰酒店","address":"体育路111号万达广场B4座G76","longitude":"114.17602","latitude":"30.507244","count":""}
,
{"name":"武汉优家商务酒店","address":"经开万达B4栋","longitude":"114.175959","latitude":"30.50725","count":""}
,
{"name":"武汉云汐酒店","address":"经开万达广场B4栋30层17室","longitude":"114.175936","latitude":"30.507166","count":""}
,
{"name":"武汉市伊鹿自助湖景酒店","address":"东风大道111号万达广场B4栋","longitude":"114.175904","latitude":"30.507171","count":""}
,
{"name":"南俯公寓(万达广场体育路店)","address":"沌口街街道东风大道111号经开万达B4栋10楼","longitude":"114.175895","latitude":"30.507185","count":""}
,
{"name":"武汉小彪彪公寓","address":"体育路西50米","longitude":"114.175872","latitude":"30.507233","count":""}
,
{"name":"武汉悠悠主题公寓","address":"经开万达广场B1写字楼17层1717室","longitude":"114.175936","latitude":"30.507166","count":""}
,
{"name":"武汉遇见12公寓(3号店)","address":"万达广场B4栋(东风大道111号)","longitude":"114.175891","latitude":"30.507146","count":""}
,
{"name":"武汉火烈鸟公寓(4号店)","address":"沌口开发区经开万达SOHO公寓(经开万达soho)","longitude":"114.175911","latitude":"30.50721","count":""}
,
{"name":"南俯公寓酒店(经开万达体育中心店)","address":"体育路万达广场B4栋10楼","longitude":"114.17598","latitude":"30.507226","count":""}
,
{"name":"武汉X-time南府公寓(7号店)","address":"经开万达广场B4写字楼","longitude":"114.175931","latitude":"30.507165","count":""}
,
{"name":"武汉文人雅士之家公寓(12号店)","address":"经开万达广场B4写字楼(工商银行后面的写字楼)","longitude":"114.175941","latitude":"30.507166","count":""}
,
{"name":"威尔斯宾馆(宁康路)","address":"沌口开发区宁康路58号","longitude":"114.168776","latitude":"30.497103","count":""}
,
{"name":"武汉筱颜民宿","address":"经开万达SOHO公寓(经开万达soho)","longitude":"114.176111","latitude":"30.506697","count":""}
,
{"name":"武汉依贝乐公寓","address":"体育路经开万达广场B3栋写字楼710室","longitude":"114.176046","latitude":"30.506568","count":""}
,
{"name":"武汉麋鹿轻奢时尚酒店","address":"体育路经开万达广场B3栋B3-11楼21室","longitude":"114.176093","latitude":"30.506602","count":""}
,
{"name":"武汉尚客之友公寓","address":"体育路万达广场B3栋3层304室","longitude":"114.176115","latitude":"30.506701","count":""}
,
{"name":"武汉格鲁特主题公寓酒店","address":"沌口经济开发区万达广场B2栋20楼2021室","longitude":"114.176093","latitude":"30.506601","count":""}
,
{"name":"武汉筱朵民宿(8号店)","address":"经开万达广场-B3栋","longitude":"114.176091","latitude":"30.5066","count":""}
,
{"name":"武汉晴秋公寓(3号店)","address":"经开万达SOHO公寓(经开万达soho)(B1栋)","longitude":"114.176111","latitude":"30.506697","count":""}
,
{"name":"武汉小吴大叔公寓","address":"经开万达SOHO公寓(经开万达soho)","longitude":"114.176115","latitude":"30.506698","count":""}
,
{"name":"武汉火烈鸟公寓(3号店)","address":"沌口开发区经开万达SOHO公寓(经开万达soho)","longitude":"114.176106","latitude":"30.506689","count":""}
,
{"name":"武汉德风商务酒店(体育中心站店)","address":"经开区东风大道111号万达广场B3栋3层","longitude":"114.176043","latitude":"30.50665","count":""}
,
{"name":"武汉InHouse小隐公寓(6号店)","address":"体育路经开万达广场B3栋","longitude":"114.176088","latitude":"30.506596","count":""}
,
{"name":"武汉InHouse小隐公寓(5号店)","address":"经开万达广场-B3栋(B4栋)","longitude":"114.176091","latitude":"30.5066","count":""}
,
{"name":"武汉InHouse小隐公寓(2号店)","address":"经开万达广场-B3栋(B4栋)","longitude":"114.176091","latitude":"30.5066","count":""}
,
{"name":"爱唯酒店式公寓(武汉经开万达体育中心店)","address":"经开万达广场B2栋东风大道体育路111号","longitude":"114.175845","latitude":"30.506593","count":""}
,
{"name":"武汉金凯智尚酒店(体育中心店)","address":"金湖花园3栋(沌口体育中心前行第二个转盘左右边)","longitude":"114.16354","latitude":"30.496101","count":""}
,
{"name":"武汉天龙宾馆(经济开发区店)","address":"宁康路58号16栋附1号","longitude":"114.166889","latitude":"30.498911","count":""}
,
{"name":"武汉威森艾玲公寓","address":"东风大道111号万达广场B1栋22楼2204号","longitude":"114.175822","latitude":"30.505824","count":""}
,
{"name":"湘捷酒店(沌口经济开发区店)","address":"东风大道湘隆时代广场C区1栋","longitude":"114.165135","latitude":"30.49796","count":""}
,
{"name":"武汉超哥精品民宿(15号店)","address":"沌口开发区湘隆时代广场","longitude":"114.16813","latitude":"30.498152","count":""}
,
{"name":"悦己主题酒店(经开万达店)","address":"经开万达广场金街G139号","longitude":"114.175038","latitude":"30.505726","count":""}
,
{"name":"武汉曼陀罗酒店","address":"东风大道111号经开万达广场B1栋G01","longitude":"114.175199","latitude":"30.505737","count":""}
,
{"name":"武汉栖岸自助公寓(2号店)","address":"体育路万达广场B1栋","longitude":"114.175182","latitude":"30.505773","count":""}
,
{"name":"武汉栖岸自助公寓(4号店)","address":"体育路万达广场B1栋","longitude":"114.175182","latitude":"30.505773","count":""}
,
{"name":"华康旅店(武汉沌口路店)","address":"沌口经济开发区沌口路322号","longitude":"114.198481","latitude":"30.460393","count":""}
,
{"name":"正江旅社","address":"汉纸中路190号附近","longitude":"114.200102","latitude":"30.460828","count":""}
,
{"name":"汉庭酒店(武汉沌阳大道地铁站店)","address":"创业路50号银城大厦1层","longitude":"114.157536","latitude":"30.48649","count":""}
,
{"name":"长江大酒店(沌口店)","address":"经济开发区创业道128号","longitude":"114.157387","latitude":"30.487014","count":""}
,
{"name":"武汉旅店","address":"沌口经济开发区创业路128号","longitude":"114.15706","latitude":"30.486979","count":""}
,
{"name":"武汉迷宿城市民宿","address":"东风大道111号经开万达广场B4栋7楼","longitude":"114.175938","latitude":"30.507367","count":""}
,
{"name":"芸欣旅社","address":"万家湖中路周公正街32号","longitude":"114.196182","latitude":"30.47359","count":""}
,
{"name":"OYO金满源酒店(洪山小学店)","address":"后官湖大道19号","longitude":"114.138187","latitude":"30.476919","count":""}
,
{"name":"OYO龙泰宾馆(全力一路店)","address":"经济开发区沾口全力一路薛峰社区东168号","longitude":"114.096608","latitude":"30.461246","count":""}
,
{"name":"武汉市陶陶家的民宿(沌口店)","address":"三角湖路万科金域蓝湾","longitude":"114.155422","latitude":"30.501416","count":""}
,
{"name":"武汉luolin公寓(新民路奥林小学分店)","address":"东风大道71号","longitude":"114.181176","latitude":"30.515239","count":""}
,
{"name":"圣贤居宾馆(武汉江汉大学店)","address":"经济技术开发区三角湖路官湖景珠大楼","longitude":"114.152252","latitude":"30.506632","count":""}
,
{"name":"汉庭酒店(武汉江汉大学店)","address":"经济技术开发区三角湖路官湖景珠公寓1-1号","longitude":"114.151893","latitude":"30.507205","count":""}
,
{"name":"武汉怡宾馆","address":"沌口碧湖新村官湖景泽1号+(+沌口经济开发区)","longitude":"114.151631","latitude":"30.506062","count":""}
,
{"name":"杰晨美寓(沌口店)","address":"三角湖路与神龙大道交叉口西北150米","longitude":"114.151958","latitude":"30.507094","count":""}
,
{"name":"怡宾楼(三角湖路店)","address":"三角湖路12附1号","longitude":"114.151508","latitude":"30.506174","count":""}
,
{"name":"乐乎城市青年社区(沌口路店)","address":"经济开发区三角湖路88号官湖景珠","longitude":"114.151038","latitude":"30.506039","count":""}
,
{"name":"鑫时代旅馆","address":"车城大道241附45号","longitude":"114.146562","latitude":"30.487944","count":""}
,
{"name":"武汉沌口名致服务公寓","address":"博学路20号","longitude":"114.157968","latitude":"30.506842","count":""}
,
{"name":"武汉韩永哲公寓(2号店)","address":"博学华府4栋(万科金域蓝湾旁)","longitude":"114.158979","latitude":"30.503344","count":""}
,
{"name":"星期天宾馆(江大店)","address":"经济开发区江汉大学文理学院潮海公寓12栋2楼1-12","longitude":"114.155772","latitude":"30.52184","count":""}
,
{"name":"武汉铭博尚品24普通公寓","address":"沌口开发区博学路博学尚品","longitude":"114.160033","latitude":"30.502841","count":""}
,
{"name":"城市便捷酒店(武汉汉阳东风公司地铁站店)","address":"沌口经济技术开发区博学路28号博学尚品(湖锦酒楼旁)","longitude":"114.159867","latitude":"30.502932","count":""}
,
{"name":"武汉陶女士公寓(2号店)","address":"博学路博学尚品","longitude":"114.159796","latitude":"30.502844","count":""}
,
{"name":"非繁·城品酒店(江汉大学店)","address":"博学路博学尚品26号","longitude":"114.159822","latitude":"30.503077","count":""}
,
{"name":"碧家公寓","address":"博艺路2附15号附近","longitude":"114.153249","latitude":"30.519734","count":""}
,
{"name":"OYO武汉金尚慕商务宾馆(沌阳大道店)","address":"经济技术开发区车城南路83号","longitude":"114.145971","latitude":"30.481086","count":""}
,
{"name":"OYO金尚慕宾馆(沌阳大道车城南路店)","address":"沌口开发区车城南路83号","longitude":"114.14603","latitude":"30.48107","count":""}
,
{"name":"柏曼酒店(沌口车城路店)","address":"经济技术开发区车城南路83号","longitude":"114.14638","latitude":"30.480886","count":""}
,
{"name":"城缘商务宾馆","address":"经济技术开发区薛峰社区正对面","longitude":"114.096424","latitude":"30.462114","count":""}
,
{"name":"泰洋酒店","address":"三角湖路4号","longitude":"114.166637","latitude":"30.507794","count":""}
,
{"name":"武汉丹桂苑","address":"植物园路(武汉植物园下行约80米)","longitude":"114.144609","latitude":"30.49762","count":""}
,
{"name":"地质宾馆(联城路店)","address":"联城路108附20号","longitude":"114.150473","latitude":"30.489111","count":""}
,
{"name":"武汉泡沫之夏留学生公寓","address":"沌口开发区东风阳光城","longitude":"114.152166","latitude":"30.498471","count":""}
,
{"name":"惠远阳光酒店","address":"经济技术开发区神龙大道121号","longitude":"114.156032","latitude":"30.497976","count":""}
,
{"name":"惠远阳光酒店(江汉大学店)","address":"神龙大道121号","longitude":"114.15604","latitude":"30.497958","count":""}
,
{"name":"7天酒店(武汉升官渡海宁皮革城店)","address":"东风大道1号(武汉海宁皮革城对面)","longitude":"114.192399","latitude":"30.531233","count":""}
,
{"name":"金禄杰酒店","address":"沌口经济开发区东风大道696号","longitude":"114.098216","latitude":"30.456332","count":""}
,
{"name":"甲中甲养生酒店(江汉大学店)","address":"经济开发区江汉大学1号门对面东风三路东合中心5号楼","longitude":"114.163319","latitude":"30.507015","count":""}
,
{"name":"武汉星辰小筑","address":"东合中心(东风三路泰和百花园中央街)","longitude":"114.16369","latitude":"30.506905","count":""}
,
{"name":"芒果公寓","address":"沌口经济开发区博学路2号","longitude":"114.15544","latitude":"30.52269","count":""}
,
{"name":"果核公寓(沌口店)","address":"民营科技工业园七区","longitude":"114.098162","latitude":"30.465461","count":""}
,
{"name":"城缘公寓接待处","address":"全力北路与枫树北路交叉口东150米","longitude":"114.097085","latitude":"30.465177","count":""}
,
{"name":"洪庭宾馆","address":"沌口经济技术开发区后官湖大道枫树四路汉阳满庭春","longitude":"114.113696","latitude":"30.466337","count":""}
,
{"name":"二楼住宿","address":"","longitude":"114.112815","latitude":"30.467023","count":""}
,
{"name":"武汉aceinn公寓(3号店)","address":"东风大道地铁三号线三角湖站","longitude":"114.181874","latitude":"30.520143","count":""}
,
{"name":"格林美态酒店","address":"东风大道588号","longitude":"114.114212","latitude":"30.462023","count":""}
,
{"name":"新鑫住宿","address":"全力二路与全力北路交叉口北100米","longitude":"114.089957","latitude":"30.465371","count":""}
,
{"name":"光明招待所(联城路)","address":"郭蔡路44号附近","longitude":"114.153615","latitude":"30.489688","count":""}
,
{"name":"汉鑫旅社","address":"经济技术开发区郭蔡路23号","longitude":"114.152953","latitude":"30.491101","count":""}
,
{"name":"东顺招待所","address":"","longitude":"114.153496","latitude":"30.490136","count":""}
,
{"name":"晶晶招待所(郭蔡路店)","address":"经济开发区郭蔡路56号","longitude":"114.153564","latitude":"30.489908","count":""}
,
{"name":"格博龙旅社","address":"经济技术开发区沌口街郭蔡路61号","longitude":"114.153662","latitude":"30.488518","count":""}
,
{"name":"迎宾招待所(郭蔡路店)","address":"经济技术开发区郭徐岭郭蔡路66号","longitude":"114.1536","latitude":"30.489754","count":""}
,
{"name":"海滨城度假村","address":"海滨城路1号","longitude":"114.134716","latitude":"30.481858","count":""}
,
{"name":"红运时尚商务旅馆","address":"后官湖大道今晨综合楼19号+,近莲湖路","longitude":"114.138711","latitude":"30.477016","count":""}
,
{"name":"六陀招待所","address":"后官湖大道洪山一区15栋","longitude":"114.141251","latitude":"30.480561","count":""}
,
{"name":"圆梦旅社(海滨城花园东)","address":"后宫湖大道与洪山路交汇处洪山一区第6排231栋","longitude":"114.139114","latitude":"30.479732","count":""}
,
{"name":"南湾湖城市便捷酒店","address":"全力二路","longitude":"114.090651","latitude":"30.458531","count":""}
,
{"name":"维纳斯主题旅店","address":"沌口经济开发区后官湖大道洪山小学对面","longitude":"114.137934","latitude":"30.476779","count":""}
,
{"name":"桂龙招待所","address":"全力一路99-147栋附10号附近","longitude":"114.093452","latitude":"30.459241","count":""}
,
{"name":"武汉市和美住宿","address":"后官湖大道薛峰社区10-3-101","longitude":"114.091566","latitude":"30.458737","count":""}
,
{"name":"民宜出租屋","address":"汉阳经济开发区神龙路湖苑小区66号","longitude":"114.152333","latitude":"30.505281","count":""}
,
{"name":"卓越住宿","address":"经济开发区神龙大道湖苑小区51号楼(神龙大道与三角湖路交叉口)","longitude":"114.152067","latitude":"30.505353","count":""}
,
{"name":"星缘住宿","address":"江汉大学旁边,神龙大道与三角湖路交汇处湖苑小区53号","longitude":"114.151904","latitude":"30.505273","count":""}
,
{"name":"温馨家园旅店","address":"湖苑小区47-48号(神龙大道与三角湖路交叉处)","longitude":"114.152499","latitude":"30.505481","count":""}
,
{"name":"金川出租屋","address":"开发区神龙路湖苑小区28号","longitude":"114.152919","latitude":"30.505747","count":""}
,
{"name":"幸福苑住宿(三角湖路店)","address":"神龙路湖苑小区15号","longitude":"114.152662","latitude":"30.505899","count":""}
,
{"name":"虹江民宿","address":"沌口开发区神龙路湖苑小区17号","longitude":"114.15256","latitude":"30.50588","count":""}
,
{"name":"金博住宿","address":"三角湖路与神龙路交汇处湖苑小区60号楼","longitude":"114.152845","latitude":"30.505434","count":""}
,
{"name":"武汉梦伴青年旅社","address":"神龙大道蔡家馨苑8栋1单元30楼","longitude":"114.153917","latitude":"30.504286","count":""}
,
{"name":"华安旅社(联城路店)","address":"联城路51号","longitude":"114.154111","latitude":"30.489501","count":""}
,
{"name":"吉祥旅社(沌口店)","address":"沌口开发区沌阳街贸易4路52号","longitude":"114.14949","latitude":"30.486873","count":""}
,
{"name":"一锅鲜酒店","address":"经济技术开发区佳和馨居7栋附6-128","longitude":"114.157392","latitude":"30.498335","count":""}
,
{"name":"798club-玩bar(沌口湖景别墅店)","address":"武汉经济开发区金色港湾一期+栖湖居9号别墅(经开万达斜对面)","longitude":"114.174979","latitude":"30.514232","count":""}
,
{"name":"武汉别墅聚会轰趴派对(玩bar沌口店)","address":"沌口开发区东风大道68号金色港湾一期","longitude":"114.17519","latitude":"30.514005","count":""}
,
{"name":"武汉湖景客栈","address":"金色港湾四期43-4-1001号,近经开万达","longitude":"114.177465","latitude":"30.516572","count":""}
,
{"name":"武汉英伦小筑湖景别墅","address":"金色港湾-三期","longitude":"114.178525","latitude":"30.516829","count":""}
,
{"name":"武汉易新俊度假别墅","address":"龙阳大道234号","longitude":"114.1789","latitude":"30.516333","count":""}
,
{"name":"城市便捷酒店(汉阳三角湖地铁站店)","address":"东风大道66号金利屋大厦(近地铁3号线三角湖站出口)","longitude":"114.179153","latitude":"30.516746","count":""}
,
{"name":"武汉甜蜜蜜的小屋","address":"金利屋大厦女神公寓2919","longitude":"114.178962","latitude":"30.516473","count":""}
,
{"name":"武汉地铁湖景学区居家公寓","address":"沌口开发区金色港湾五期","longitude":"114.178539","latitude":"30.516179","count":""}
,
{"name":"金泰商务酒店(沌口经济开发区店)","address":"沌口经济开发区东风大道48号,近武汉国际博览中心王家湾(地铁3号线汉阳客运站D出口)","longitude":"114.186567","latitude":"30.526018","count":""}
,
{"name":"武汉漫妮雅舍公寓","address":"沌口开发区经开未来城","longitude":"114.187825","latitude":"30.528703","count":""}
,
{"name":"武汉镜bb公寓(2号店)","address":"经开未来城-C栋","longitude":"114.187825","latitude":"30.528703","count":""}
,
{"name":"武汉星九九宾馆","address":"龙阳大道升官渡汉阳客运站B1出口旁","longitude":"114.190532","latitude":"30.527981","count":""}
,
{"name":"九九宾馆(芳草一路)","address":"芳草一路101附13号(客运站旁)","longitude":"114.190542","latitude":"30.528079","count":""}
,
{"name":"万达旅业","address":"江汉大学北区7栋","longitude":"114.162738","latitude":"30.51933","count":""}
,
{"name":"武汉浪漫温馨小家公寓","address":"沌口开发区博学路6号联投金色港湾-2号门23栋2201","longitude":"114.152513","latitude":"30.517627","count":""}
,
{"name":"艾菊旅社","address":"东风大道东荆河大道洪山二区296栋","longitude":"114.139591","latitude":"30.479004","count":""}
,
{"name":"利民招待所","address":"武汉经济技术开发区联城路101号","longitude":"114.148211","latitude":"30.488447","count":""}
,
{"name":"新岭招待所","address":"沌口街办事处武汉经济技术开发区联城路107号","longitude":"114.147892","latitude":"30.488393","count":""}
,
{"name":"Saint Lido Grand Hotel","address":"联城路19号附近","longitude":"114.159264","latitude":"30.495127","count":""}
,
{"name":"喜瑞得大酒店逸美厅","address":"沌口经济技术开发区联城路19号","longitude":"114.159437","latitude":"30.49497","count":""}
,
{"name":"乐家之星商务酒店","address":"联城路25附11号","longitude":"114.15688","latitude":"30.492375","count":""}
,
{"name":"武汉澜岸即刻公寓(黄家湖大学城店)","address":"东风新城商业广场-一号楼","longitude":"114.157244","latitude":"30.492294","count":""}
,
{"name":"艾家精致时尚酒店","address":"联城路25附18号","longitude":"114.156373","latitude":"30.491765","count":""}
,
{"name":"南北旅社(郭蔡路)","address":"联城路312号附近","longitude":"114.152361","latitude":"30.49056","count":""}
,
{"name":"友红招待所","address":"经济技术开发区沌阳街联城路50号","longitude":"114.153923","latitude":"30.489672","count":""}
,
{"name":"武汉舒适长租","address":"联城路87号","longitude":"114.149044","latitude":"30.488584","count":""}
,
{"name":"联投半岛酒店","address":"车城大道269号","longitude":"114.137167","latitude":"30.488276","count":""}
,
{"name":"主题宾馆","address":"经开未来城A座1楼接待处","longitude":"114.188324","latitude":"30.528097","count":""}
,
{"name":"武汉黄露霞公寓","address":"经开未来城","longitude":"114.188326","latitude":"30.52873","count":""}
,
{"name":"武汉睡吧公寓(5号店)","address":"经开未来城C栋","longitude":"114.188326","latitude":"30.52873","count":""}
,
{"name":"武汉睡吧公寓(7号店)","address":"经开未来城C栋(汉阳经开未来城)","longitude":"114.188326","latitude":"30.52873","count":""}
,
{"name":"武汉漫妮雅舍复式","address":"沌口开发区经开未来城C座1721","longitude":"114.188338","latitude":"30.528739","count":""}
,
{"name":"星光招待所(贸易二路店)","address":"经济开发区沌口办事处贸易二路19号","longitude":"114.151229","latitude":"30.487729","count":""}
,
{"name":"香宾旅社(贸易二路店)","address":"沌口开发区贸易二路3号","longitude":"114.151884","latitude":"30.487795","count":""}
,
{"name":"新家园旅社","address":"经济开发区贸易二路23号","longitude":"114.151029","latitude":"30.487708","count":""}
,
{"name":"迎春旅社(贸易路店)","address":"贸易路3号","longitude":"114.151995","latitude":"30.488026","count":""}
,
{"name":"广来旅社(贸易二路店)","address":"经济技术开发区沌口沌阳街贸易二路28号","longitude":"114.151051","latitude":"30.487868","count":""}
,
{"name":"新桥旅馆(贸易二路店)","address":"郭徐岭贸易二路5号","longitude":"114.151783","latitude":"30.487785","count":""}
,
{"name":"安逸旅社(贸易二路店)","address":"江汉经济开发区1武汉经济技术开发区贸易二路71号","longitude":"114.149323","latitude":"30.487361","count":""}
,
{"name":"侨行招待所","address":"武汉经济开发区沌口贸易二路70号","longitude":"114.149322","latitude":"30.487675","count":""}
,
{"name":"雄丽招待所","address":"沌阳贸易路118号","longitude":"114.149725","latitude":"30.488173","count":""}
,
{"name":"阳光旅社(郭蔡路店)","address":"沌阳贸易路2号","longitude":"114.153481","latitude":"30.488494","count":""}
,
{"name":"新街旅社(郭蔡路)","address":"贸易路3号,同济堂附近","longitude":"114.15343","latitude":"30.488351","count":""}
,
{"name":"华云招待所(贸易二路店)","address":"沌阳贸易路49号","longitude":"114.151264","latitude":"30.488127","count":""}
,
{"name":"君安旅社(郭蔡路)","address":"沌阳贸易路7号","longitude":"114.153265","latitude":"30.488318","count":""}
,
{"name":"神韵招待所","address":"贸易三路与贸易四路交叉口西南50米","longitude":"114.151989","latitude":"30.487102","count":""}
,
{"name":"315苹桔酒店","address":"联成路与神龙大道交汇处圣龙国际2栋20楼","longitude":"114.159815","latitude":"30.495753","count":""}
,
{"name":"武汉王超普通公寓","address":"金太阳米兰小镇-东区","longitude":"114.197207","latitude":"30.525125","count":""}
,
{"name":"明德酒店(三角湖路)","address":"经济技术开发区三角湖路8号","longitude":"114.161454","latitude":"30.508921","count":""}
,
{"name":"星驰服务公寓(武汉江大店)","address":"联投金色港湾18栋310室","longitude":"114.155204","latitude":"30.519253","count":""}
,
{"name":"家悦宾馆(沌口店)","address":"沌口东风大道普天居贤院小区53附1号","longitude":"114.183601","latitude":"30.520403","count":""}
,
{"name":"鑫港旅店(东风大道)","address":"东风大道217号普天居贤院(中百仓储金色港湾购物广场对面)","longitude":"114.183401","latitude":"30.519997","count":""}
,
{"name":"华丰客栈","address":"经济技术开发区东风大道53号附35号普天居贤院","longitude":"114.182811","latitude":"30.519466","count":""}
,
{"name":"凯士来宾馆(全力北路店)","address":"全力北路与大全路交叉口东150米","longitude":"114.075329","latitude":"30.46227","count":""}
,
{"name":"冠寓商学院店","address":"全力一路178号","longitude":"114.096621","latitude":"30.461764","count":""}
,
{"name":"万兴招待所","address":"全力一路99号147栋附1号","longitude":"114.09359","latitude":"30.458624","count":""}
,
{"name":"世嘉公寓","address":"全力一路99号146栋附7号","longitude":"114.093916","latitude":"30.459001","count":""}
,
{"name":"鑫鼎招待所","address":"全力一路民营科技工业园七区二号服务楼","longitude":"114.096024","latitude":"30.464376","count":""}
,
{"name":"鑫鼎住宿棋牌","address":"","longitude":"114.096009","latitude":"30.464367","count":""}
,
{"name":"健康乐旅馆","address":"富民路14号+(近华苑大酒店)","longitude":"114.178718","latitude":"30.513714","count":""}
,
{"name":"海友酒店(武汉沌口万达广场店)","address":"东风大道71号奥林花园4栋19号","longitude":"114.179253","latitude":"30.515128","count":""}
,
{"name":"万事兴客栈","address":"沌口街新民社区富民路4号、近华苑大酒店","longitude":"114.178451","latitude":"30.513851","count":""}
,
{"name":"富民招待所(富民路店)","address":"富民路12号","longitude":"114.178669","latitude":"30.513731","count":""}
,
{"name":"雅之家商务宾馆","address":"东风大道71附79号","longitude":"114.177603","latitude":"30.513203","count":""}
,
{"name":"豪仕宾馆(武汉奥林花园店)","address":"东风大道奥林花园71附81号(金色港湾斜对面)","longitude":"114.177489","latitude":"30.513051","count":""}
,
{"name":"武汉优家连锁酒店(雅之家店)","address":"东风大道71号附84号","longitude":"114.177639","latitude":"30.513145","count":""}
,
{"name":"武汉嘉缘青年旅舍沌口奥林花园店","address":"经济开发区奥林花园(沌口经济开发区武汉国际博览中心)","longitude":"114.179755","latitude":"30.510972","count":""}
,
{"name":"月亮湾旅馆(东风大道店)","address":"东风大道71附78号","longitude":"114.177673","latitude":"30.513287","count":""}
,
{"name":"华苑大酒店","address":"经济技术开发区东风大道79号","longitude":"114.178392","latitude":"30.514206","count":""}
,
{"name":"武汉想念的温馨小家普通公寓","address":"沌口开发区水木清华36栋2单元101","longitude":"114.152319","latitude":"30.509894","count":""}
,
{"name":"武汉铭博尚品24普通公寓(博学路分店)","address":"沌口开发区三角湖路与博学路交汇处(江汉大学旁)万科金域蓝湾","longitude":"114.157063","latitude":"30.504915","count":""}
,
{"name":"汉林招待所(东风大道店)","address":"龙阳大道升官渡小区2号2层","longitude":"114.190727","latitude":"30.529413","count":""}
,
{"name":"丽枫酒店(汉阳客运地铁站店)","address":"","longitude":"114.191163","latitude":"30.529925","count":""}
,
{"name":"武汉6加1假日旅馆","address":"汉阳经济开发区龙阳大道112号升官渡","longitude":"114.191473","latitude":"30.530173","count":""}
,
{"name":"摩尔宾馆(芳草一路)","address":"升官渡小区海联综合楼3层","longitude":"114.190813","latitude":"30.528424","count":""}
,
{"name":"武汉客运中心住宿","address":"沌口街办事处龙阳大道","longitude":"114.190973","latitude":"30.528848","count":""}
,
{"name":"颖婷招待所","address":"东风大道9附10号","longitude":"114.190486","latitude":"30.529108","count":""}
,
{"name":"观澜酒店","address":"沌阳大道404号附39号阳光丽景风雅苑1栋二层2室","longitude":"114.153155","latitude":"30.492416","count":""}
,
{"name":"7天酒店(江汉大学店)","address":"沌口经济技术开发区三角湖路10附14号","longitude":"114.154167","latitude":"30.506826","count":""}
,
{"name":"武汉海伦小驻公寓","address":"开发区海伦春天","longitude":"114.185784","latitude":"30.532458","count":""}
,
{"name":"群鑫旅馆","address":"海伦春天旁10号","longitude":"114.185183","latitude":"30.531826","count":""}
,
{"name":"城市精选酒店(武汉汉阳客运站地铁站店)","address":"龙阳大道四新南路925号","longitude":"114.190786","latitude":"30.527942","count":""}
,
{"name":"索菲斯时尚连锁宾馆","address":"沌口经济开发区全力一路薛峰社区东二门对面","longitude":"114.096135","latitude":"30.463555","count":""}
,
{"name":"武汉湖景客栈(奥林花园店)","address":"东风大道71号奥林花园56-1-1001室","longitude":"114.181449","latitude":"30.515295","count":""}
,
{"name":"速7宾馆(江汉大学店)","address":"三角湖路7附37号","longitude":"114.160374","latitude":"30.50757","count":""}
,
{"name":"果林宾馆(江汉大学店)","address":"经济技术开发区三角湖路7号泰合百花公园2层","longitude":"114.160548","latitude":"30.507597","count":""}
,
{"name":"东泰宾馆","address":"三角湖路9附2号","longitude":"114.162545","latitude":"30.505728","count":""}
,
{"name":"711宾馆(江汉大学店)","address":"沌口经济开发区三角湖路江汉大学2号门正对面(泰合百花公园3楼)","longitude":"114.160784","latitude":"30.50787","count":""}
,
{"name":"百合旅店","address":"沌口开发区泰合百花公园中央街","longitude":"114.160161","latitude":"30.505241","count":""}
,
{"name":"泰合客栈","address":"沌口开发区泰合百花公园中央街16-9号(近江大二号门)","longitude":"114.16014","latitude":"30.505254","count":""}
,
{"name":"盛世雅轩酒店","address":"东风三路泰合中央街建设银行2楼(近江汉大学和东风总部)","longitude":"114.162746","latitude":"30.5054","count":""}
,
{"name":"OYO轻享希程宾馆","address":"东风三路东合中心泰合中央街建设银行2楼(近江汉大学体育中心)","longitude":"114.162585","latitude":"30.505343","count":""}
,
{"name":"武汉空中轰趴复式","address":"沌口开发区泰合百花公园90栋1单元602","longitude":"114.160916","latitude":"30.504618","count":""}
,
{"name":"武汉蔡甸轰趴聚会公寓","address":"东风三路(泰和百花花园)","longitude":"114.161873","latitude":"30.503374","count":""}
,
{"name":"武汉老胡同民宿(36号店)","address":"泰合百花公园90号楼","longitude":"114.160652","latitude":"30.503757","count":""}
,
{"name":"武汉木木温馨公寓(东风三路分店)","address":"泰合百花园","longitude":"114.161091","latitude":"30.50528","count":""}
,
{"name":"天天住宿(武汉薛峰社区店)","address":"后官湖大道薛峰社区8栋1单元102室","longitude":"114.091741","latitude":"30.458112","count":""}
,
{"name":"旺角旅社","address":"二区382号","longitude":"114.139248","latitude":"30.478724","count":""}
,
{"name":"住宿","address":"","longitude":"114.139203","latitude":"30.478775","count":""}
,
{"name":"伍华宾馆","address":"","longitude":"114.138316","latitude":"30.477582","count":""}
,
{"name":"五华宾馆(后官湖大道)","address":"后官湖大道30号附近","longitude":"114.138347","latitude":"30.477562","count":""}
,
{"name":"凤朝阳宾馆","address":"博学路","longitude":"114.155684","latitude":"30.521508","count":""}
,
{"name":"全力南公寓","address":"全力南路8号","longitude":"114.0995","latitude":"30.448944","count":""}
,
{"name":"武汉青年阵地公寓","address":"全力南公寓","longitude":"114.099512","latitude":"30.448947","count":""}
,
{"name":"武汉绿芽公寓(汉阳客运中心店)","address":"龙阳大道海宁皮革城站海伦春天别墅区13栋3单元202","longitude":"114.18485","latitude":"30.532042","count":""}
,
{"name":"武汉诚信客房","address":"全力二路薛峰社区11栋2单元101室","longitude":"114.091454","latitude":"30.459068","count":""}
,
{"name":"武汉涛哥住宿","address":"后官湖大道全力二路薛峰社区11栋1单元101室","longitude":"114.091526","latitude":"30.459049","count":""}
,
{"name":"喜瑞得大酒店","address":"武汉经济技术开发区联城路19号","longitude":"114.159388","latitude":"30.494784","count":""}
,
{"name":"聚友缘招待所","address":"后官湖大道薛峰社区中百超市2层","longitude":"114.093793","latitude":"30.459791","count":""}
,
{"name":"薛峰招待所","address":"全力一路148附近","longitude":"114.093841","latitude":"30.459787","count":""}
,
{"name":"美华商务宾馆","address":"薛峰小区154栋21-22号","longitude":"114.093272","latitude":"30.459736","count":""}
,
{"name":"武汉喻家旅馆","address":"全力二路薛峰社区14栋1单元101室","longitude":"114.091516","latitude":"30.461119","count":""}
,
{"name":"武汉相寓主题乐园套房公寓(薛峰村分店)","address":"薛峰社区","longitude":"114.093385","latitude":"30.460831","count":""}
,
{"name":"步步云商务宾馆","address":"薛峰社区全力一路139-145栋","longitude":"114.093495","latitude":"30.460019","count":""}
,
{"name":"武汉亮洁客房","address":"全力二路薛峰社区14栋2单元102室","longitude":"114.090968","latitude":"30.462334","count":""}
,
{"name":"武汉航宇公寓","address":"全力二路薛峰社区商铺27号","longitude":"114.095688","latitude":"30.461943","count":""}
,
{"name":"丽景招待所(联城路)","address":"联城路22号1栋附1号","longitude":"114.156204","latitude":"30.492165","count":""}
,
{"name":"丽景宾馆","address":"沌口经济技术开发区联城路圣龙国际广场2号楼","longitude":"114.156152","latitude":"30.492124","count":""}
,
{"name":"亦博旅店","address":"博艺路2附1号","longitude":"114.15385","latitude":"30.519797","count":""}
,
{"name":"银建招待所","address":"经济技术开发区郭蔡路51号","longitude":"114.153236","latitude":"30.490202","count":""}
,
{"name":"映泉商务酒店","address":"经济技术开发区博学路28号","longitude":"114.15999","latitude":"30.502278","count":""}
,
{"name":"优粒芒果","address":"后官湖大道民营工业园宿舍6号楼","longitude":"114.139379","latitude":"30.478074","count":""}
,
{"name":"友好旅社(贸易路店)","address":"贸易二路1号附近","longitude":"114.152096","latitude":"30.487751","count":""}
,
{"name":"儿童之家青年旅舍","address":"博学路6号附近","longitude":"114.15447","latitude":"30.517732","count":""}
,
{"name":"武汉佳阳曼邦精品酒店","address":"经济技术开发区龙阳大道211号(地铁3号线汉阳客运站B1出口旁)","longitude":"114.189834","latitude":"30.528086","count":""}
,
{"name":"武汉赵琪呀公寓","address":"嘎纳印象","longitude":"114.182223","latitude":"30.521808","count":""}
,
{"name":"武汉温馨浪漫小家公寓","address":"嘎纳印象","longitude":"114.182228","latitude":"30.52181","count":""}
,
{"name":"武汉戛纳小筑普通公寓","address":"沌口开发区嘎纳印象7-703","longitude":"114.182212","latitude":"30.521612","count":""}
,
{"name":"武汉漫妮雅舍普通公寓(法国街店)","address":"沌口开发区嘎纳印象9栋9栋506","longitude":"114.182216","latitude":"30.521869","count":""}
,
{"name":"武汉漫妮雅舍公寓(4号店)","address":"沌口开发区嘎纳印象9栋9栋506","longitude":"114.182291","latitude":"30.522052","count":""}
,
{"name":"武汉蓝源张姐公寓","address":"中环湖畔-2期","longitude":"114.18648","latitude":"30.526323","count":""}
,
{"name":"武汉文人雅士之家公寓(新华村分店)","address":"中环湖畔-2期(东风大道48号与龙阳大道交叉口,高架桥下面高楼)","longitude":"114.186248","latitude":"30.526139","count":""}
,
{"name":"武汉战狼520公寓(龙阳大道分店)","address":"龙阳大道48号地铁三号线汉阳客运站D出口中环湖畔","longitude":"114.186812","latitude":"30.526071","count":""}
,
{"name":"紫庭精品酒店","address":"龙阳大道经开未来城B栋2层","longitude":"114.187223","latitude":"30.528489","count":""}
,
{"name":"合顺酒店","address":"农机路与千洪路交叉口北100米","longitude":"113.857892","latitude":"30.38996","count":""}
,
{"name":"黄陵大酒店","address":"官莲湖大桥与官莲湖大道交叉口西北150米","longitude":"114.08581","latitude":"30.384432","count":""}
,
{"name":"武汉万顺宾馆","address":"黄陵大道思凯乐超市楼上","longitude":"114.082623","latitude":"30.412234","count":""}
,
{"name":"现代·天外天酒店","address":"经济技术开发区军山街长山特1号,近军山大桥","longitude":"114.119806","latitude":"30.393189","count":""}
,
{"name":"武汉市春风客栈","address":"经济技术开发区军山街黄陵新街460号(黄陵中学旁)","longitude":"114.078219","latitude":"30.407902","count":""}
,
{"name":"蒲潭商务宾馆","address":"蒲潭社区北区13C","longitude":"114.074085","latitude":"30.400896","count":""}
,
{"name":"新港湾","address":"观阵岭21","longitude":"114.130962","latitude":"30.367782","count":""}
,
{"name":"御龙假日酒店","address":"军山街龙湖社区二期A2-A172层及A10号","longitude":"114.124703","latitude":"30.37381","count":""}
,
{"name":"军山科技园酒店","address":"经济开发区军山街凤亭南路1号","longitude":"114.07239","latitude":"30.425051","count":""}
,
{"name":"香憩阁","address":"经济技术开发区军山街黄陵幸福小区","longitude":"114.079193","latitude":"30.410075","count":""}
,
{"name":"尚佳商务宾馆","address":"军山街无浪湖88号33栋附近","longitude":"114.072745","latitude":"30.403421","count":""}
,
{"name":"超超农庄","address":"014县道","longitude":"113.926657","latitude":"30.542659","count":""}
,
{"name":"路客宝精品民宿","address":"014县道东150米","longitude":"113.926534","latitude":"30.537335","count":""}
,
{"name":"丁香花墅","address":"索河龚家渡","longitude":"113.931582","latitude":"30.55743","count":""}
,
{"name":"蔡甸区李月琴旅社","address":"李月琴旅社","longitude":"113.949155","latitude":"30.369812","count":""}
,
{"name":"菲斯酒店","address":"常福经济开发区人民汽车城一期A区2号楼2楼","longitude":"114.058048","latitude":"30.448893","count":""}
,
{"name":"紫薇花旅馆","address":"福兴社区二期北50米(常禄大道南)","longitude":"114.037532","latitude":"30.434753","count":""}
,
{"name":"华逸宾馆","address":"龙王庙社区白鹤泉东街318国道旁","longitude":"114.057946","latitude":"30.452395","count":""}
,
{"name":"昌兴旅社(龙王庙社区西)","address":"318国道北100米","longitude":"114.05582","latitude":"30.451445","count":""}
,
{"name":"昱峡招待所","address":"福吉路东50米","longitude":"114.053994","latitude":"30.437032","count":""}
,
{"name":"邀子阁酒店","address":"318国道北150米","longitude":"114.051769","latitude":"30.451842","count":""}
,
{"name":"缘中缘客栈","address":"中国龙王五路人民汽车城汽车智能装备中心8号楼三层","longitude":"114.056642","latitude":"30.44601","count":""}
,
{"name":"武汉家里人公寓","address":"武汉恒大绿洲-14栋","longitude":"114.124596","latitude":"30.548168","count":""}
,
{"name":"博晶宾馆","address":"汉阳大道北50米","longitude":"114.12842","latitude":"30.552487","count":""}
,
{"name":"昱达家宾馆","address":"健康谷5栋三层17室(同济医院后侧门对面)","longitude":"114.111923","latitude":"30.547314","count":""}
,
{"name":"格林豪泰智选酒店(武汉集贤地铁站店)","address":"新天大道健康新天地5号楼","longitude":"114.111937","latitude":"30.547696","count":""}
,
{"name":"快宝驿站","address":"汉阳大道辅路","longitude":"114.119576","latitude":"30.551734","count":""}
,
{"name":"武汉职工疗养院","address":"新农街张家渡(近知音湖大道南湖大桥)","longitude":"114.08766","latitude":"30.526144","count":""}
,
{"name":"武汉清溪乾隆集团民宿","address":"憬诚超市(西山林语店)(西山林语-13栋)","longitude":"114.121133","latitude":"30.552663","count":""}
,
{"name":"武汉亭亭玉立公寓(汉阳大道分店)","address":"西山林语-13栋","longitude":"114.121574","latitude":"30.552624","count":""}
,
{"name":"武汉希腊爱琴海连锁公寓(汉阳大道与汉阳大道辅路交叉口分店)","address":"西山林语-13栋","longitude":"114.121573","latitude":"30.552625","count":""}
,
{"name":"骏怡连锁酒店(集贤站同济医院店)","address":"中国健康谷商业步行街3栋","longitude":"114.111836","latitude":"30.549334","count":""}
,
{"name":"满庭居宾馆","address":"汉阳大道北50米","longitude":"114.113859","latitude":"30.550469","count":""}
,
{"name":"艺浪旅馆","address":"汉阳大道北50米","longitude":"114.118083","latitude":"30.551498","count":""}
,
{"name":"武汉华美达安可酒店(蔡甸店)","address":"新天大道286号","longitude":"114.111888","latitude":"30.548778","count":""}
,
{"name":"雄霞酒店","address":"汉阳大街与汉阳大道交叉口东150米","longitude":"114.104528","latitude":"30.551744","count":""}
,
{"name":"江山宾馆(致成雅阁东北)","address":"汉阳大道","longitude":"114.118485","latitude":"30.551587","count":""}
,
{"name":"天天客栈","address":"汉阳大道辅路","longitude":"114.118534","latitude":"30.551598","count":""}
,
{"name":"兴隆旅社(汉新街)","address":"水厂巷与汉新街交叉口西北100米","longitude":"114.08035","latitude":"30.562272","count":""}
,
{"name":"龙雁湖商务酒店","address":"消泗乡渔樵村消泗正街88附5","longitude":"113.778171","latitude":"30.313087","count":""}
,
{"name":"九真客栈","address":"永安街道九真山森林公园主峰下第一家","longitude":"113.911222","latitude":"30.474097","count":""}
,
{"name":"九真山假日酒店","address":"永安街炉房村特1号,近九真桃源景区","longitude":"113.949797","latitude":"30.477228","count":""}
,
{"name":"芳芳旅社(安福路)","address":"永安大街永兴街232号,临近永兴街","longitude":"113.936492","latitude":"30.449877","count":""}
,
{"name":"朴树人家商务宾馆","address":"永安大街152号","longitude":"113.942605","latitude":"30.457112","count":""}
,
{"name":"小桥旅社(永安正街店)","address":"永安大街158号","longitude":"113.942092","latitude":"30.457192","count":""}
,
{"name":"鑫缘宿旅社","address":"永安街永安大街190号","longitude":"113.941486","latitude":"30.45728","count":""}
,
{"name":"市场旅社(安福路店)","address":"安福路147-附10","longitude":"113.938746","latitude":"30.456409","count":""}
,
{"name":"发章酒店","address":"安福路与永安正街交叉口东南50米","longitude":"113.938709","latitude":"30.456981","count":""}
,
{"name":"刚刚酒店","address":"","longitude":"113.985444","latitude":"30.523263","count":""}
,
{"name":"中地锦颐商务酒店","address":"去玉贤镇朱家小湾52号","longitude":"113.984991","latitude":"30.51242","count":""}
,
{"name":"福鑫居","address":"大奓路与白鹤泉东街交叉口东南100米","longitude":"114.021173","latitude":"30.449609","count":""}
,
{"name":"群力旅社","address":"奓山街白鹤泉东路24号","longitude":"114.017515","latitude":"30.449603","count":""}
,
{"name":"宾悦旅社(车站南路)","address":"奓山街丘林村苏湾1号","longitude":"114.016802","latitude":"30.449632","count":""}
,
{"name":"晴天住宿","address":"白鹤泉东路84号","longitude":"114.019333","latitude":"30.449639","count":""}
,
{"name":"银花宾馆","address":"白鹤泉西路89号","longitude":"114.010448","latitude":"30.449946","count":""}
,
{"name":"阳光丽锦酒店(奓山分店)","address":"车站南路格力电器对面","longitude":"114.016274","latitude":"30.446695","count":""}
,
{"name":"银花住宿棋牌","address":"奓山村白鹤泉西路89号","longitude":"114.0104","latitude":"30.449863","count":""}
,
{"name":"瑞颐国际酒店","address":"常福常务广场中心","longitude":"114.045415","latitude":"30.44981","count":""}
,
{"name":"凡氏宾馆","address":"奓山街车站北路104号","longitude":"114.011076","latitude":"30.451524","count":""}
,
{"name":"奓山美食城住宿","address":"奓山街白鹤泉西路6号","longitude":"114.014749","latitude":"30.449344","count":""}
,
{"name":"幸福住宿(园丁路)","address":"奓山路12号","longitude":"114.014128","latitude":"30.450433","count":""}
,
{"name":"平安宾馆","address":"奓山街车站北路97号","longitude":"114.010578","latitude":"30.451362","count":""}
,
{"name":"逸居旅店","address":"奓山街车站南路125号","longitude":"114.019972","latitude":"30.448367","count":""}
,
{"name":"安静住宿","address":"X056(车站南路)","longitude":"114.016915","latitude":"30.44928","count":""}
,
{"name":"福源酒店(车站南路店)","address":"车站南路88号(星月花园南)","longitude":"114.018391","latitude":"30.448505","count":""}
,
{"name":"武汉行鹏商务宾馆(奓山店)","address":"奓山街白鹤泉西路16号,近常福大道交警中队、奓山商场","longitude":"114.014597","latitude":"30.449413","count":""}
,
{"name":"梦馨园旅馆","address":"奓山街联富路","longitude":"114.035861","latitude":"30.455707","count":""}
,
{"name":"丽枫酒店(常福商业广场店)","address":"经济开发区白鹤泉东街189号常福商业广场壹号公馆22-25F","longitude":"114.046814","latitude":"30.449782","count":""}
,
{"name":"志翔旅馆(联富街店)","address":"奓山街联富路1号","longitude":"114.016048","latitude":"30.450601","count":""}
,
{"name":"宾客住宿","address":"联富街53号","longitude":"114.016165","latitude":"30.45163","count":""}
,
{"name":"奓山宾馆","address":"奓山街白鹤泉东路143号","longitude":"114.023422","latitude":"30.450521","count":""}
,
{"name":"武汉市蔡甸区易佳宾馆","address":"奓山街易塆38号","longitude":"114.014862","latitude":"30.44482","count":""}
,
{"name":"安居旅社","address":"","longitude":"114.035897","latitude":"30.454093","count":""}
,
{"name":"大东旅社(中共大东村总支委员会北)","address":"G318(白鹤泉东街)","longitude":"114.035992","latitude":"30.454095","count":""}
,
{"name":"福聚鑫驿栈","address":"福康路常福工业园常福国际商务广场一号楼大润发超市楼上三楼","longitude":"114.043718","latitude":"30.449708","count":""}
,
{"name":"星光豪威商务酒店","address":"白鹤泉东路155号","longitude":"114.0282","latitude":"30.4507","count":""}
,
{"name":"忠实城市酒店","address":"奓山街白鹤泉东街32号","longitude":"114.016976","latitude":"30.450102","count":""}
,
{"name":"汉芳旅社","address":"奓山街白鹤泉东路21号","longitude":"114.01678","latitude":"30.450104","count":""}
,
{"name":"梦馨园旅馆(联富街)","address":"联富街与车站南路交叉口北150米","longitude":"114.016517","latitude":"30.450707","count":""}
,
{"name":"武汉馨悦旅社(联富街店)","address":"奓山街联富路26号","longitude":"114.016506","latitude":"30.450574","count":""}
,
{"name":"称心旅馆","address":"白鹤泉东街18号附近","longitude":"114.016483","latitude":"30.450284","count":""}
,
{"name":"二楼棋牌住宿","address":"白鹤泉东街23号附近","longitude":"114.016805","latitude":"30.450083","count":""}
,
{"name":"雄垒城市酒店","address":"泉东路32号","longitude":"114.016854","latitude":"30.450084","count":""}
,
{"name":"温馨旅社(蔡甸店)","address":"奓山街奓山集白鹤泉东路93号","longitude":"114.018965","latitude":"30.450175","count":""}
,
{"name":"武汉温心旅社","address":"奓山街奓山集白鹤泉东路93号","longitude":"114.019","latitude":"30.450229","count":""}
,
{"name":"栖息地宾馆","address":"奓山老街与奓正老街交叉口西南100米","longitude":"114.012304","latitude":"30.447636","count":""}
,
{"name":"蓝星酒店","address":"蟹湖大街185号","longitude":"113.844279","latitude":"30.440391","count":""}
,
{"name":"晴川旅社","address":"侏儒街道办事处蟹湖大街301号新艺路","longitude":"113.841312","latitude":"30.440457","count":""}
,
{"name":"天翔大酒店","address":"平安路53号","longitude":"113.851417","latitude":"30.440732","count":""}
,
{"name":"星云宾馆","address":"侏儒街蟹湖路232号育德路","longitude":"113.847208","latitude":"30.440704","count":""}
,
{"name":"阳光住宿(武汉侏儒街店)","address":"侏儒街新艺街148号(中国农业银行附近)沿河路","longitude":"113.844503","latitude":"30.439478","count":""}
,
{"name":"鹦鹉住宿","address":"蟹湖大街侏儒山街(侏儒中心小学附近)杨岭街","longitude":"113.841095","latitude":"30.440598","count":""}
,
{"name":"宇辰旅馆","address":"侏儒街道办事处蟹湖大街398号新艺路","longitude":"113.841582","latitude":"30.440821","count":""}
,
{"name":"云龙大酒店","address":"侏儒山街铁炉村四组","longitude":"113.84969","latitude":"30.442349","count":""}
,
{"name":"便民住宿(武汉茅庙集路店)","address":"茅庙集路44号","longitude":"114.123748","latitude":"30.725796","count":""}
,
{"name":"武汉市思思住宿","address":"红星路北100米","longitude":"114.141334","latitude":"30.75306","count":""}
,
{"name":"兴隆旅馆","address":"大黄湾路","longitude":"114.122521","latitude":"30.728978","count":""}
,
{"name":"古镇住宿","address":"茅庙集路225号(近东正街)","longitude":"114.123265","latitude":"30.728409","count":""}
,
{"name":"福泉客栈","address":"茅庙集路65号,近东正街","longitude":"114.124265","latitude":"30.726163","count":""}
,
{"name":"古镇方缘出租房","address":"","longitude":"114.123958","latitude":"30.726945","count":""}
,
{"name":"古镇方缘住宿","address":"茅庙集街东三巷","longitude":"114.123922","latitude":"30.72697","count":""}
,
{"name":"东光宾馆(张柏路店)","address":"张柏路与五环路交汇处","longitude":"114.140935","latitude":"30.70102","count":""}
,
{"name":"武汉东泉宾馆(东西湖店)","address":"张柏路267号","longitude":"114.128231","latitude":"30.718022","count":""}
,
{"name":"优安达商务宾馆","address":"高桥五路与台北二道交汇处优安达工业园1号楼","longitude":"114.066346","latitude":"30.629952","count":""}
,
{"name":"顺和宾馆","address":"携程东西湖区台南一道与高桥五路交汇处泰顺和营销中心楼上","longitude":"114.065701","latitude":"30.623768","count":""}
,
{"name":"风和宾馆","address":"高桥二路神州通物流园","longitude":"114.056963","latitude":"30.629844","count":""}
,
{"name":"昌宏公寓","address":"高桥四路汽配轮胎城1号","longitude":"114.06424","latitude":"30.62905","count":""}
,
{"name":"洪湖客栈","address":"台北二道高桥四路高桥石材城","longitude":"114.064494","latitude":"30.629519","count":""}
,
{"name":"西雅图酒店公寓","address":"高桥二路自贸城B区5单元4层1-40号","longitude":"114.051244","latitude":"30.625813","count":""}
,
{"name":"锦江之星酒店(吴家山经济开发区店)","address":"南高桥北四路东金诚国际精品石材展销中心1号楼","longitude":"114.065559","latitude":"30.625735","count":""}
,
{"name":"平安公寓","address":"高桥四路与台北二路交汇东南角高桥石材城A15号","longitude":"114.064697","latitude":"30.629774","count":""}
,
{"name":"高桥公寓","address":"台北二道与高桥四路交叉口南100米","longitude":"114.064798","latitude":"30.629905","count":""}
,
{"name":"全新宾馆(台北二道)","address":"台北二道优安达科技园三楼(大众网咖楼上)","longitude":"114.065742","latitude":"30.630272","count":""}
,
{"name":"安达便捷公寓","address":"保税物流管理处高桥五路优安达科技园一号楼","longitude":"114.06689","latitude":"30.629781","count":""}
,
{"name":"网吧住宿","address":"万国高桥汽配城生活服务楼4号楼2层","longitude":"114.059503","latitude":"30.625027","count":""}
,
{"name":"万国缘宾馆","address":"高桥开发区万国街18号","longitude":"114.059738","latitude":"30.625268","count":""}
,
{"name":"骏怡酒店(武汉东西湖大道店)","address":"东西湖大道与高桥五路交叉口金诚石材城","longitude":"114.0667","latitude":"30.625391","count":""}
,
{"name":"新辰友邦酒店","address":"高桥南五路61号","longitude":"114.064673","latitude":"30.621601","count":""}
,
{"name":"七喜城市酒店(东西湖店)","address":"吴家山十一支沟运通钢材市场5号门旁","longitude":"114.110747","latitude":"30.617559","count":""}
,
{"name":"布尔宾馆","address":"吴家山十一支沟运通钢材市场5号门旁","longitude":"114.110898","latitude":"30.617517","count":""}
,
{"name":"星辰商务宾馆(东吴大道店)","address":"东吴大道新城十三路22号","longitude":"114.1017","latitude":"30.625747","count":""}
,
{"name":"宜居宾馆","address":"东吴大道88号鑫城宜居艾米网咖和鑫南山KTV楼下亿盛老村","longitude":"114.117489","latitude":"30.625127","count":""}
,
{"name":"洪源假日酒店(田园大道店)","address":"田园大道北与新城十四路西交汇处中体联动大楼","longitude":"114.098155","latitude":"30.62271","count":""}
,
{"name":"东方汇","address":"田园大道101-05号附近","longitude":"114.105642","latitude":"30.621803","count":""}
,
{"name":"武汉东西湖三鑫招待所(田园大道店)","address":"田园大道五金机电城对门升华综合大楼101号3楼","longitude":"114.105979","latitude":"30.621877","count":""}
,
{"name":"武汉升华商务宾馆(田园大道店)","address":"田园大道101号智能科技综合大楼11-13层","longitude":"114.106176","latitude":"30.621746","count":""}
,
{"name":"景逸商务宾馆(田园大道)","address":"田园大道87号","longitude":"114.105144","latitude":"30.621737","count":""}
,
{"name":"威斯商务酒店连锁","address":"田园大道45号","longitude":"114.104046","latitude":"30.622063","count":""}
,
{"name":"武汉东西湖华美达酒店","address":"东吴大道88号","longitude":"114.118117","latitude":"30.624395","count":""}
,
{"name":"武汉琳琅公寓(康居三路分店)","address":"康居三路(常青花园四小区西门29栋)","longitude":"114.232656","latitude":"30.647126","count":""}
,
{"name":"武汉乐尚阁旅馆","address":"常青花园香樟一路3街14号","longitude":"114.236009","latitude":"30.633986","count":""}
,
{"name":"武汉路客艺术民宿(金银潭地铁站店)(6号店)","address":"常青花园五小区(7栋2单元)","longitude":"114.23941","latitude":"30.648218","count":""}
,
{"name":"爱尚精品酒店(常青花园中路店)","address":"常青花园中路555号常青花园十一小区东门","longitude":"114.245777","latitude":"30.642136","count":""}
,
{"name":"城市便捷酒店(武汉金银潭地铁站店)","address":"康居五路18号(东西湖金银潭地铁站B2出口)","longitude":"114.243161","latitude":"30.649965","count":""}
,
{"name":"武汉田力公寓","address":"常青花园5小区","longitude":"114.241491","latitude":"30.649586","count":""}
,
{"name":"武汉路客艺术民宿(金银潭地铁站店)(5号店)","address":"常青花园五小区(34栋2单元)","longitude":"114.241413","latitude":"30.649559","count":""}
,
{"name":"武汉路客艺术民宿(金银潭地铁站店)(4号店)","address":"常青花园五小区(34栋2单元)","longitude":"114.241318","latitude":"30.649487","count":""}
,
{"name":"武汉北和摄影家公寓","address":"常青花园二十三村","longitude":"114.235012","latitude":"30.640566","count":""}
,
{"name":"永红宾馆(学府南路店)","address":"学府南路100号3层","longitude":"114.234664","latitude":"30.637837","count":""}
,
{"name":"常青宾馆(常青花园店)","address":"学府南路126号5层","longitude":"114.234637","latitude":"30.638477","count":""}
,
{"name":"尚一特酒店(武汉朝阳路店)","address":"朝阳路108号","longitude":"114.153669","latitude":"30.601427","count":""}
,
{"name":"武汉乾丰元酒店","address":"临空港大道8号(朝阳路路口)(五环大道地铁站B出口出)","longitude":"114.139158","latitude":"30.597414","count":""}
,
{"name":"红梅旅馆(慈惠街店)","address":"五环路慈惠街慈惠办事处275号家宜家超市旁","longitude":"114.127059","latitude":"30.595342","count":""}
,
{"name":"永坤宾馆","address":"九通路中小企业城30栋(中小企业城大门直走200米右侧)","longitude":"114.116588","latitude":"30.60568","count":""}
,
{"name":"福星酒店(九通路)","address":"吴家山九支沟中小企业城","longitude":"114.120262","latitude":"30.607666","count":""}
,
{"name":"聚贤庄","address":"九通路11号(武汉中小企业城内)","longitude":"114.117187","latitude":"30.605271","count":""}
,
{"name":"便民旅社(五环大道店)","address":"临空港大道与朝阳路交叉口北50米","longitude":"114.13905","latitude":"30.597772","count":""}
,
{"name":"余诚煌厨酒店食材仓库","address":"临空港大道13附近","longitude":"114.137328","latitude":"30.601204","count":""}
,
{"name":"天新酒店","address":"","longitude":"114.103687","latitude":"30.604936","count":""}
,
{"name":"柏曼酒店(七雄路店)","address":"七雄路与团结街交汇处","longitude":"114.128629","latitude":"30.608189","count":""}
,
{"name":"住宿棋牌","address":"","longitude":"114.125381","latitude":"30.604955","count":""}
,
{"name":"山东公寓","address":"湖东路莲湖村253号","longitude":"114.02196","latitude":"30.774201","count":""}
,
{"name":"东山大酒店","address":"","longitude":"114.023613","latitude":"30.775646","count":""}
,
{"name":"好客旅馆","address":"卫东路与陈东路交叉口西50米","longitude":"114.022045","latitude":"30.774632","count":""}
,
{"name":"好客公寓","address":"卫东路与陈东路交叉口西50米","longitude":"114.022045","latitude":"30.774632","count":""}
,
{"name":"莲港大酒店","address":"东柏路东山办事处莲港居民委员会东","longitude":"114.027171","latitude":"30.777063","count":""}
,
{"name":"明明公寓","address":"东山新街144号东柏路","longitude":"114.021751","latitude":"30.774551","count":""}
,
{"name":"东山客酒店","address":"陈东线274号","longitude":"114.019387","latitude":"30.77351","count":""}
,
{"name":"武汉红房子饭店","address":"东山办事处东山新街620号","longitude":"114.018761","latitude":"30.774354","count":""}
,
{"name":"春莲住宿","address":"东山新街620号(东山卫生院旁,东山办事处附近)","longitude":"114.018813","latitude":"30.774662","count":""}
,
{"name":"武汉外度假酒店","address":"东山镇胜利大队杨店村181号","longitude":"114.031614","latitude":"30.750658","count":""}
,
{"name":"新如佳住宿","address":"莲湖路与陈东路西南角第一家莲湖村61号","longitude":"114.019948","latitude":"30.773399","count":""}
,
{"name":"鑫鼎湾商务酒店","address":"东山集贸交易批发市场内","longitude":"114.013519","latitude":"30.77217","count":""}
,
{"name":"OYO华庭时代酒店(四季植物花园七雄路店)","address":"七雄路立方城5号","longitude":"114.128728","latitude":"30.61588","count":""}
,
{"name":"武汉建华住宿","address":"革新大道352号","longitude":"114.125229","latitude":"30.611493","count":""}
,
{"name":"楼上楼酒店","address":"八方路与革新大道交叉口东50米","longitude":"114.125288","latitude":"30.612163","count":""}
,
{"name":"城市便捷酒店(武汉吴家山店)","address":"七雄南路8号","longitude":"114.128976","latitude":"30.613839","count":""}
,
{"name":"怡居宾馆","address":"东西湖大道与七雄路交汇处立方城1栋1楼","longitude":"114.127144","latitude":"30.616376","count":""}
,
{"name":"七雄宾馆","address":"七雄路立方城3栋3层","longitude":"114.127742","latitude":"30.6164","count":""}
,
{"name":"依佳旅馆(吴家山店)","address":"七雄路立方城五栋11楼","longitude":"114.128715","latitude":"30.616036","count":""}
,
{"name":"OYO智享华坤城市酒店(总店)","address":"吴家山革新大道2号","longitude":"114.137271","latitude":"30.612819","count":""}
,
{"name":"怡佳宾馆","address":"立方城","longitude":"114.128853","latitude":"30.615893","count":""}
,
{"name":"满意宾馆","address":"革新大道海峡创业城1期","longitude":"114.127796","latitude":"30.61285","count":""}
,
{"name":"华坤城市酒店(七支沟店)","address":"七雄路立方城4栋8层","longitude":"114.128379","latitude":"30.616456","count":""}
,
{"name":"华坤全国连锁宾馆总店(吴家山店)","address":"革新大道381号","longitude":"114.137247","latitude":"30.612937","count":""}
,
{"name":"立方城宾馆","address":"七雄路立方城2栋4层","longitude":"114.127581","latitude":"30.616363","count":""}
,
{"name":"龙湖冠寓(武汉五环大道店)","address":"临空港大道29号院内2号楼","longitude":"114.136766","latitude":"30.611655","count":""}
,
{"name":"五环百家酒店(五环大道店原百家宾馆)","address":"吴家山临空港大道29号(107国道南500米,百信集团院内)","longitude":"114.137592","latitude":"30.611954","count":""}
,
{"name":"武汉九农招待所","address":"革新大道七雄路十一支沟(创业大厦附近)","longitude":"114.129094","latitude":"30.61286","count":""}
,
{"name":"睿柏·云酒店","address":"七雄路立方城6900号","longitude":"114.128704","latitude":"30.616257","count":""}
,
{"name":"如家酒店","address":"东西湖大道6900号七雄路立方城","longitude":"114.128714","latitude":"30.616112","count":""}
,
{"name":"维也纳国际酒店(吴家山七雄路店)","address":"吴家山七雄路9号","longitude":"114.129005","latitude":"30.608982","count":""}
,
{"name":"维也纳酒店(七雄路店)","address":"海峡两岸科技产业管理处七雄路9号武汉旭东食品有限公司3号楼","longitude":"114.129303","latitude":"30.608967","count":""}
,
{"name":"锦星商务宾馆(东西湖七雄路店)","address":"海峡创业城2期2栋6-7","longitude":"114.130361","latitude":"30.609035","count":""}
,
{"name":"武汉格林百家酒店(东西湖五环大道店)","address":"临空港大道29号107国道以南","longitude":"114.13714","latitude":"30.611761","count":""}
,
{"name":"武汉果然快捷酒店(东西湖职业技术学院店)","address":"七雄路海峡创业城2期4栋1楼","longitude":"114.130035","latitude":"30.609664","count":""}
,
{"name":"鑫港宾馆(东西湖大道辅路店)","address":"七雄路立方城3栋4层(近轻轨始发站)","longitude":"114.127792","latitude":"30.616406","count":""}
,
{"name":"银湖时尚酒店(七雄路店)","address":"革新大道七雄路海峡创业城1号楼附楼","longitude":"114.127469","latitude":"30.612842","count":""}
,
{"name":"枫尚酒店","address":"天纵半岛蓝湾2期1号商业楼","longitude":"114.266864","latitude":"30.668837","count":""}
,
{"name":"洪源假日酒店(金银潭地铁站店)","address":"华星晨龙城C区","longitude":"114.253585","latitude":"30.643825","count":""}
,
{"name":"海风情假日酒店(极地海洋世界园区店)","address":"金银潭大道96号","longitude":"114.277706","latitude":"30.664078","count":""}
,
{"name":"豪庭酒店(武汉海昌·极地海洋世界店)","address":"金银潭大道与银谭路交汇处南400米路东(武汉市医疗救治中心对面)","longitude":"114.287729","latitude":"30.666564","count":""}
,
{"name":"武汉客厅公寓","address":"金银潭宏图路8号金银潭大道武汉客厅D栋49号","longitude":"114.281301","latitude":"30.672329","count":""}
,
{"name":"武汉温馨一家人酒店公寓(晨龙城店)","address":"晨龙城11栋2单元","longitude":"114.255191","latitude":"30.645913","count":""}
,
{"name":"将军客栈(将军三路店)","address":"将军路街146-2号将军路中百仓储5楼","longitude":"114.261143","latitude":"30.652086","count":""}
,
{"name":"汉庭优佳(武汉海昌极地海洋世界店)","address":"将军路146-12号","longitude":"114.2576","latitude":"30.649675","count":""}
,
{"name":"姜太公旅社","address":"将军二路与将军路交叉口西南50米","longitude":"114.25762","latitude":"30.65016","count":""}
,
{"name":"武汉海昌天澜特色民宿将军路分店","address":"将军路街道海昌天澜G18栋","longitude":"114.260137","latitude":"30.651406","count":""}
,
{"name":"精途酒店(金银潭大道店)","address":"将军四路9号","longitude":"114.260452","latitude":"30.657984","count":""}
,
{"name":"银杏宾馆(将军一路店)","address":"将军一路银杏街翠林雅居20号商铺(苏宁小店隔壁)","longitude":"114.257177","latitude":"30.645107","count":""}
,
{"name":"雅梦宾馆","address":"将军一路18号翠林雅居","longitude":"114.256837","latitude":"30.645556","count":""}
,
{"name":"世纪商务酒店(极地海洋世界宏图大道店)","address":"宏图大道金银潭现代企业城B2栋扬子江汽车公交站对面","longitude":"114.2744","latitude":"30.675606","count":""}
,
{"name":"武汉ChuanCold公寓(5号店)","address":"金银潭现代企业城C2栋","longitude":"114.27178","latitude":"30.674975","count":""}
,
{"name":"美天时尚宾馆","address":"","longitude":"114.272068","latitude":"30.675318","count":""}
,
{"name":"都市公寓酒店(极地海洋世界店)","address":"宏图路金银潭现代城B7栋","longitude":"114.273565","latitude":"30.67605","count":""}
,
{"name":"武汉艾斐尔精品公寓奥园东路店","address":"美联奥林匹克花园二期26栋","longitude":"114.238038","latitude":"30.653186","count":""}
,
{"name":"武汉Blossom HAY家具风格大3房普通公寓","address":"奥园西路2号美联奥林匹克花园二期","longitude":"114.238494","latitude":"30.6525","count":""}
,
{"name":"信谊佳","address":"将军路43号,近将军路中学","longitude":"114.252576","latitude":"30.648143","count":""}
,
{"name":"聚鑫商务宾馆(武汉将军路店)","address":"将军路47号","longitude":"114.252665","latitude":"30.648403","count":""}
,
{"name":"好客来宾馆(将军路店)","address":"将军路49号","longitude":"114.252775","latitude":"30.648474","count":""}
,
{"name":"如家睿柏云酒店(极地海洋世界店)","address":"宏图大道6号保利公园家5号楼途虎养车旁边","longitude":"114.28182","latitude":"30.663827","count":""}
,
{"name":"武汉海洋商务酒店","address":"宏图大道银潭路团结激光工业园11栋10楼","longitude":"114.271417","latitude":"30.670639","count":""}
,
{"name":"武汉江城之星宾馆(武汉金银潭地铁永旺店)","address":"将军花园姑李路银花街6号","longitude":"114.250099","latitude":"30.648708","count":""}
,
{"name":"武汉卓尔万豪酒店","address":"宏图大道8号","longitude":"114.279813","latitude":"30.669645","count":""}
,
{"name":"武汉美联奥林匹克公寓","address":"美联奥林匹克花园-四期4栋1603室","longitude":"114.23505","latitude":"30.654787","count":""}
,
{"name":"武汉蔚莱酒店","address":"客厅A栋11层11室","longitude":"114.277973","latitude":"30.672727","count":""}
,
{"name":"武汉悦居公寓酒店","address":"金银潭大道宏图路8号武汉客厅A栋5-13层","longitude":"114.277972","latitude":"30.672723","count":""}
,
{"name":"武汉逸客雅致公寓","address":"宏图路8号武汉客厅A栋5-12层","longitude":"114.278053","latitude":"30.672667","count":""}
,
{"name":"武汉海昌服务公寓","address":"金银潭大道宏图路8号武汉客厅A栋5楼","longitude":"114.278014","latitude":"30.67271","count":""}
,
{"name":"武汉卓尔公寓","address":"客厅卓尔四季公寓D栋2013","longitude":"114.278226","latitude":"30.672721","count":""}
,
{"name":"时尚短租公寓(颐和家园店)","address":"金银潭大道和将军二路交汇处颐和家园5栋22楼","longitude":"114.251694","latitude":"30.656901","count":""}
,
{"name":"时尚短租公寓(将军新村店)","address":"将军一路和金银潭大道交汇处将军新村十一号楼7层","longitude":"114.254747","latitude":"30.651758","count":""}
,
{"name":"龙芳缘酒店","address":"将军路银花街226号","longitude":"114.260173","latitude":"30.654678","count":""}
,
{"name":"豪庭宾馆(东西湖将军路店)","address":"将军一路与银花街交叉口东北100米","longitude":"114.253594","latitude":"30.65204","count":""}
,
{"name":"慢姑娘加勒碧海主题别墅轰趴聚会(汉口店)","address":"金银湖北街碧海花园V6-107(近金银湖绿道)","longitude":"114.19705","latitude":"30.647782","count":""}
,
{"name":"武汉别墅聚会88888","address":"碧海花园(碧海花园-3号门)","longitude":"114.199427","latitude":"30.649203","count":""}
,
{"name":"武汉碧海云天别墅轰趴民宿","address":"金银湖北街碧海花园V6武汉加勒碧海主题别墅","longitude":"114.199427","latitude":"30.649203","count":""}
,
{"name":"OYO银海商务酒店(碧海花园店)","address":"金银湖北街碧海花园3附30号","longitude":"114.199347","latitude":"30.64802","count":""}
,
{"name":"武汉Cay陈度假别墅(金银湖北街分店)","address":"碧海花园","longitude":"114.199427","latitude":"30.649203","count":""}
,
{"name":"武汉翠堤春晓公寓","address":"金银湖南街6号翠堤春晓一栋1单元三203","longitude":"114.199901","latitude":"30.627123","count":""}
,
{"name":"翠堤春晓商务酒店棋牌","address":"金银湖南街与金银湖路交叉口东南100米","longitude":"114.203421","latitude":"30.626871","count":""}
,
{"name":"翠堤春晓酒店","address":"金银湖南街翠堤春晓四期26栋(纽宾凯酒店往南面前行500米)","longitude":"114.203444","latitude":"30.626746","count":""}
,
{"name":"都市快捷酒店(恒大店)","address":"环湖中路恒大城二期28栋204号(花样城对面)","longitude":"114.168692","latitude":"30.661871","count":""}
,
{"name":"黄鹤楼紫金酒店","address":"新桥一路与海口三路交汇处西100米","longitude":"114.165074","latitude":"30.635625","count":""}
,
{"name":"海棠汇","address":"金山大道185号欧亚广场","longitude":"114.204933","latitude":"30.641135","count":""}
,
{"name":"海棠汇国际商务会馆","address":"金银湖路20号","longitude":"114.204971","latitude":"30.641464","count":""}
,
{"name":"OYO银湖湾商务酒店(武汉轻工大学店)","address":"马池路10号航天银湖湾第4幢1-2层商4号","longitude":"114.22508","latitude":"30.64933","count":""}
,
{"name":"武汉园博园家庭房公寓","address":"银湖御园","longitude":"114.215299","latitude":"30.630639","count":""}
,
{"name":"武汉金银湖豪华公寓分店","address":"恒大城影城","longitude":"114.172747","latitude":"30.662541","count":""}
,
{"name":"新家欣快捷酒店","address":"金银湖环湖中路花样年花样城113号门面","longitude":"114.167118","latitude":"30.661029","count":""}
,
{"name":"武汉龙耀别墅轰趴","address":"黄金海岸(浅水湾附近)","longitude":"114.212536","latitude":"30.659444","count":""}
,
{"name":"武汉旅行者的家园度假别墅","address":"黄金海岸银海苑(金银湖东岸马池处)","longitude":"114.213456","latitude":"30.659961","count":""}
,
{"name":"武汉皇家全国连锁别墅聚会(岱园分店)","address":"黄金海岸A18","longitude":"114.212536","latitude":"30.659444","count":""}
,
{"name":"格林一号商务宾馆","address":"汉口金银湖南街金地格林春岸1期","longitude":"114.193876","latitude":"30.628616","count":""}
,
{"name":"聚龙商务宾馆(金银湖南街店)","address":"金银湖南街3号金地格林春岸1栋1单元中百超市2楼","longitude":"114.19456","latitude":"30.628615","count":""}
,
{"name":"武汉JIAOYE的美屋公寓(清水湾路分店)","address":"金湖·清水湾4栋3单元","longitude":"114.171286","latitude":"30.665673","count":""}
,
{"name":"宇航宾馆(金湖·清水湾东)","address":"环湖中路经济适用房二期南门东50米","longitude":"114.171728","latitude":"30.66469","count":""}
,
{"name":"武汉凌云科技集团接待中心","address":"金山大道150号","longitude":"114.183334","latitude":"30.635305","count":""}
,
{"name":"莫林酒店(园博园北地铁站店)","address":"","longitude":"114.222748","latitude":"30.637355","count":""}
,
{"name":"武汉周蔚公寓(3号店)","address":"金银湖东三路金银湖南街-公交车站(丰泽园小区)","longitude":"114.211741","latitude":"30.628853","count":""}
,
{"name":"全季酒店(武汉金银湖店)","address":"金银湖路9号","longitude":"114.20328","latitude":"30.63222","count":""}
,
{"name":"莫林酒店(武汉东西湖金银湖园博园店)","address":"金银湖南街裕亚银湖城南苑临街13号","longitude":"114.202579","latitude":"30.629429","count":""}
,
{"name":"金湖时尚酒店(园博园店)","address":"金银湖南街5号(翠堤春晓小区正对面)","longitude":"114.200506","latitude":"30.628272","count":""}
,
{"name":"华尔登邑居酒店","address":"金银湖路6号裕亚银湖城1栋","longitude":"114.203995","latitude":"30.630639","count":""}
,
{"name":"武汉mechel公寓(6号店)","address":"金银湖金珠港湾-一期","longitude":"114.190131","latitude":"30.629411","count":""}
,
{"name":"金叶惠民大酒店","address":"鑫桥高科技产业园南区","longitude":"114.201917","latitude":"30.635544","count":""}
,
{"name":"武汉银湖九号旅馆","address":"马池路(银湖九号A栋504,武汉轻工大学南大门对面)","longitude":"114.21965","latitude":"30.649503","count":""}
,
{"name":"丽枫酒店(武汉金银湖环湖中路店)","address":"环湖中路与马池中路交叉口处新城璟汇一期1号","longitude":"114.226448","latitude":"30.656672","count":""}
,
{"name":"航天商务宾馆","address":"马池中路航天兴隆国际1期7栋1-2层","longitude":"114.226691","latitude":"30.65773","count":""}
,
{"name":"纽宾凯金银湖国际酒店(武汉金银湖地铁站店)","address":"金银湖路18号","longitude":"114.205821","latitude":"30.63696","count":""}
,
{"name":"欧亚会展国际酒店","address":"金银湖路20号","longitude":"114.206313","latitude":"30.640342","count":""}
,
{"name":"武汉湖畔恋家公寓","address":"顺驰·泊林","longitude":"114.209881","latitude":"30.666422","count":""}
,
{"name":"龙湖冠寓(武汉金银湖公园店)","address":"田园东路全能通双创园","longitude":"114.176665","latitude":"30.673267","count":""}
,
{"name":"沿海城市连锁酒店(金银湖武汉轻工大店)","address":"马池中路9号汉口印象11栋(轻工大学后门)","longitude":"114.219458","latitude":"30.656126","count":""}
,
{"name":"武汉于子淇公寓","address":"万科高尔夫城市花园2期","longitude":"114.21213","latitude":"30.640917","count":""}
,
{"name":"武汉行走的沙漏公寓(3号店)","address":"万科高尔夫城市花园(3203栋)","longitude":"114.209816","latitude":"30.644079","count":""}
,
{"name":"武汉慢姑娘海之韵主题别墅","address":"金山大道万科高尔夫7112栋","longitude":"114.210454","latitude":"30.641928","count":""}
,
{"name":"武汉慢姑娘湖景别墅","address":"金银湖南岸金山大道北侧金银湖北街3号碧海花园","longitude":"114.211565","latitude":"30.642623","count":""}
,
{"name":"武汉湖之韵临湖美居CC橙汁公寓(3号店)","address":"万科西半岛住宅小区","longitude":"114.172082","latitude":"30.656846","count":""}
,
{"name":"武汉伊甸园普通公寓(环湖路店)","address":"万科西半岛住宅小区东西湖金银湖环湖路18号右岛二区C3一201","longitude":"114.172384","latitude":"30.656852","count":""}
,
{"name":"武汉CC橙汁普通公寓","address":"万科西半岛住宅小区C3一201","longitude":"114.17072","latitude":"30.655791","count":""}
,
{"name":"金银湖商务宾馆","address":"金南一路卧龙丽景湾一期206幢2层240号","longitude":"114.224727","latitude":"30.632102","count":""}
,
{"name":"武汉闲趣雅宿公寓","address":"奥林匹克花园","longitude":"114.211269","latitude":"30.671946","count":""}
,
{"name":"武汉幸运之桃度假别墅(6号店)","address":"奥林匹克花园(金银湖环湖路18号)","longitude":"114.211152","latitude":"30.671925","count":""}
,
{"name":"武汉加勒碧海主题别墅轰趴住宿","address":"金银湖北街碧海花园V6(金银湖绿道)武汉加勒碧海主题别墅","longitude":"114.191111","latitude":"30.650116","count":""}
,
{"name":"武汉798club聚会别墅2店","address":"金银湖国际高尔夫球场东苑别墅(金山大道东方马城旁)","longitude":"114.223903","latitude":"30.641479","count":""}
,
{"name":"慢姑娘小时光主题别墅","address":"万科金银湖高尔夫俱乐部西苑别墅C20","longitude":"114.218441","latitude":"30.641131","count":""}
,
{"name":"武汉江城小木屋","address":"汉口金银湖金南一路特1号香山苑","longitude":"114.221041","latitude":"30.634211","count":""}
,
{"name":"鑫桥旅馆","address":"鑫桥新村6栋4号","longitude":"114.190293","latitude":"30.62721","count":""}
,
{"name":"程大姐宾馆(24小时营业)","address":"马池路特1号(近丽水幼儿园)","longitude":"114.225927","latitude":"30.650584","count":""}
,
{"name":"新丽水招待所","address":"马池大道1号","longitude":"114.225909","latitude":"30.650356","count":""}
,
{"name":"丽水招待所","address":"马池路14号(环湖中路与马池路交叉口)","longitude":"114.225659","latitude":"30.65037","count":""}
,
{"name":"武汉程大姐招待所(金银湖机场高速店)","address":"马池路商铺53号(沿海之星隔壁)","longitude":"114.225976","latitude":"30.650494","count":""}
,
{"name":"武汉沿海之星假日酒店(轻工业大学永旺店)","address":"马池路特1号丽水佳园","longitude":"114.226031","latitude":"30.650554","count":""}
,
{"name":"军军旅馆","address":"环湖中路特1号(丽水育才幼儿园旁,近马池路与环湖中路交叉口)","longitude":"114.226239","latitude":"30.650619","count":""}
,
{"name":"武汉行走的沙漏公寓(2号店)","address":"金山大道(银湖翡翠三期5栋)","longitude":"114.212966","latitude":"30.637687","count":""}
,
{"name":"武汉何洋海(00129570)公寓(金口一村分店)","address":"金山大道88号银湖翡翠8栋3单元12层1室","longitude":"114.216217","latitude":"30.636147","count":""}
,
{"name":"荣盛精品酒店","address":"金银湖环湖路73号(银湖水榭公交站牌旁)","longitude":"114.215165","latitude":"30.66191","count":""}
,
{"name":"城市便捷酒店(武汉银湖水榭店)","address":"环湖路73号银湖水榭城市便捷酒店","longitude":"114.215506","latitude":"30.660797","count":""}
,
{"name":"e站主题酒店(武汉园博园店)","address":"金银湖南街的裕亚银湖御品(银湖城)","longitude":"114.202323","latitude":"30.628375","count":""}
,
{"name":"城市便捷酒店(武汉金银湖园博园店)","address":"金银湖南街裕亚银湖御品(园博西门)","longitude":"114.202396","latitude":"30.628714","count":""}
,
{"name":"城市便捷酒店(武汉临空港大道店)","address":"临空港大道与金北一路交汇处东200米","longitude":"114.145063","latitude":"30.651113","count":""}
,
{"name":"东光宾馆(东风店)","address":"三店东风实业工业园东光宾馆","longitude":"114.143611","latitude":"30.654025","count":""}
,
{"name":"景园宾馆(东西湖店)","address":"径河街熙龙湾小区2号楼3-14号","longitude":"114.148881","latitude":"30.634226","count":""}
,
{"name":"尚客优连锁酒店(十字街店)","address":"十字北街径河广场(临近临空港大道)","longitude":"114.163228","latitude":"30.678717","count":""}
,
{"name":"万家灯火酒店","address":"径河农场十字西街23号","longitude":"114.162992","latitude":"30.67835","count":""}
,
{"name":"翡丽宾馆","address":"沿海赛洛城翡丽公馆6期12栋5号","longitude":"114.150769","latitude":"30.648736","count":""}
,
{"name":"武汉楚天柠檬树主题酒店(吴家山东吴大道店)","address":"东吴大道恒大嘉园","longitude":"114.117672","latitude":"30.625817","count":""}
,
{"name":"航天嘉园会所","address":"东吴大道69号","longitude":"114.116259","latitude":"30.62581","count":""}
,
{"name":"新华住宿(东西湖区径河街人民调解委员会西南)","address":"塔西路与张柏路交叉口西南50米","longitude":"114.163993","latitude":"30.678034","count":""}
,
{"name":"华坤城市酒店(临空分店)","address":"吴家山金北一路35号","longitude":"114.143302","latitude":"30.650962","count":""}
,
{"name":"金来亚国际酒店(武汉唐人生生医院西南)","address":"金山大道与三店中路交汇处","longitude":"114.14267","latitude":"30.635197","count":""}
,
{"name":"荆楚假日酒店(东西湖店)","address":"国际大厦6-7楼","longitude":"114.142497","latitude":"30.63509","count":""}
,
{"name":"鑫洋酒店","address":"径河路和昌工业园8栋","longitude":"114.147213","latitude":"30.672733","count":""}
,
{"name":"鑫城公寓","address":"径河街道径河路和昌工业园8栋","longitude":"114.147169","latitude":"30.672808","count":""}
,
{"name":"临空大酒店","address":"银柏路与塔西路交叉十字路口","longitude":"114.176384","latitude":"30.681999","count":""}
,
{"name":"老李出租屋","address":"","longitude":"114.176782","latitude":"30.68155","count":""}
,
{"name":"临空东方宾馆(东西湖新区政府店)","address":"金北一路25号","longitude":"114.144186","latitude":"30.650991","count":""}
,
{"name":"诺亚酒店","address":"临空港大道418号","longitude":"114.138501","latitude":"30.64036","count":""}
,
{"name":"齐聚住宿","address":"塔西路北50米","longitude":"114.166943","latitude":"30.67913","count":""}
,
{"name":"后璞电竞酒店(东西湖店)","address":"啤砖路80号,慈凯工业园4号楼4楼","longitude":"114.145867","latitude":"30.651049","count":""}
,
{"name":"丽枫酒店(临空港大道店)","address":"三店大道9号附近","longitude":"114.145867","latitude":"30.651053","count":""}
,
{"name":"金利亚国际酒店","address":"吴北路112号","longitude":"114.142937","latitude":"30.635226","count":""}
,
{"name":"欣乐宾馆","address":"径河路3号S2-3栋1-2层商27号","longitude":"114.142635","latitude":"30.672892","count":""}
,
{"name":"OYO新和盛酒店(东西湖区店)","address":"吴北路72号(三店派出所对面)","longitude":"114.144205","latitude":"30.6363","count":""}
,
{"name":"全鹰客栈","address":"吴家山吴北路76号","longitude":"114.14421","latitude":"30.636343","count":""}
,
{"name":"随园会馆","address":"五环路特1号","longitude":"114.138744","latitude":"30.63936","count":""}
,
{"name":"平安住宿(径河路店)","address":"径河十字路东街11号","longitude":"114.168012","latitude":"30.679061","count":""}
,
{"name":"维也纳酒店(金银湖店)","address":"塔西路168号天宇中兴科技有限公司","longitude":"114.17303","latitude":"30.680128","count":""}
,
{"name":"维也纳3好酒店(金银湖店)","address":"径河街塔西路168号","longitude":"114.173044","latitude":"30.680127","count":""}
,
{"name":"老彭出租房","address":"泾河西街18号","longitude":"114.163825","latitude":"30.678018","count":""}
,
{"name":"许家住宿(东西湖区径河街人民调解委员会西南)","address":"塔西路22号","longitude":"114.163726","latitude":"30.677953","count":""}
,
{"name":"富华宾馆(武汉东西湖店)","address":"十字东街26号","longitude":"114.165424","latitude":"30.678341","count":""}
,
{"name":"志友住宿","address":"径河十字路东28号","longitude":"114.165743","latitude":"30.678327","count":""}
,
{"name":"立新宾馆(高情西医内科诊所东)","address":"十字东街90号","longitude":"114.167208","latitude":"30.678821","count":""}
,
{"name":"泾河常新宾馆","address":"塔西路91号","longitude":"114.166569","latitude":"30.679134","count":""}
,
{"name":"管管红酒店","address":"径河街办事处啤砖路57号慈凯工业园6号楼(三店学校正对面)","longitude":"114.146422","latitude":"30.651035","count":""}
,
{"name":"欣洪酒店","address":"","longitude":"114.146542","latitude":"30.672723","count":""}
,
{"name":"武汉融园国际大酒店","address":"五环路416号","longitude":"114.141194","latitude":"30.638983","count":""}
,
{"name":"雨荷宾馆(三店中路)","address":"三店中路","longitude":"114.142993","latitude":"30.648435","count":""}
,
{"name":"武汉Momohouse BB复式公寓","address":"吴北路199号(吴家山三店中路)东鑫鑫海花城凌空港酒店对面","longitude":"114.144128","latitude":"30.650174","count":""}
,
{"name":"时尚海洋","address":"吴山路250号鑫海花城东门口","longitude":"114.1431","latitude":"30.646823","count":""}
,
{"name":"武汉MomohouseB&B家庭民宿","address":"三店中路鑫海花城","longitude":"114.144128","latitude":"30.650173","count":""}
,
{"name":"武汉金海湖城公寓","address":"鑫海·花城东区-19号楼601号","longitude":"114.143288","latitude":"30.647726","count":""}
,
{"name":"武汉鑫海花城旅途驿站鑫海花城店","address":"三店中路鑫海花城东区","longitude":"114.144064","latitude":"30.648843","count":""}
,
{"name":"幸福驿站","address":"吴家山金山大道沿海赛洛城2008一期37栋","longitude":"114.158606","latitude":"30.63947","count":""}
,
{"name":"武汉童SIR公寓","address":"金山大道(沿海国际中心6栋)","longitude":"114.155052","latitude":"30.635241","count":""}
,
{"name":"瑞详商务旅店","address":"金山大道沿海赛洛城1期52栋9号2-3层","longitude":"114.1577","latitude":"30.636101","count":""}
,
{"name":"OYO径河酒店","address":"径河街银柏路68号","longitude":"114.174041","latitude":"30.68553","count":""}
,
{"name":"OYO径河假日酒店(银柏路店)","address":"银柏路径河街68号(加油站旁)","longitude":"114.173709","latitude":"30.68536","count":""}
,
{"name":"许家出租","address":"塔西路67号附近","longitude":"114.163838","latitude":"30.677911","count":""}
,
{"name":"双喜出租屋","address":"塔西路28号","longitude":"114.163521","latitude":"30.678005","count":""}
,
{"name":"楚天鲜酒店","address":"径河五环工业园1号","longitude":"114.157149","latitude":"30.677245","count":""}
,
{"name":"维也纳酒店(吴家山经济开发区店)","address":"东西湖大道","longitude":"114.043555","latitude":"30.634981","count":""}
,
{"name":"OYO东花苑酒店(五环大道地铁站三秀路店)","address":"吴家山三秀路开屏里3号","longitude":"114.146417","latitude":"30.619473","count":""}
,
{"name":"汉庭酒店(武汉吴家山店)","address":"吴家山东西湖大道78号","longitude":"114.147895","latitude":"30.618236","count":""}
,
{"name":"东光精品酒店(六支沟分店)","address":"东西湖大道6013号","longitude":"114.131609","latitude":"30.618159","count":""}
,
{"name":"阳光出租房","address":"沁园街149附近","longitude":"114.133615","latitude":"30.622743","count":""}
,
{"name":"城市便捷酒店(东吴大道轻轨站店)","address":"吴家山东吴大道六顺路228号","longitude":"114.1332","latitude":"30.624377","count":""}
,
{"name":"大城小宾馆","address":"吴家山三秀路221号","longitude":"114.145674","latitude":"30.620576","count":""}
,
{"name":"速7连锁宾馆(额头湾店)","address":"吴家山一清路东和颐园3栋,额头湾轻轨站附近,舵落口建材大市场对面(东西湖地区)","longitude":"114.154302","latitude":"30.619993","count":""}
,
{"name":"合家福招待所","address":"吴家山美食街","longitude":"114.139472","latitude":"30.624856","count":""}
,
{"name":"住宿","address":"东吴大道与吴西路交叉口西北100米","longitude":"114.130193","latitude":"30.626108","count":""}
,
{"name":"宏泰宾馆(东吴大道店)","address":"东吴大道725号(离轻轨站东吴大道300米)","longitude":"114.13031","latitude":"30.626062","count":""}
,
{"name":"银兴招待所","address":"东吴大道745号六支沟(东吴大道地铁1号线旁)","longitude":"114.131136","latitude":"30.625732","count":""}
,
{"name":"恺枫住宿","address":"东西湖大道6659","longitude":"114.15563","latitude":"30.619132","count":""}
,
{"name":"顺心住宿(竹叶海·嘉园东南)","address":"","longitude":"114.155787","latitude":"30.619055","count":""}
,
{"name":"小阳住宿","address":"一清路与东西湖大道交叉口东北150米","longitude":"114.155463","latitude":"30.619036","count":""}
,
{"name":"星星住宿(武汉东吴大道店)","address":"东吴大道额头湾28号(近一清路)","longitude":"114.155837","latitude":"30.619048","count":""}
,
{"name":"春天旅馆(三秀路)","address":"吴家山三秀路271号东胜小区(海林广场旁)","longitude":"114.145574","latitude":"30.622207","count":""}
,
{"name":"长城招待所(三秀路)","address":"田园街399号","longitude":"114.145263","latitude":"30.621307","count":""}
,
{"name":"绿之源宾馆(田园街店)","address":"田园街特1号","longitude":"114.144682","latitude":"30.62129","count":""}
,
{"name":"悦丰宾馆","address":"三秀路257号附近","longitude":"114.145656","latitude":"30.621477","count":""}
,
{"name":"宜家商务宾馆(二雅路店)","address":"二雅路123号(永信驾校训练基地旁)","longitude":"114.150568","latitude":"30.618622","count":""}
,
{"name":"武汉市场招待所","address":"东西湖大道额头湾地铁B出口","longitude":"114.150648","latitude":"30.619342","count":""}
,
{"name":"雅阁快捷酒店(东吴大道店)","address":"吴家山街道东吴大道1159号东吴大道与二雅路交汇(统计局对面)","longitude":"114.150251","latitude":"30.622606","count":""}
,
{"name":"公民花园酒店(吴家山五环大道店)","address":"吴家山田园大道1198号","longitude":"114.14413","latitude":"30.620339","count":""}
,
{"name":"天合商务宾馆(二雅路店)","address":"吴家山二支沟天合新界198号5-1-11号","longitude":"114.150701","latitude":"30.626832","count":""}
,
{"name":"武汉温馨三人公寓","address":"海景花园","longitude":"114.148851","latitude":"30.629531","count":""}
,
{"name":"壹加壹公寓(海景西路)","address":"海景西路37号","longitude":"114.147191","latitude":"30.630691","count":""}
,
{"name":"武汉市东西湖乾佳宾馆(四明路店)","address":"东吴大道四明路128号","longitude":"114.142044","latitude":"30.624137","count":""}
,
{"name":"双华宾馆(六顺路店)","address":"吴家山六支沟中百物流配送中心对面145号","longitude":"114.133087","latitude":"30.618855","count":""}
,
{"name":"武汉市秀云旅馆","address":"六顺路139号","longitude":"114.133008","latitude":"30.618574","count":""}
,
{"name":"零距离(六顺店)","address":"长青社区六顺路99号","longitude":"114.133114","latitude":"30.6183","count":""}
,
{"name":"宾至旅馆","address":"吴家山六顺路中百配销中心大门斜对面149号","longitude":"114.133083","latitude":"30.618862","count":""}
,
{"name":"福嘉宾馆","address":"六顺路101号","longitude":"114.133093","latitude":"30.61828","count":""}
,
{"name":"便民住宿","address":"四明路36号","longitude":"114.14206","latitude":"30.618837","count":""}
,
{"name":"锦鑫旅馆(田园中路店)","address":"田园里1322层","longitude":"114.143623","latitude":"30.621153","count":""}
,
{"name":"九州招待所(三秀路店)","address":"田园街三秀路217号","longitude":"114.145678","latitude":"30.620493","count":""}
,
{"name":"爱之家商务宾馆(二雅路)","address":"吴家山二雅路79号","longitude":"114.149885","latitude":"30.622105","count":""}
,
{"name":"运繁宾馆","address":"三秀路226号(三秀路与田园街的交汇处距轻轨额头湾站约783米)","longitude":"114.146392","latitude":"30.620688","count":""}
,
{"name":"爱之家宾馆(开屏里店)","address":"开屏里79号","longitude":"114.148733","latitude":"30.618569","count":""}
,
{"name":"东兴宾馆","address":"梨花园路16号(吴家山梨花园小区门口)","longitude":"114.148084","latitude":"30.62381","count":""}
,
{"name":"伊家宾馆","address":"二雅路199号附近","longitude":"114.150278","latitude":"30.625979","count":""}
,
{"name":"伊家星宾馆(武汉东西湖店)","address":"二雅路与吴祁街交叉口西南50米","longitude":"114.150287","latitude":"30.626075","count":""}
,
{"name":"如家星宾馆(东西湖店)","address":"吴家山二雅路705号(映山红饭店)","longitude":"114.150315","latitude":"30.626024","count":""}
,
{"name":"星期五商务酒店","address":"东兴里16","longitude":"114.150307","latitude":"30.624152","count":""}
,
{"name":"丽枫酒店(武汉吴家山店)","address":"","longitude":"114.133668","latitude":"30.619957","count":""}
,
{"name":"武汉天馨馨商务酒店(丽山总店)","address":"三秀路426号","longitude":"114.142966","latitude":"30.631082","count":""}
,
{"name":"南山商务宾馆(东吴大道)","address":"吴家山七支沟南山市场","longitude":"114.129256","latitude":"30.62578","count":""}
,
{"name":"鹏程招待所(东吴大道店)","address":"东吴大道747号","longitude":"114.13125","latitude":"30.625687","count":""}
,
{"name":"瑞丰住宿","address":"吴家山六顺路枫林苑东门(鑫百超市斜对面)","longitude":"114.131827","latitude":"30.623512","count":""}
,
{"name":"新华招待所(三秀路)","address":"吴家山三秀路163号","longitude":"114.145789","latitude":"30.61891","count":""}
,
{"name":"武汉湖景豪装公寓","address":"山水星辰小区32栋2单元502","longitude":"114.123367","latitude":"30.630838","count":""}
,
{"name":"仁和旅馆(田园中路)","address":"田园中路29号吴家山东郊商住楼及201室","longitude":"114.143682","latitude":"30.619143","count":""}
,
{"name":"新龙旅店","address":"长青社区四季植物花园5号楼南栋1-2层枫林路23号","longitude":"114.131483","latitude":"30.621949","count":""}
,
{"name":"武汉江楼公寓","address":"二雅路天合新界","longitude":"114.151593","latitude":"30.627539","count":""}
,
{"name":"6+1快捷酒店","address":"田园街90号","longitude":"114.132454","latitude":"30.620156","count":""}
,
{"name":"鑫泰旅馆(六顺路店)","address":"吴家山六顺路169号","longitude":"114.133015","latitude":"30.61927","count":""}
,
{"name":"丹燕宾馆(六顺路店)","address":"大顺路199号(中百仓储旁)","longitude":"114.132989","latitude":"30.619728","count":""}
,
{"name":"公民花园酒店(餐饮部)","address":"二雅路田园大道1198号(梅苑小区斜对面)","longitude":"114.14404","latitude":"30.620587","count":""}
,
{"name":"武汉公民花园酒店(客房部)","address":"田园大道1198号,近东吴大道","longitude":"114.144307","latitude":"30.620715","count":""}
,
{"name":"车百联V8汽车旅馆","address":"七雄路博大学府花园1号楼1-2层(米其林轮胎旁楼梯口进)","longitude":"114.129417","latitude":"30.620029","count":""}
,
{"name":"华逸商务宾馆(田园街店)","address":"田园街268号(东西湖城管局旁)","longitude":"114.14488","latitude":"30.620637","count":""}
,
{"name":"玖玖爱主题酒店(东西湖店)","address":"中心广场","longitude":"114.139052","latitude":"30.623557","count":""}
,
{"name":"俊飞旅店","address":"四明路219号,北冰洋城市广场对面","longitude":"114.141348","latitude":"30.622286","count":""}
,
{"name":"田园招待所(田园街)","address":"吴家山三秀路与田园大道交汇处","longitude":"114.145636","latitude":"30.62073","count":""}
,
{"name":"鑫缘假日宾馆(吴家山公园人民医院店)","address":"吴北路28号","longitude":"114.136973","latitude":"30.62824","count":""}
,
{"name":"杜尔丽斯酒店","address":"四明路吴南花园东区18栋","longitude":"114.141978","latitude":"30.62094","count":""}
,
{"name":"宠爱主题酒店","address":"东吴大道1018号西湖广场2栋4楼","longitude":"114.142558","latitude":"30.623449","count":""}
,
{"name":"攀伟招待所","address":"吴家山吴中街330号","longitude":"114.138549","latitude":"30.628836","count":""}
,
{"name":"新海景酒店(临空港大道)","address":"五环大道308号","longitude":"114.136874","latitude":"30.630683","count":""}
,
{"name":"鑫缘宾馆(吴北路)","address":"临空港大道与吴北路交叉口东50米","longitude":"114.137019","latitude":"30.628301","count":""}
,
{"name":"升阳旅馆","address":"长青社区六顺路223号(近田园街)","longitude":"114.132958","latitude":"30.620676","count":""}
,
{"name":"华坤宾馆(水都店)","address":"田园街7号","longitude":"114.132049","latitude":"30.620532","count":""}
,
{"name":"蓝天旅馆(田园街店)","address":"六顺路和田园街交叉口战神网吧隔壁","longitude":"114.132683","latitude":"30.620572","count":""}
,
{"name":"汉庭优佳酒店(武汉额头湾地铁站店)","address":"东西湖大道6525号","longitude":"114.15331","latitude":"30.618711","count":""}
,
{"name":"红红住宿(一清路)","address":"一清路额头湾24号近东吴大道","longitude":"114.154604","latitude":"30.619438","count":""}
,
{"name":"星级豪装舒适三房公寓","address":"恒大常青花园六小区19栋3201","longitude":"114.13799","latitude":"30.619861","count":""}
,
{"name":"亚朵酒店(武汉吴家山五环大道地铁站店)","address":"五环大道58号鸿达中央广场4号楼1-12楼","longitude":"114.138178","latitude":"30.618264","count":""}
,
{"name":"华庭时代宾馆(武汉中百店)","address":"田园街73号(吴家山六支沟中百仓储斜对面)","longitude":"114.135531","latitude":"30.620666","count":""}
,
{"name":"老地方酒店(东西湖店)","address":"东吴大道792号","longitude":"114.136054","latitude":"30.623602","count":""}
,
{"name":"楼兰时尚旅馆","address":"吴家山四支沟田园街170号楼","longitude":"114.140528","latitude":"30.620461","count":""}
,
{"name":"武汉西小寨度假村","address":"辛安渡泗汊河村120号近辛安渡办事处","longitude":"113.983778","latitude":"30.780074","count":""}
,
{"name":"旗胜宾馆(武汉燕岭医院东北)","address":"姑李路92号附近","longitude":"113.983971","latitude":"30.682334","count":""}
,
{"name":"鑫帝大酒店","address":"荷新路18号","longitude":"113.948094","latitude":"30.696266","count":""}
,
{"name":"奥佳招待所","address":"新沟镇西马路117号","longitude":"113.946313","latitude":"30.693816","count":""}
,
{"name":"漫橙山水酒店","address":"新沟镇油纱路以北1号","longitude":"113.992518","latitude":"30.686054","count":""}
,
{"name":"风味园酒店","address":"燕领社区油纱路139号(新东棉旁)","longitude":"113.981121","latitude":"30.681105","count":""}
,
{"name":"新华酒店(油纱路店)","address":"燕岭新村油纱路60号","longitude":"113.986128","latitude":"30.683222","count":""}
,
{"name":"华丰旅社(油纱路店)","address":"油纱路与荷花街交叉口西200米","longitude":"113.985987","latitude":"30.682663","count":""}
,
{"name":"OYO奥7商务宾馆(六顺路店)","address":"东西湖辅路六顺路8号(六顺路与107国道交汇处十字路口向南100米)","longitude":"114.133796","latitude":"30.615367","count":""}
,
{"name":"汪家旅社","address":"四明路与团结街交叉口东北100米","longitude":"114.142567","latitude":"30.609791","count":""}
,
{"name":"武汉市东西湖金源宾馆","address":"东西湖大道东建金鼎湾1栋1单元15-18号(舵落口大市场旁)","longitude":"114.148986","latitude":"30.617594","count":""}
,
{"name":"武汉市兴宇商务宾馆","address":"三闵社区金鼎湾","longitude":"114.149588","latitude":"30.617488","count":""}
,
{"name":"武汉如家旅社","address":"107国道与三秀路交叉口南50米路东(东西湖地区)","longitude":"114.146462","latitude":"30.617062","count":""}
